TimeUS,Roll,Pitch,Yaw,Alt,Lat,Lng,Q1,Q2,Q3,Q4,timestamp
221061856.0,0.12,0.1,350.66,11.069999694824219,14.083778299999999,100.42014979999999,0.9966799020767212,0.0011680956231430173,0.0008424122352153063,-0.08140726387500763,1668050393.380877
221161500.0,0.11,0.12,350.65000000000003,11.179999351501465,14.083778299999999,100.42014979999999,0.9966723918914795,0.0010919739725068212,0.0010189177701249719,-0.08149793744087219,1668050393.480521
221261522.0,0.11,0.1,350.66,11.09000015258789,14.083778299999999,100.42014979999999,0.9966813921928406,0.0011003219988197088,0.000843813584651798,-0.08138974756002426,1668050393.580543
221361333.0,0.12,0.09,350.64,11.119999885559082,14.0837782,100.42014979999999,0.9966706037521362,0.001133263809606433,0.0007399008027277887,-0.08152226358652115,1668050393.6803539
221461285.0,0.11,0.1,350.63,10.989999771118164,14.0837782,100.42014979999999,0.9966589212417603,0.001108903088606894,0.0008657021098770201,-0.08166375011205673,1668050393.780306
221561386.0,0.11,0.09,350.64,11.019999504089355,14.0837782,100.42014979999999,0.9966701865196228,0.0010865613585337996,0.0007756735431030393,-0.08152756094932556,1668050393.880407
221661322.0,0.11,0.08,350.63,11.0,14.0837782,100.42014979999999,0.9966633319854736,0.0010936789913102984,0.0006478993454948068,-0.08161240071058273,1668050393.980343
221761275.0,0.1,0.09,350.61,11.139999389648438,14.0837782,100.42014979999999,0.9966497421264648,0.0010234762448817492,0.0007757465355098248,-0.08177848905324936,1668050394.080296
221861272.0,0.12,0.09,350.63,11.079999923706055,14.0837782,100.42014979999999,0.9966613054275513,0.0011472702026367188,0.0007178268278948963,-0.08163554966449738,1668050394.180293
221961671.0,0.11,0.07,350.61,11.130000114440918,14.0837782,100.42014979999999,0.9966479539871216,0.001068916404619813,0.0005943149444647133,-0.08180064707994461,1668050394.280692
222061386.0,0.11,0.08,350.6,11.239999771118164,14.0837781,100.42014979999999,0.9966434240341187,0.0010870619444176555,0.00069665617775172,-0.08185474574565887,1668050394.380407
222161374.0,0.11,0.08,350.61,10.889999389648438,14.0837781,100.4201499,0.9966461658477783,0.0010894081788137555,0.0006240417715162039,-0.08182254433631897,1668050394.480395
222261291.0,0.11,0.08,350.61,11.079999923706055,14.083777999999999,100.42014999999999,0.9966446161270142,0.0010935852769762278,0.0006287065334618092,-0.08184090256690979,1668050394.580312
222361439.0,0.11,0.08,350.58,11.079999923706055,14.083777999999999,100.42014999999999,0.9966281056404114,0.0010457569733262062,0.0006514530396088958,-0.08204283565282822,1668050394.68046
222461424.0,0.12,0.08,350.61,11.069999694824219,14.0837779,100.42014999999999,0.9966486692428589,0.0011353397276252508,0.0006332452758215368,-0.0817912369966507,1668050394.780445
222561345.0,0.11,0.08,350.59000000000003,11.149999618530273,14.0837779,100.42014999999999,0.9966316223144531,0.0010300915455445647,0.0006398983532562852,-0.08200009167194366,1668050394.880366
222661451.0,0.12,0.08,350.57,10.800000190734863,14.0837778,100.42014999999999,0.9966191053390503,0.0011203208705410361,0.0006143796490505338,-0.08215115964412689,1668050394.980472
222761327.0,0.11,0.08,350.6,11.15999984741211,14.0837778,100.42014999999999,0.9966371059417725,0.0010889435652643442,0.0006115230498835444,-0.08193250745534897,1668050395.080348
222861387.0,0.11,0.08,350.58,11.069999694824219,14.083777699999999,100.4201501,0.9966244101524353,0.001056805020198226,0.0006490441155619919,-0.08208700269460678,1668050395.180408
222961364.0,0.12,0.08,350.55,11.069999694824219,14.083777699999999,100.4201501,0.9966075420379639,0.0011371414875611663,0.0006074873963370919,-0.08229057490825653,1668050395.280385
223061657.0,0.11,0.07,350.58,10.989999771118164,14.0837776,100.4201501,0.996623158454895,0.0010785830672830343,0.0006023818859830499,-0.08210226893424988,1668050395.380678
223161663.0,0.12,0.08,350.57,10.969999313354492,14.0837776,100.4201501,0.9966179728507996,0.0011198011925444007,0.0006147284875623882,-0.0821647122502327,1668050395.480684
223261399.0,0.11,0.07,350.54,10.920000076293945,14.0837776,100.4201501,0.9965989589691162,0.00107709935400635,0.0005752018769271672,-0.08239582926034927,1668050395.58042
223361621.0,0.12,0.07,350.56,10.989999771118164,14.0837776,100.4201501,0.9966135025024414,0.0011107418686151505,0.0005634548142552376,-0.0822189673781395,1668050395.680642
223461367.0,0.11,0.07,350.55,11.019999504089355,14.0837776,100.4201501,0.9966068863868713,0.0010761418379843235,0.000594541197642684,-0.0822993665933609,1668050395.7803879
223561372.0,0.11,0.07,350.53000000000003,11.130000114440918,14.0837776,100.42014999999999,0.9965929985046387,0.001088226679712534,0.0005706800729967654,-0.08246774226427078,1668050395.880393
223661341.0,0.11,0.07,350.55,11.149999618530273,14.0837776,100.42014999999999,0.9966022372245789,0.001088398159481585,0.0005799907958135009,-0.0823558047413826,1668050395.980362
223761421.0,0.11,0.07,350.54,11.010000228881836,14.0837775,100.42014999999999,0.9965975880622864,0.0010649405885487795,0.0005927992169745266,-0.08241239935159683,1668050396.080442
223861288.0,0.12,0.07,350.52,11.019999504089355,14.0837775,100.42014999999999,0.9965826869010925,0.0011202633613720536,0.0005489452159963548,-0.08259206265211105,1668050396.180309
223961346.0,0.11,0.07,350.53000000000003,11.019999504089355,14.083777399999999,100.42014999999999,0.9965912103652954,0.0010795972775667906,0.000580007501412183,-0.08248945325613022,1668050396.280367
224061659.0,0.12,0.07,350.53000000000003,11.059999465942383,14.083777399999999,100.4201501,0.996588945388794,0.0011301564518362284,0.0005778209888376296,-0.08251573145389557,1668050396.38068
224161352.0,0.11,0.07,350.51,11.170000076293945,14.083777399999999,100.42014999999999,0.9965737462043762,0.0010972184827551246,0.0005886087310500443,-0.08269963413476944,1668050396.480373
224261389.0,0.12,0.07,350.52,11.050000190734863,14.083777399999999,100.42014999999999,0.9965803623199463,0.0011163454037159681,0.0005826661945320666,-0.08261951804161072,1668050396.58041
227273543.0,0.07,0.11,350.42,11.170000076293945,14.0837766,100.42014979999999,0.9965101480484009,0.0007515050820074975,0.0009531145915389061,-0.08346305787563324,1668050399.5925639
227373307.0,0.09,0.1,350.37,11.059999465942383,14.083776499999999,100.42014979999999,0.9964728355407715,0.0009124409407377243,0.000882164400536567,-0.08390685170888901,1668050399.692328
227473340.0,0.09,0.1,350.34000000000003,11.069999694824219,14.083776499999999,100.4201497,0.9964516758918762,0.0009287835564464331,0.0008032456389628351,-0.08415776491165161,1668050399.792361
227573381.0,0.1,0.11,350.40000000000003,11.119999885559082,14.083776499999999,100.4201497,0.9964938163757324,0.001023321645334363,0.0008980276179499924,-0.08365540206432343,1668050399.892402
227673245.0,0.1,0.08,350.35,10.929999351501465,14.083776499999999,100.4201497,0.9964590668678284,0.0009924547048285604,0.0006874221144244075,-0.0840706005692482,1668050399.992266
227773277.0,0.11,0.08,350.33,11.019999504089355,14.083776499999999,100.4201497,0.9964422583580017,0.0010608991142362356,0.0006719093071296811,-0.08426865190267563,1668050400.092298
227873294.0,0.11,0.09,350.37,10.989999771118164,14.083776499999999,100.4201497,0.9964733123779297,0.0010532940505072474,0.0007573234033770859,-0.08390022814273834,1668050400.192315
227973257.0,0.11,0.09,350.35,11.119999885559082,14.083776499999999,100.42014979999999,0.9964573383331299,0.0010758572025224566,0.0007333870162256062,-0.08408991992473602,1668050400.292278
228073381.0,0.12,0.08,350.31,11.15999984741211,14.0837766,100.42014979999999,0.9964329600334167,0.0011416004272177815,0.0006838787230663002,-0.08437815308570862,1668050400.392402
228173456.0,0.11,0.09,350.35,11.059999465942383,14.0837766,100.42014979999999,0.9964593648910522,0.0010689691407606006,0.0007203030399978161,-0.08406634628772736,1668050400.492477
228273178.0,0.12,0.09,350.34000000000003,11.059999465942383,14.0837766,100.42014979999999,0.9964485168457031,0.0011461647227406502,0.0006980624166317284,-0.08419393748044968,1668050400.592199
228373219.0,0.12,0.08,350.31,11.050000190734863,14.0837766,100.42014979999999,0.9964271783828735,0.0011285149957984686,0.0006495995330624282,-0.08444628864526749,1668050400.69224
228473349.0,0.12,0.08,350.33,11.139999389648438,14.0837766,100.42014979999999,0.9964459538459778,0.0011572352377697825,0.0006803653086535633,-0.08422429859638214,1668050400.79237
228573350.0,0.12,0.09,350.32,11.029999732971191,14.083776499999999,100.42014979999999,0.9964390993118286,0.0011424155673012137,0.0006979897152632475,-0.08430526405572891,1668050400.892371
228673526.0,0.12,0.08,350.3,11.050000190734863,14.083776499999999,100.42014979999999,0.9964185357093811,0.0011822672095149755,0.0006357207312248647,-0.0845477283000946,1668050400.992547
228773409.0,0.12,0.08,350.32,10.969999313354492,14.083776499999999,100.42014979999999,0.9964352250099182,0.0011560560669749975,0.0006674436153843999,-0.08435125648975372,1668050401.0924299
228873316.0,0.12,0.08,350.31,11.239999771118164,14.083776499999999,100.42014979999999,0.9964264631271362,0.0011594643583521247,0.0006632013246417046,-0.08445463329553604,1668050401.192337
228973279.0,0.12,0.08,350.28000000000003,10.960000038146973,14.0837766,100.4201497,0.9964087605476379,0.0011897615622729063,0.0006488575018011034,-0.08466309309005737,1668050401.2923
229073383.0,0.12,0.08,350.3,11.149999618530273,14.083776499999999,100.4201497,0.9964210391044617,0.0011490255128592253,0.0006711450987495482,-0.0845189094543457,1668050401.392404
229173276.0,0.12,0.08,350.29,11.069999694824219,14.083776499999999,100.4201497,0.9964168071746826,0.001168720773421228,0.0006526564247906208,-0.08456795662641525,1668050401.492297
229273352.0,0.12,0.08,350.27,11.09000015258789,14.0837764,100.4201497,0.9963994026184082,0.001159154693596065,0.0006599376210942864,-0.08477280288934708,1668050401.592373
229373229.0,0.12,0.08,350.28000000000003,11.109999656677246,14.0837764,100.4201497,0.9964091777801514,0.0011675802525132895,0.0006794751971028745,-0.08465804904699326,1668050401.69225
229473302.0,0.12,0.08,350.28000000000003,11.079999923706055,14.0837764,100.4201497,0.9964064955711365,0.0011566677130758762,0.0006876912084408104,-0.08468949049711227,1668050401.7923229
229573320.0,0.12,0.08,350.26,10.84999942779541,14.0837763,100.4201497,0.9963899254798889,0.0011592202354222536,0.0006598376203328371,-0.08488412946462631,1668050401.892341
229673326.0,0.12,0.08,350.27,11.09999942779541,14.0837763,100.4201497,0.9963967800140381,0.001147582079283893,0.0006628678529523313,-0.08480431884527206,1668050401.992347
229773364.0,0.12,0.08,350.26,11.0,14.0837763,100.4201497,0.9963942170143127,0.0011506837327033281,0.0006484766490757465,-0.08483356982469559,1668050402.092385
229873205.0,0.12,0.08,350.24,10.960000038146973,14.0837763,100.4201496,0.996380090713501,0.00115318747702986,0.0006598572945222259,-0.08500005304813385,1668050402.192226
229973337.0,0.12,0.08,350.25,11.0,14.083776199999999,100.4201497,0.9963852167129517,0.0011682786280289292,0.0006604152149520814,-0.08493927121162415,1668050402.292358
230073358.0,0.12,0.08,350.25,11.010000228881836,14.083776199999999,100.4201497,0.9963831305503845,0.0011273827403783798,0.0006591402343474329,-0.08496415615081787,1668050402.392379
233087058.0,0.09,0.06,350.09000000000003,11.059999465942383,14.0837753,100.420149,0.9962679147720337,0.0009135235450230539,0.000492610561195761,-0.08630891889333725,1668050405.406079
233186754.0,0.1,0.07,350.1,11.199999809265137,14.0837752,100.420149,0.9962725043296814,0.0009501976310275495,0.0005747213726863265,-0.0862540602684021,1668050405.505775
233286680.0,0.1,0.07,350.08,11.09999942779541,14.0837752,100.420149,0.9962577819824219,0.0010131519520655274,0.0006107786321081221,-0.08642373234033585,1668050405.605701
233387059.0,0.1,0.08,350.08,11.210000038146973,14.083775099999999,100.420149,0.9962601065635681,0.0010195409413427114,0.0006474376423284411,-0.08639687299728394,1668050405.70608
233486840.0,0.1,0.08,350.09000000000003,11.09000015258789,14.083775099999999,100.420149,0.9962643384933472,0.0009753893245942891,0.0006486072670668364,-0.08634792268276215,1668050405.805861
233586791.0,0.11,0.08,350.08,11.139999389648438,14.083775099999999,100.420149,0.9962563514709473,0.0010410002432763577,0.000671213201712817,-0.08643953502178192,1668050405.905812
233686746.0,0.11,0.08,350.08,11.029999732971191,14.083775,100.4201489,0.9962610006332397,0.0011044006096199155,0.0006476419512182474,-0.08638502657413483,1668050406.0057669
233786716.0,0.13,0.09,350.1,11.050000190734863,14.083775,100.4201489,0.9962751865386963,0.0012069749645888805,0.0006907261558808386,-0.08621978014707565,1668050406.105737
233886636.0,0.12,0.08,350.07,11.0,14.083775,100.4201489,0.9962515830993652,0.0011937911622226238,0.0006346046575345099,-0.0864926129579544,1668050406.205657
233986651.0,0.11,0.08,350.07,11.09000015258789,14.083775,100.42014879999999,0.9962489008903503,0.001087723532691598,0.0006938041769899428,-0.086524099111557,1668050406.305672
234086790.0,0.12,0.09,350.08,11.079999923706055,14.0837749,100.42014879999999,0.9962604641914368,0.001174461911432445,0.0007591602625325322,-0.08638932555913925,1668050406.405811
234186699.0,0.12,0.08,350.06,11.039999961853027,14.0837749,100.42014879999999,0.9962400794029236,0.0011146784527227283,0.0006486402126029134,-0.08662588149309158,1668050406.50572
234286651.0,0.12,0.09,350.06,11.019999504089355,14.0837749,100.42014879999999,0.9962466359138489,0.0011322703212499619,0.0007291127112694085,-0.08654966950416565,1668050406.605672
234387160.0,0.12,0.08,350.05,11.09000015258789,14.083774799999999,100.4201487,0.9962366223335266,0.00118195207323879,0.0006418591947294772,-0.08666474372148514,1668050406.706181
234486729.0,0.12,0.09,350.06,11.069999694824219,14.083774799999999,100.42014879999999,0.9962441325187683,0.0011431941529735923,0.0007416916196234524,-0.08657865226268768,1668050406.80575
234586837.0,0.12,0.08,350.04,11.119999885559082,14.0837747,100.4201487,0.9962270855903625,0.001174336881376803,0.0006564263021573424,-0.08677438646554947,1668050406.905858
234686765.0,0.13,0.09,350.04,11.029999732971191,14.0837747,100.4201487,0.9962282180786133,0.0012305263662710786,0.000715749163646251,-0.08675999194383621,1668050407.005786
234786729.0,0.11,0.09,350.06,11.059999465942383,14.0837746,100.4201487,0.9962419867515564,0.0011032458860427141,0.0007118602516129613,-0.08660389482975006,1668050407.10575
234886719.0,0.13,0.08,350.02,11.15999984741211,14.0837746,100.4201487,0.9962100982666016,0.0012808226747438312,0.0006551670958288014,-0.08696818351745605,1668050407.20574
234986652.0,0.11,0.1,350.03000000000003,11.139999389648438,14.0837746,100.4201487,0.9962204694747925,0.001094744773581624,0.0007995788473635912,-0.08685032278299332,1668050407.305673
235086765.0,0.12,0.1,350.06,11.119999885559082,14.083774499999999,100.42014859999999,0.9962419867515564,0.0011698213638737798,0.0007766666240058839,-0.0866023600101471,1668050407.405786
235186806.0,0.12,0.09,349.99,11.25,14.083774499999999,100.42014859999999,0.9961935877799988,0.001168867340311408,0.0006876707775518298,-0.08715806901454926,1668050407.505827
235286919.0,0.12,0.1,350.01,11.170000076293945,14.0837744,100.4201487,0.9962060451507568,0.0011577141704037786,0.0007982084644027054,-0.08701454848051071,1668050407.60594
235387019.0,0.13,0.1,350.05,11.119999885559082,14.0837744,100.42014859999999,0.9962365031242371,0.00123292685020715,0.0008264423231594265,-0.08666393160820007,1668050407.70604
235486783.0,0.13,0.09,349.99,11.0,14.0837744,100.42014859999999,0.9961885809898376,0.001241203979589045,0.0007629061001352966,-0.08721323311328888,1668050407.805804
235586725.0,0.13,0.1,349.99,10.979999542236328,14.0837744,100.42014859999999,0.9961928725242615,0.0012713295873254538,0.0008079090039245784,-0.08716395497322083,1668050407.905746
235686729.0,0.12,0.1,350.03000000000003,11.149999618530273,14.0837743,100.4201485,0.9962183237075806,0.0011986986501142383,0.0007836974109522998,-0.08687356859445572,1668050408.00575
238399046.0,0.13,0.09,349.88,11.09999942779541,14.0837738,100.4201484,0.9961094260215759,0.0012569314567372203,0.0006881066947244108,-0.08811375498771667,1668050410.718067
238499411.0,0.13,0.09,349.88,11.170000076293945,14.0837738,100.4201485,0.9961033463478088,0.0012469672365114093,0.0006787996389903128,-0.0881824865937233,1668050410.818432
238598798.0,0.14,0.08,349.87,11.109999656677246,14.0837738,100.4201485,0.9961011409759521,0.0012884855968877673,0.0006323201232589781,-0.08820658177137375,1668050410.917819
238698874.0,0.12,0.09,349.87,10.989999771118164,14.0837737,100.4201485,0.9960951805114746,0.001195713528431952,0.0006865279865451157,-0.08827545493841171,1668050411.017895
238798929.0,0.12,0.08,349.87,11.09999942779541,14.083773599999999,100.4201485,0.9960968494415283,0.0011775423772633076,0.0006494881818071008,-0.08825695514678955,1668050411.11795
238898879.0,0.12,0.08,349.86,11.019999504089355,14.083773599999999,100.4201485,0.9960911273956299,0.00117645098362118,0.0006679983926005661,-0.0883212760090828,1668050411.2179
238998853.0,0.12,0.09,349.85,11.09000015258789,14.083773599999999,100.4201485,0.9960824847221375,0.0011993927182629704,0.000719245697837323,-0.08841744065284729,1668050411.317874
239098778.0,0.11,0.08,349.86,11.1899995803833,14.083773599999999,100.4201485,0.9960900545120239,0.0011028050212189555,0.0006901235901750624,-0.08833380043506622,1668050411.417799
239198885.0,0.13,0.08,349.84000000000003,11.050000190734863,14.0837735,100.4201485,0.9960729479789734,0.0012097266735509038,0.0006692230817861855,-0.08852565288543701,1668050411.517906
239298884.0,0.12,0.1,349.84000000000003,11.029999732971191,14.0837735,100.42014859999999,0.9960780739784241,0.0011672582477331161,0.0007816966390237212,-0.08846732974052429,1668050411.617905
239398855.0,0.13,0.07,349.83,11.139999389648438,14.0837735,100.4201485,0.9960697889328003,0.0011999912094324827,0.0005891469772905111,-0.08856185525655746,1668050411.717876
239498975.0,0.12,0.09,349.84000000000003,10.979999542236328,14.0837734,100.42014859999999,0.9960711002349854,0.0011830514995381236,0.0007580476813018322,-0.0885462686419487,1668050411.817996
239598860.0,0.14,0.1,349.81,11.130000114440918,14.083773299999999,100.42014859999999,0.9960543513298035,0.0012970808893442154,0.0007606748840771616,-0.0887327566742897,1668050411.917881
239698933.0,0.12,0.09,349.84000000000003,11.09999942779541,14.083773299999999,100.4201487,0.9960727095603943,0.0011996105313301086,0.0007178300293162465,-0.08852805197238922,1668050412.0179539
239798850.0,0.14,0.1,349.81,11.019999504089355,14.083773299999999,100.4201487,0.9960493445396423,0.0013495979364961386,0.0008092789794318378,-0.08878771960735321,1668050412.117871
239898814.0,0.12,0.09,349.8,10.989999771118164,14.083773299999999,100.4201487,0.9960426092147827,0.0011287424713373184,0.0007267227629199624,-0.08886732161045074,1668050412.217835
239998982.0,0.14,0.09,349.84000000000003,11.15999984741211,14.083773299999999,100.4201487,0.9960759282112122,0.0013042594073340297,0.0007235310622490942,-0.08849053084850311,1668050412.318003
240098800.0,0.13,0.1,349.78000000000003,11.109999656677246,14.083773299999999,100.4201487,0.9960271716117859,0.0012603678042069077,0.0007861875928938389,-0.08903751522302628,1668050412.417821
240198820.0,0.14,0.09,349.78000000000003,11.139999389648438,14.083773299999999,100.4201487,0.9960294961929321,0.001340588671155274,0.0007202292908914387,-0.08901119977235794,1668050412.517841
240298813.0,0.14,0.1,349.83,10.989999771118164,14.083773299999999,100.4201487,0.9960669279098511,0.0013634935021400452,0.0008131758659146726,-0.08858982473611832,1668050412.617834
240398914.0,0.14,0.11,349.78000000000003,11.039999961853027,14.083773299999999,100.42014859999999,0.9960260987281799,0.0013252225471660495,0.0008910945616662502,-0.08904821425676346,1668050412.717935
240498879.0,0.15,0.1,349.77,11.029999732971191,14.083773299999999,100.42014859999999,0.9960180521011353,0.001425715396180749,0.0007974908221513033,-0.0891372412443161,1668050412.8179
240599032.0,0.14,0.1,349.81,11.059999465942383,14.0837732,100.42014859999999,0.9960477352142334,0.0013098770286887884,0.0008442128309980035,-0.08880631625652313,1668050412.918053
240698855.0,0.15,0.1,349.77,11.019999504089355,14.0837732,100.42014859999999,0.9960232377052307,0.001394555438309908,0.0008315877057611942,-0.089079350233078,1668050413.017876
240799080.0,0.14,0.09,349.76,10.949999809265137,14.0837732,100.42014859999999,0.9960102438926697,0.0013455756707116961,0.0007460755296051502,-0.08922558277845383,1668050413.118101
240898836.0,0.14,0.1,349.79,11.0,14.0837732,100.42014859999999,0.9960362315177917,0.0013520120410248637,0.0008023518603295088,-0.08893479406833649,1668050413.217857
240998914.0,0.14,0.11,349.76,11.0,14.0837731,100.4201487,0.9960157871246338,0.0013503418304026127,0.000853966863360256,-0.08916252851486206,1668050413.317935
241098858.0,0.14,0.1,349.75,11.130000114440918,14.0837731,100.4201487,0.9960010647773743,0.001338854432106018,0.0007648553000763059,-0.08932790905237198,1668050413.417879
241198830.0,0.14,0.1,349.77,11.039999961853027,14.0837731,100.4201487,0.9960238337516785,0.0013505351962521672,0.0008085903828032315,-0.08907349407672882,1668050413.5178509
241298869.0,0.14,0.1,349.75,11.119999885559082,14.0837731,100.4201487,0.9960081577301025,0.0013127621496096253,0.0007756031700409949,-0.08924923092126846,1668050413.61789
241398922.0,0.14,0.09,349.74,10.880000114440918,14.0837731,100.42014859999999,0.995993971824646,0.0013691153144463897,0.0007356780115514994,-0.0894070565700531,1668050413.717943
241499085.0,0.14,0.1,349.76,10.979999542236328,14.0837731,100.42014859999999,0.9960092306137085,0.0013102364027872682,0.0007846154039725661,-0.08923736214637756,1668050413.818106
241598826.0,0.14,0.1,349.74,11.149999618530273,14.083772999999999,100.42014859999999,0.9959984421730042,0.0013453137362375855,0.0007764944457449019,-0.08935724198818207,1668050413.917847
241698810.0,0.14,0.09,349.72,11.09999942779541,14.083772999999999,100.4201485,0.9959830045700073,0.0013476116582751274,0.0007446796516887844,-0.0895293802022934,1668050414.017831
241798828.0,0.14,0.1,349.74,11.109999656677246,14.083772999999999,100.4201485,0.9959960579872131,0.0013527476694434881,0.0007751858211122453,-0.08938366919755936,1668050414.1178489
241898809.0,0.14,0.1,349.73,10.899999618530273,14.083772999999999,100.4201485,0.9959892630577087,0.0013673094799742103,0.0007740930886939168,-0.08945919573307037,1668050414.21783
241998995.0,0.14,0.09,349.71,10.9399995803833,14.083772999999999,100.4201485,0.995974063873291,0.0013678992399945855,0.0007446500239893794,-0.0896286815404892,1668050414.318016
242098924.0,0.14,0.1,349.73,11.09000015258789,14.083772999999999,100.4201485,0.9959852695465088,0.001361784408800304,0.0007785622146911919,-0.08950378000736237,1668050414.417945
242198877.0,0.14,0.1,349.72,11.039999961853027,14.0837729,100.42014859999999,0.9959786534309387,0.0013525864342227578,0.0007645896985195577,-0.08957773447036743,1668050414.517898
242298803.0,0.14,0.09,349.7,11.039999961853027,14.0837729,100.42014859999999,0.9959644079208374,0.0013718681875616312,0.0007508856360800564,-0.08973545581102371,1668050414.617824
242398993.0,0.14,0.1,349.71,11.059999465942383,14.0837729,100.42014859999999,0.9959718585014343,0.0013539271894842386,0.00075731729157269,-0.0896528959274292,1668050414.718014
242499083.0,0.14,0.1,349.7,11.09000015258789,14.0837729,100.42014859999999,0.995968222618103,0.0013598984805867076,0.0007688212208449841,-0.08969332277774811,1668050414.818104
242598767.0,0.14,0.1,349.69,11.059999465942383,14.0837728,100.42014859999999,0.9959540367126465,0.0013785965275019407,0.0007546212873421609,-0.08985038101673126,1668050414.917788
242699005.0,0.15,0.1,349.69,11.09000015258789,14.0837728,100.42014859999999,0.9959607720375061,0.0013849260285496712,0.0007743744063191116,-0.08977515250444412,1668050415.0180259
242798929.0,0.14,0.1,349.69,11.170000076293945,14.0837728,100.42014859999999,0.9959556460380554,0.0013722635339945555,0.0007689526537433267,-0.08983226865530014,1668050415.11795
242899075.0,0.14,0.09,349.67,10.979999542236328,14.0837728,100.42014859999999,0.9959431886672974,0.0013746976619586349,0.0007439099717885256,-0.08997073769569397,1668050415.218096
242999039.0,0.14,0.1,349.68,10.989999771118164,14.0837728,100.4201485,0.9959479570388794,0.0013691269559785724,0.0007641079719178379,-0.08991745114326477,1668050415.31806
243098885.0,0.15,0.1,349.67,11.170000076293945,14.0837728,100.4201485,0.9959450960159302,0.0013847966911271214,0.0007516762707382441,-0.08994932472705841,1668050415.417906
243198779.0,0.14,0.1,349.66,11.029999732971191,14.083772699999999,100.4201485,0.9959331154823303,0.0013772797537967563,0.0007525996188633144,-0.09008222073316574,1668050415.5178
243298943.0,0.15,0.1,349.66,10.869999885559082,14.083772699999999,100.42014859999999,0.9959360957145691,0.0013906685635447502,0.000752377207390964,-0.09004903584718704,1668050415.617964
243398809.0,0.15,0.09,349.66,10.979999542236328,14.083772699999999,100.42014859999999,0.9959346055984497,0.0013821414904668927,0.0007451959536410868,-0.09006552398204803,1668050415.71783
246511080.0,0.15,0.08,349.52,11.019999504089355,14.083772699999999,100.4201489,0.9958206415176392,0.0014333673752844334,0.0006229702266864479,-0.09131684899330139,1668050418.830101
246610820.0,0.15,0.08,349.5,11.059999465942383,14.083772699999999,100.4201489,0.9958060383796692,0.0014538925606757402,0.0006319821695797145,-0.0914757251739502,1668050418.929841
246710885.0,0.15,0.08,349.51,11.039999961853027,14.083772699999999,100.420149,0.9958149194717407,0.001433979137800634,0.0005843802355229855,-0.09137998521327972,1668050419.029906
246810723.0,0.15,0.09,349.52,11.09999942779541,14.083772699999999,100.420149,0.9958195686340332,0.0014489921741187572,0.0006921871099621058,-0.09132807701826096,1668050419.129744
246910812.0,0.15,0.1,349.49,10.969999313354492,14.083772699999999,100.420149,0.9957976937294006,0.0014309996040537953,0.0007936152978800237,-0.0915658101439476,1668050419.229833
247010704.0,0.16,0.08,349.49,10.989999771118164,14.0837726,100.420149,0.995802104473114,0.0014972470235079527,0.000634517113212496,-0.09151794016361237,1668050419.329725
247110754.0,0.15,0.09,349.49,11.059999465942383,14.0837726,100.42014909999999,0.9958017468452454,0.0014039392117410898,0.0007126916316337883,-0.09152296930551529,1668050419.429775
247210862.0,0.16,0.09,349.48,11.059999465942383,14.0837726,100.42014909999999,0.9957882761955261,0.0014831051230430603,0.0006981835467740893,-0.09166841953992844,1668050419.529883
247310748.0,0.15,0.08,349.48,11.109999656677246,14.0837726,100.42014909999999,0.9957927465438843,0.00141728890594095,0.0005897214286960661,-0.09162180870771408,1668050419.629769
247410583.0,0.16,0.09,349.47,11.109999656677246,14.083772699999999,100.42014909999999,0.9957864880561829,0.0014790273271501064,0.0007266959873959422,-0.09168742597103119,1668050419.729604
247510670.0,0.15,0.09,349.47,11.019999504089355,14.083772699999999,100.4201492,0.9957824349403381,0.0014039294328540564,0.0007212362834252417,-0.09173291176557541,1668050419.829691
247610645.0,0.16,0.08,349.47,11.09999942779541,14.083772699999999,100.4201492,0.9957817792892456,0.0014741295017302036,0.0006339057581499219,-0.09173952788114548,1668050419.929666
247710891.0,0.15,0.1,349.45,11.119999885559082,14.083772699999999,100.4201492,0.9957683086395264,0.0014021540991961956,0.0007711033686064184,-0.09188548475503922,1668050420.029912
247810719.0,0.16,0.09,349.47,11.029999732971191,14.083772699999999,100.4201492,0.9957796335220337,0.0014676597202196717,0.00068804802140221,-0.09176253527402878,1668050420.12974
247910723.0,0.16,0.08,349.44,11.050000190734863,14.083772699999999,100.42014909999999,0.9957619309425354,0.001480473787523806,0.0006282844697125256,-0.09195458143949509,1668050420.229744
248010671.0,0.15,0.1,349.44,11.239999771118164,14.083772699999999,100.4201492,0.9957565665245056,0.0014417496277019382,0.0007730673532932997,-0.09201230853796005,1668050420.329692
248110794.0,0.16,0.09,349.46,11.109999656677246,14.083772699999999,100.4201492,0.9957752227783203,0.001471922849304974,0.0006565081421285868,-0.09181030094623566,1668050420.429815
248211052.0,0.15,0.09,349.43,11.029999732971191,14.083772699999999,100.4201492,0.9957499504089355,0.001435572630725801,0.0006788424216210842,-0.09208399057388306,1668050420.530073
248310684.0,0.16,0.1,349.42,11.079999923706055,14.083772699999999,100.4201492,0.9957437515258789,0.0014863040996715426,0.0007667611935175955,-0.09215015172958374,1668050420.629705
248410810.0,0.15,0.09,349.44,11.109999656677246,14.0837728,100.4201492,0.9957605600357056,0.0014160561840981245,0.0006731717730872333,-0.09197020530700684,1668050420.729831
248510688.0,0.16,0.09,349.42,11.09999942779541,14.0837728,100.4201492,0.9957420229911804,0.0014679592568427324,0.0007100548828020692,-0.09216924011707306,1668050420.829709
248610699.0,0.15,0.1,349.41,11.119999885559082,14.0837728,100.4201492,0.9957327842712402,0.0014356219908222556,0.0007470975979231298,-0.0922694206237793,1668050420.92972
248710864.0,0.15,0.09,349.43,11.079999923706055,14.0837729,100.42014929999999,0.9957486391067505,0.0014478362863883376,0.0006660117069259286,-0.09209873527288437,1668050421.029885
248810722.0,0.15,0.09,349.40000000000003,11.050000190734863,14.0837729,100.42014929999999,0.995730459690094,0.0014469719026237726,0.0006989567191340029,-0.09229471534490585,1668050421.129743
248910645.0,0.15,0.09,349.39,11.210000038146973,14.0837729,100.42014929999999,0.9957224726676941,0.00143518322147429,0.0007324373000301421,-0.09238092601299286,1668050421.229666
249010814.0,0.16,0.08,349.41,11.170000076293945,14.0837729,100.42014929999999,0.9957355856895447,0.0014708599774166942,0.0006248047575354576,-0.09223933517932892,1668050421.329835
249110728.0,0.15,0.09,349.39,11.109999656677246,14.0837729,100.42014929999999,0.995718777179718,0.0014334600418806076,0.0006874367245472968,-0.09242071211338043,1668050421.429749
249210755.0,0.16,0.09,349.38,11.199999809265137,14.0837729,100.42014929999999,0.9957111477851868,0.0014770403504371643,0.0007216110825538635,-0.09250209480524063,1668050421.529776
249310804.0,0.15,0.09,349.39,11.15999984741211,14.0837729,100.42014929999999,0.9957226514816284,0.0014410726726055145,0.0006706347339786589,-0.09237906336784363,1668050421.6298249
249410764.0,0.16,0.09,349.38,11.09000015258789,14.0837729,100.42014929999999,0.9957093000411987,0.001475260010920465,0.0007029312546364963,-0.09252264350652695,1668050421.729785
249510672.0,0.15,0.1,349.37,11.119999885559082,14.0837729,100.4201492,0.9956998229026794,0.0014486070722341537,0.0007481828797608614,-0.09262409061193466,1668050421.829693
249610747.0,0.15,0.09,349.38,11.119999885559082,14.0837729,100.4201492,0.9957093000411987,0.0014483213890343904,0.0006650981376878917,-0.09252320975065231,1668050421.929768
249710777.0,0.15,0.09,349.36,11.239999771118164,14.0837729,100.4201492,0.9956973791122437,0.0014349619159474969,0.0007151781464926898,-0.0926508828997612,1668050422.029798
249810773.0,0.15,0.09,349.35,11.1899995803833,14.0837729,100.4201492,0.9956901669502258,0.0014285258948802948,0.0007209196337498724,-0.09272877871990204,1668050422.129794
252822858.0,0.17,0.08,349.21,11.029999732971191,14.083773299999999,100.4201492,0.9955732822418213,0.001629751524887979,0.0006281439564190805,-0.09397247433662415,1668050425.141879
252922644.0,0.17,0.1,349.2,11.09000015258789,14.083773299999999,100.4201492,0.9955641627311707,0.0016284362645819783,0.0007981273229233921,-0.09406758099794388,1668050425.241665
253022684.0,0.17,0.08,349.22,11.130000114440918,14.083773299999999,100.42014929999999,0.9955775737762451,0.0015572609845548868,0.0005878012743778527,-0.09392814338207245,1668050425.341705
253122654.0,0.16,0.08,349.2,11.029999732971191,14.0837734,100.42014929999999,0.9955686330795288,0.001547423074953258,0.0006256517372094095,-0.09402289986610413,1668050425.441675
253222799.0,0.16,0.09,349.18,11.300000190734863,14.0837734,100.42014929999999,0.9955511093139648,0.001540649333037436,0.0006911698146723211,-0.0942082479596138,1668050425.54182
253322694.0,0.16,0.08,349.2,11.09000015258789,14.0837734,100.42014929999999,0.9955647587776184,0.0015185235533863306,0.0005729040713049471,-0.09406477212905884,1668050425.641715
253422614.0,0.16,0.08,349.19,11.09000015258789,14.0837734,100.42014929999999,0.9955554604530334,0.0014819357311353087,0.0006262677488848567,-0.09416353702545166,1668050425.741635
253522677.0,0.15,0.09,349.17,11.09999942779541,14.0837734,100.42014929999999,0.9955394268035889,0.0014288522070273757,0.0006922875181771815,-0.09433349967002869,1668050425.841698
253622638.0,0.15,0.08,349.18,11.050000190734863,14.0837734,100.42014929999999,0.9955502152442932,0.001447146525606513,0.0006085009081289172,-0.09421975910663605,1668050425.941659
253722832.0,0.15,0.09,349.17,11.139999389648438,14.0837734,100.4201494,0.9955422878265381,0.0014389085117727518,0.000689662410877645,-0.09430310130119324,1668050426.041853
253822654.0,0.15,0.09,349.16,11.119999885559082,14.0837734,100.4201494,0.9955294132232666,0.0014345330419018865,0.0007089567952789366,-0.09443831443786621,1668050426.141675
253922664.0,0.15,0.08,349.17,11.199999809265137,14.0837734,100.4201494,0.9955413341522217,0.001427295501343906,0.000600214465521276,-0.09431371092796326,1668050426.241685
254022731.0,0.15,0.09,349.15000000000003,10.979999542236328,14.0837735,100.4201494,0.9955268502235413,0.0014163685264065862,0.0006868590135127306,-0.09446607530117035,1668050426.341752
254122799.0,0.15,0.09,349.15000000000003,11.149999618530273,14.0837735,100.4201495,0.9955219626426697,0.001423128880560398,0.0006704577244818211,-0.09451740235090256,1668050426.44182
254222548.0,0.15,0.08,349.15000000000003,10.90999984741211,14.0837735,100.4201495,0.9955225586891174,0.0014036726206541061,0.000628126785159111,-0.09451157599687576,1668050426.541569
254322612.0,0.15,0.09,349.14,11.019999504089355,14.0837735,100.4201495,0.9955162405967712,0.0014444749103859067,0.0007132766186259687,-0.09457695484161377,1668050426.641633
254422666.0,0.15,0.08,349.14,10.929999351501465,14.083773599999999,100.4201495,0.9955118894577026,0.0013878497993573546,0.0006476874696090817,-0.09462413191795349,1668050426.741687
254522607.0,0.15,0.08,349.13,11.179999351501465,14.083773599999999,100.4201495,0.9955099821090698,0.0014334910083562136,0.0006380127160809934,-0.0946439802646637,1668050426.841628
254622643.0,0.14,0.09,349.13,11.069999694824219,14.083773599999999,100.4201495,0.9955040812492371,0.001363989314995706,0.0007168034208007157,-0.0947059914469719,1668050426.941664
254722614.0,0.15,0.08,349.13,11.059999465942383,14.083773599999999,100.4201495,0.9955053329467773,0.0014041215181350708,0.0006444104365073144,-0.09469327330589294,1668050427.041635
254822599.0,0.14,0.09,349.12,11.059999465942383,14.0837737,100.4201495,0.9954977035522461,0.0013798809377476573,0.0006829802878201008,-0.09477347135543823,1668050427.14162
254922692.0,0.15,0.09,349.11,11.059999465942383,14.0837737,100.4201495,0.9954909086227417,0.0013909313129261136,0.0007194121135398746,-0.09484422206878662,1668050427.241713
255022742.0,0.15,0.08,349.11,11.069999694824219,14.0837737,100.4201495,0.9954935908317566,0.0014020620146766305,0.000615802186075598,-0.09481674432754517,1668050427.341763
255122648.0,0.15,0.08,349.1,11.039999961853027,14.0837738,100.4201495,0.9954850673675537,0.001385438023135066,0.0006440666038542986,-0.09490609169006348,1668050427.441669
255222592.0,0.15,0.09,349.1,11.109999656677246,14.0837738,100.4201495,0.9954813122749329,0.0013894473668187857,0.000689980573952198,-0.0949450135231018,1668050427.541613
255322613.0,0.15,0.08,349.1,10.960000038146973,14.0837738,100.4201495,0.9954831600189209,0.0013805096969008446,0.0005902714328840375,-0.09492651373147964,1668050427.641634
255422631.0,0.14,0.09,349.09000000000003,11.109999656677246,14.0837738,100.4201496,0.9954763650894165,0.001377939130179584,0.000666008039843291,-0.09499713033437729,1668050427.741652
255522650.0,0.14,0.08,349.09000000000003,10.899999618530273,14.0837738,100.4201496,0.9954707622528076,0.001368749886751175,0.0006459990399889648,-0.09505630284547806,1668050427.841671
258434858.0,0.14,0.1,348.95,11.09999942779541,14.083774199999999,100.4201495,0.9953554272651672,0.0013462759088724852,0.0007831637631170452,-0.09625554829835892,1668050430.753879
258534748.0,0.15,0.1,348.95,11.139999389648438,14.083774199999999,100.4201495,0.9953598380088806,0.0014403981622308493,0.0008074168581515551,-0.09620824456214905,1668050430.853769
258634716.0,0.14,0.1,348.96,11.029999732971191,14.083774199999999,100.4201496,0.9953633546829224,0.001367327873595059,0.000776495726313442,-0.09617384523153305,1668050430.953737
258734917.0,0.15,0.09,348.94,11.079999923706055,14.0837743,100.4201496,0.9953474402427673,0.001413972582668066,0.0006898247520439327,-0.09633751958608627,1668050431.053938
258834703.0,0.15,0.09,348.94,11.09000015258789,14.0837743,100.4201496,0.9953460693359375,0.0014131177449598908,0.000736998044885695,-0.0963515117764473,1668050431.153724
258934807.0,0.15,0.09,348.94,11.050000190734863,14.0837743,100.4201496,0.9953515529632568,0.0014386819675564766,0.0006758745294064283,-0.09629550576210022,1668050431.253828
259034665.0,0.14,0.08,348.93,10.960000038146973,14.0837743,100.4201496,0.9953372478485107,0.0013266772730275989,0.0006467614439316094,-0.09644517302513123,1668050431.353686
259134721.0,0.15,0.09,348.92,11.1899995803833,14.0837743,100.4201496,0.9953360557556152,0.001388154225423932,0.0006665976252406836,-0.09645639359951019,1668050431.453742
259234795.0,0.14,0.08,348.92,11.170000076293945,14.0837743,100.4201496,0.9953323602676392,0.0013430704129859805,0.0006394075462594628,-0.09649503231048584,1668050431.553816
259334738.0,0.14,0.08,348.92,10.9399995803833,14.0837743,100.4201496,0.9953312873840332,0.0013676778180524707,0.0006399172125384212,-0.09650587290525436,1668050431.653759
259434833.0,0.14,0.08,348.90000000000003,11.139999389648438,14.0837743,100.4201497,0.995317816734314,0.0013173769693821669,0.0006512391264550388,-0.09664542227983475,1668050431.753854
259534777.0,0.15,0.08,348.92,11.170000076293945,14.0837743,100.4201497,0.9953323006629944,0.0014099895488470793,0.0006242958479560912,-0.09649493545293808,1668050431.853798
259634876.0,0.13,0.08,348.89,11.139999389648438,14.0837744,100.4201497,0.995309591293335,0.001275602146051824,0.0006514255655929446,-0.09673003852367401,1668050431.953897
259734758.0,0.15,0.08,348.90000000000003,11.25,14.0837744,100.4201497,0.9953137040138245,0.0014349111588671803,0.0005937074311077595,-0.09668603539466858,1668050432.053779
259834774.0,0.14,0.08,348.91,11.139999389648438,14.0837744,100.4201497,0.9953209757804871,0.0013008620589971542,0.000628451001830399,-0.09661306440830231,1668050432.153795
259934731.0,0.15,0.08,348.88,11.199999809265137,14.0837744,100.4201497,0.9952990412712097,0.0013782186433672905,0.0006340242107398808,-0.09683788567781448,1668050432.253752
260034763.0,0.15,0.08,348.88,11.109999656677246,14.0837744,100.4201497,0.9952993988990784,0.001396364183165133,0.0005713379359804094,-0.09683402627706528,1668050432.353784
260134757.0,0.14,0.08,348.90000000000003,11.1899995803833,14.0837744,100.4201497,0.9953123331069946,0.0013409528182819486,0.000622904219198972,-0.09670160710811615,1668050432.453778
260234696.0,0.15,0.08,348.87,11.019999504089355,14.0837744,100.4201497,0.9952922463417053,0.0014203201280906796,0.0006242222734726965,-0.09690716117620468,1668050432.553717
260334668.0,0.14,0.08,348.86,11.059999465942383,14.0837744,100.4201497,0.9952835440635681,0.0013401396572589874,0.0005900923861190677,-0.09699743986129761,1668050432.653689
260434753.0,0.15,0.08,348.88,11.069999694824219,14.0837744,100.42014979999999,0.9952967762947083,0.0014013261534273624,0.0006359468097798526,-0.09686051309108734,1668050432.753774
260534887.0,0.14,0.08,348.86,11.010000228881836,14.0837744,100.42014979999999,0.9952777624130249,0.0013341362355276942,0.0006207990809343755,-0.09705682843923569,1668050432.853908
260634735.0,0.15,0.08,348.85,11.130000114440918,14.0837744,100.42014979999999,0.995271623134613,0.0013829916715621948,0.0005772102158516645,-0.09711899608373642,1668050432.953756
260734728.0,0.14,0.08,348.86,11.0,14.0837744,100.42014979999999,0.9952815771102905,0.0013474930310621858,0.0006210934952832758,-0.09701738506555557,1668050433.053749
260834730.0,0.14,0.08,348.85,11.109999656677246,14.083774499999999,100.42014979999999,0.9952696561813354,0.0013596456265076995,0.0005805891123600304,-0.09713960438966751,1668050433.153751
260934660.0,0.15,0.08,348.84000000000003,11.039999961853027,14.0837744,100.42014979999999,0.9952627420425415,0.0013750484213232994,0.0005965033196844161,-0.09721063822507858,1668050433.253681
261034738.0,0.14,0.08,348.84000000000003,11.139999389648438,14.0837744,100.42014979999999,0.995266318321228,0.001338668167591095,0.0006396083044819534,-0.09717414528131485,1668050433.353759
261134829.0,0.15,0.08,348.83,11.069999694824219,14.0837744,100.42014979999999,0.9952590465545654,0.0013776931446045637,0.0005989806377328932,-0.0972478911280632,1668050433.45385
261234654.0,0.14,0.08,348.82,11.130000114440918,14.0837744,100.42014979999999,0.9952477812767029,0.0013336238916963339,0.0005939321708865464,-0.09736394882202148,1668050433.553675
261334800.0,0.14,0.08,348.83,10.969999313354492,14.0837744,100.42014979999999,0.9952537417411804,0.0013646612642332911,0.0006193090230226517,-0.0973023846745491,1668050433.653821
261434859.0,0.14,0.08,348.82,11.059999465942383,14.0837744,100.42014979999999,0.9952452778816223,0.0013436103472486138,0.000586177920922637,-0.09738962352275848,1668050433.75388
261534828.0,0.14,0.08,348.81,11.09000015258789,14.0837744,100.42014979999999,0.9952360987663269,0.0013712783111259341,0.0006080467719584703,-0.09748291969299316,1668050433.853849
261634705.0,0.14,0.08,348.81,11.179999351501465,14.0837744,100.4201497,0.9952406287193298,0.0013479344779625535,0.0006384781445376575,-0.09743650257587433,1668050433.953726
261734757.0,0.14,0.08,348.8,11.219999313354492,14.083774499999999,100.4201497,0.9952346086502075,0.0013703909935429692,0.0005889037274755538,-0.09749812632799149,1668050434.053778
261834836.0,0.14,0.08,348.79,11.119999885559082,14.083774499999999,100.4201497,0.995225191116333,0.0013680525589734316,0.0006279192748479545,-0.0975940003991127,1668050434.153857
261934733.0,0.14,0.08,348.8,11.010000228881836,14.083774499999999,100.4201497,0.9952291250228882,0.0013600061647593975,0.0006066336645744741,-0.09755375981330872,1668050434.253754
262034743.0,0.14,0.08,348.79,11.149999618530273,14.083774499999999,100.4201497,0.995223879814148,0.0013604334089905024,0.0005925591103732586,-0.09760787338018417,1668050434.353764
262134756.0,0.14,0.08,348.78000000000003,11.170000076293945,14.083774499999999,100.4201497,0.9952135682106018,0.0013604109408333898,0.0006166350794956088,-0.09771256893873215,1668050434.453777
262234699.0,0.14,0.08,348.78000000000003,11.15999984741211,14.083774499999999,100.4201497,0.9952174425125122,0.0013498237822204828,0.0006215631146915257,-0.09767314046621323,1668050434.55372
262334827.0,0.14,0.08,348.78000000000003,11.15999984741211,14.083774499999999,100.4201497,0.995211124420166,0.0013475443702191114,0.0005919368704780936,-0.09773804992437363,1668050434.653848
262434744.0,0.14,0.08,348.77,11.019999504089355,14.083774499999999,100.4201497,0.9952017068862915,0.0013546810951083899,0.0006165169179439545,-0.09783345460891724,1668050434.7537649
262534737.0,0.14,0.08,348.77,11.059999465942383,14.083774499999999,100.4201497,0.995204508304596,0.0013468717224895954,0.0005934388609603047,-0.0978052020072937,1668050434.853758
262634755.0,0.14,0.08,348.76,10.9399995803833,14.083774499999999,100.4201496,0.9951983690261841,0.0013574024196714163,0.0005947750760242343,-0.09786757081747055,1668050434.953776
262734766.0,0.14,0.08,348.75,10.989999771118164,14.083774499999999,100.4201496,0.9951890707015991,0.0013505175011232495,0.0006108494126237929,-0.09796179085969925,1668050435.053787
262834773.0,0.14,0.08,348.75,11.039999961853027,14.083774499999999,100.4201496,0.995191752910614,0.0013504583621397614,0.0005994710954837501,-0.09793505817651749,1668050435.153794
262934690.0,0.14,0.08,348.75,11.119999885559082,14.083774499999999,100.4201496,0.9951865077018738,0.0013402896001935005,0.0006224492099136114,-0.09798802435398102,1668050435.253711
263034777.0,0.14,0.08,348.74,11.15999984741211,14.083774499999999,100.4201496,0.9951788783073425,0.0013480124762281775,0.0006235384498722851,-0.09806536883115768,1668050435.353798
263134746.0,0.14,0.08,348.74,11.109999656677246,14.083774499999999,100.4201496,0.9951816201210022,0.001346830977126956,0.0006122960476204753,-0.09803766012191772,1668050435.453767
263234807.0,0.14,0.08,348.74,11.079999923706055,14.083774499999999,100.4201496,0.9951763153076172,0.001372445491142571,0.0006222427473403513,-0.09809126704931259,1668050435.553828
263334764.0,0.14,0.08,348.73,11.109999656677246,14.083774499999999,100.4201496,0.9951685667037964,0.0013593711191788316,0.0006261163507588208,-0.09816969931125641,1668050435.653785
263434843.0,0.14,0.08,348.73,11.079999923706055,14.083774499999999,100.4201497,0.9951708316802979,0.0013733669184148312,0.000613207696005702,-0.09814680367708206,1668050435.753864
263534863.0,0.14,0.08,348.72,11.050000190734863,14.083774499999999,100.4201497,0.9951658844947815,0.0013480779016390443,0.000642719678580761,-0.09819720685482025,1668050435.853884
263634754.0,0.14,0.08,348.72,11.059999465942383,14.083774499999999,100.4201497,0.9951589107513428,0.0013648966560140252,0.000621854211203754,-0.09826777875423431,1668050435.953775
263734751.0,0.14,0.08,348.72,11.029999732971191,14.083774499999999,100.4201497,0.9951586723327637,0.001351838931441307,0.0006201244541443884,-0.09826981276273727,1668050436.053772
263834752.0,0.14,0.08,348.71,11.279999732971191,14.083774499999999,100.4201497,0.9951532483100891,0.001371807768009603,0.0006301167886704206,-0.09832453727722168,1668050436.153773
263934714.0,0.14,0.08,348.7,11.179999351501465,14.0837744,100.4201497,0.9951477646827698,0.0013626513537019491,0.000615634024143219,-0.09838027507066727,1668050436.253735
264034803.0,0.14,0.08,348.7,11.039999961853027,14.0837744,100.4201497,0.9951461553573608,0.0013572168536484241,0.0006156020681373775,-0.09839675575494766,1668050436.353824
264134802.0,0.14,0.08,348.7,11.059999465942383,14.0837744,100.42014979999999,0.9951410889625549,0.0013533765450119972,0.0006362792337313294,-0.09844758361577988,1668050436.453823
264234692.0,0.14,0.08,348.69,11.059999465942383,14.0837744,100.42014979999999,0.9951353669166565,0.0013375766575336456,0.0006201788783073425,-0.09850601106882095,1668050436.553713
264334704.0,0.14,0.08,348.69,11.130000114440918,14.0837744,100.4201499,0.9951333999633789,0.0013386852806434035,0.000634917407296598,-0.09852588921785355,1668050436.653725
264434758.0,0.14,0.09,348.68,11.25999927520752,14.0837743,100.4201499,0.9951287508010864,0.0013263204600661993,0.0006590373232029378,-0.0985727310180664,1668050436.753779
264534783.0,0.14,0.08,348.67,10.979999542236328,14.0837743,100.42014999999999,0.9951224327087402,0.001351885381154716,0.0006333740893751383,-0.0986364409327507,1668050436.8538039
264634671.0,0.14,0.08,348.67,11.010000228881836,14.0837743,100.42014999999999,0.9951201677322388,0.0013260450214147568,0.0006467972416430712,-0.09865938127040863,1668050436.953692
264734777.0,0.14,0.08,348.67,11.09000015258789,14.0837743,100.4201501,0.9951181411743164,0.001338705187663436,0.0006503017502836883,-0.09868001192808151,1668050437.053798
264834656.0,0.14,0.08,348.66,11.019999504089355,14.0837743,100.4201501,0.9951124787330627,0.001308480161242187,0.0006223720847629011,-0.09873772412538528,1668050437.153677
264934643.0,0.14,0.08,348.66,11.050000190734863,14.0837743,100.4201501,0.9951096773147583,0.0013185294810682535,0.0006372377974912524,-0.0987650603055954,1668050437.253664
265034806.0,0.14,0.08,348.66,10.989999771118164,14.0837743,100.4201501,0.9951072931289673,0.001310182735323906,0.0006536365835927427,-0.09878931939601898,1668050437.353827
265134757.0,0.14,0.08,348.65000000000003,11.039999961853027,14.0837743,100.4201501,0.9951010346412659,0.0013291974319145083,0.0006255027838051319,-0.09885232150554657,1668050437.453778
265234757.0,0.14,0.08,348.65000000000003,10.960000038146973,14.0837743,100.4201501,0.9950977563858032,0.0013202596455812454,0.0006425248575396836,-0.09888552874326706,1668050437.553778
265334713.0,0.14,0.08,348.64,11.289999961853027,14.0837743,100.4201502,0.9950937628746033,0.0013329403009265661,0.0006275303894653916,-0.09892528504133224,1668050437.653734
265434679.0,0.14,0.08,348.64,11.050000190734863,14.0837743,100.4201502,0.995089054107666,0.0013367383508011699,0.0006147050298750401,-0.09897284209728241,1668050437.7537
265534849.0,0.14,0.08,348.63,11.059999465942383,14.0837743,100.4201502,0.9950852394104004,0.001320011680945754,0.0006294813938438892,-0.09901151061058044,1668050437.85387
265634741.0,0.14,0.08,348.63,11.25,14.0837743,100.42015029999999,0.9950826168060303,0.0013308122288435698,0.0006172451539896429,-0.09903731197118759,1668050437.953762
265734844.0,0.14,0.08,348.62,11.079999923706055,14.0837743,100.42015029999999,0.9950770139694214,0.0013249634066596627,0.0006139990873634815,-0.09909427911043167,1668050438.053865
265834745.0,0.14,0.08,348.62,11.039999961853027,14.0837743,100.42015029999999,0.9950724840164185,0.0013369203079491854,0.0006284016999416053,-0.09913934022188187,1668050438.153766
265934752.0,0.14,0.08,348.61,11.09999942779541,14.0837743,100.42015029999999,0.9950706362724304,0.001328973681665957,0.0006186665268614888,-0.0991576761007309,1668050438.253773
266034750.0,0.14,0.08,348.61,11.019999504089355,14.0837743,100.42015029999999,0.995064914226532,0.0013512041186913848,0.0006081617320887744,-0.09921517968177795,1668050438.353771
266134727.0,0.14,0.08,348.6,11.139999389648438,14.0837743,100.4201504,0.9950619339942932,0.0013240684056654572,0.0006132111884653568,-0.09924503415822983,1668050438.453748
266234774.0,0.14,0.08,348.6,11.059999465942383,14.0837743,100.42015049999999,0.9950582981109619,0.001334168715402484,0.0006079431041143835,-0.09928184747695923,1668050438.553795
266334679.0,0.14,0.08,348.59000000000003,11.15999984741211,14.0837743,100.42015049999999,0.9950529336929321,0.0013148196740075946,0.0006230571889318526,-0.0993359312415123,1668050438.6536999
266434737.0,0.14,0.08,348.59000000000003,11.139999389648438,14.0837743,100.42015049999999,0.9950486421585083,0.0013241145061329007,0.0006179130868986249,-0.09937838464975357,1668050438.753758
266534749.0,0.14,0.08,348.59000000000003,11.149999618530273,14.0837743,100.42015049999999,0.9950466752052307,0.0013235547812655568,0.000638926459942013,-0.09939795732498169,1668050438.85377
266634715.0,0.14,0.08,348.58,11.079999923706055,14.0837743,100.4201506,0.9950420260429382,0.0013338519493117929,0.0006387622561305761,-0.09944432973861694,1668050438.953736
266734782.0,0.14,0.08,348.58,11.09000015258789,14.0837743,100.4201506,0.995037853717804,0.0013251783093437552,0.0006409847992472351,-0.0994865819811821,1668050439.053803
266834927.0,0.14,0.08,348.57,11.170000076293945,14.0837743,100.4201506,0.9950348734855652,0.0013307357439771295,0.0006423927843570709,-0.09951622784137726,1668050439.153948
266934683.0,0.14,0.08,348.57,10.929999351501465,14.0837743,100.4201506,0.9950305819511414,0.0013452835846692324,0.0006302284891717136,-0.09955886006355286,1668050439.253704
267034711.0,0.14,0.08,348.56,11.109999656677246,14.0837743,100.4201506,0.995026171207428,0.0013468207325786352,0.0006104064523242414,-0.09960293024778366,1668050439.3537319
267134710.0,0.14,0.08,348.56,11.279999732971191,14.0837743,100.4201507,0.9950218796730042,0.0013563644606620073,0.0006264499970711768,-0.09964567422866821,1668050439.453731
267234743.0,0.14,0.08,348.55,11.079999923706055,14.0837743,100.4201507,0.9950183033943176,0.0013369863154366612,0.0006175284506753087,-0.09968187659978867,1668050439.553764
267334682.0,0.14,0.08,348.55,11.039999961853027,14.0837743,100.4201507,0.9950141906738281,0.0013562070671468973,0.0006172473076730967,-0.09972251951694489,1668050439.653703
267434664.0,0.14,0.08,348.54,11.059999465942383,14.0837743,100.4201507,0.9950109124183655,0.0013244790025055408,0.000647835957352072,-0.09975539892911911,1668050439.753685
267534767.0,0.14,0.08,348.54,11.239999771118164,14.0837743,100.4201507,0.9950069189071655,0.001343660056591034,0.0006204343517310917,-0.09979528188705444,1668050439.853788
267634802.0,0.14,0.08,348.54,11.139999389648438,14.083774199999999,100.4201507,0.9950024485588074,0.0013179341331124306,0.0006493518012575805,-0.09983958303928375,1668050439.953823
267734906.0,0.14,0.08,348.53000000000003,11.09000015258789,14.083774199999999,100.4201507,0.9949989318847656,0.0013436567969620228,0.0006433250964619219,-0.09987425804138184,1668050440.053927
267834734.0,0.14,0.08,348.53000000000003,11.079999923706055,14.0837743,100.4201507,0.9949964284896851,0.0013268227921798825,0.0005926765152253211,-0.09990011155605316,1668050440.153755
267934738.0,0.14,0.08,348.52,11.139999389648438,14.0837743,100.4201507,0.9949910044670105,0.001347521087154746,0.0006527671357616782,-0.09995391219854355,1668050440.253759
268034804.0,0.14,0.09,348.52,10.960000038146973,14.083774199999999,100.4201507,0.9949896335601807,0.0013274350203573704,0.000657012453302741,-0.09996730089187622,1668050440.353825
268134731.0,0.14,0.08,348.51,11.09999942779541,14.083774199999999,100.4201507,0.9949840307235718,0.0013450009282678366,0.0005801586667075753,-0.10002327710390091,1668050440.453752
268234770.0,0.14,0.08,348.51,10.920000076293945,14.083774199999999,100.4201506,0.9949769377708435,0.0013319607824087143,0.0006532538100145757,-0.1000935286283493,1668050440.553791
268334663.0,0.14,0.08,348.5,11.119999885559082,14.083774199999999,100.4201506,0.9949758648872375,0.0013373473193496466,0.0005931821069680154,-0.10010426491498947,1668050440.653684
268434668.0,0.14,0.07,348.5,11.029999732971191,14.0837741,100.4201506,0.9949720501899719,0.0013356002746149898,0.0005647196667268872,-0.10014250129461288,1668050440.753689
268534852.0,0.14,0.08,348.49,11.119999885559082,14.0837741,100.4201506,0.9949650168418884,0.0013242888962849975,0.0006428009946830571,-0.10021227598190308,1668050440.853873
268634840.0,0.14,0.07,348.49,11.079999923706055,14.0837741,100.4201506,0.9949640035629272,0.0013257464161142707,0.0005509046604856849,-0.10022266954183578,1668050440.953861
268734754.0,0.14,0.07,348.48,11.029999732971191,14.083774,100.4201506,0.9949575066566467,0.0013170505408197641,0.0005557489348575473,-0.10028770565986633,1668050441.053775
268834729.0,0.14,0.09,348.48,11.130000114440918,14.083774,100.4201507,0.9949503540992737,0.001310484716668725,0.0006606079987250268,-0.10035780072212219,1668050441.15375
268934701.0,0.14,0.07,348.48,11.239999771118164,14.083774,100.4201507,0.9949517846107483,0.0013230500044301152,0.0005581433069892228,-0.10034428536891937,1668050441.253722
269034718.0,0.14,0.07,348.47,11.069999694824219,14.083774,100.4201507,0.9949433207511902,0.0013229664182290435,0.0005493425996974111,-0.10042830556631088,1668050441.353739
269134777.0,0.14,0.08,348.46,11.1899995803833,14.083774,100.4201507,0.9949385523796082,0.0012963530607521534,0.0006328620365820825,-0.1004749983549118,1668050441.453798
269234743.0,0.14,0.07,348.46,11.039999961853027,14.083774,100.4201508,0.9949400424957275,0.0013123430544510484,0.0005589150241576135,-0.10046076774597168,1668050441.553764
269334668.0,0.14,0.08,348.45,11.079999923706055,14.083773899999999,100.4201509,0.9949309229850769,0.0013022817438468337,0.000587805057875812,-0.10055027902126312,1668050441.653689
269434711.0,0.14,0.08,348.45,11.199999809265137,14.083773899999999,100.4201509,0.9949273467063904,0.0012997417943552136,0.0005868496955372393,-0.10058597475290298,1668050441.753732
269534919.0,0.14,0.07,348.45,11.25999927520752,14.083773899999999,100.4201509,0.9949283599853516,0.0012992334086447954,0.0005473603378050029,-0.10057636350393295,1668050441.85394
269634664.0,0.14,0.08,348.44,11.079999923706055,14.0837738,100.42015099999999,0.9949183464050293,0.0012987472582608461,0.0005959144327789545,-0.1006750762462616,1668050441.953685
269734820.0,0.14,0.08,348.44,11.269999504089355,14.0837738,100.42015099999999,0.9949155449867249,0.0012954052072018385,0.0005839967634528875,-0.10070257633924484,1668050442.0538409
269834745.0,0.14,0.07,348.43,11.029999732971191,14.0837738,100.42015099999999,0.9949143528938293,0.0012862510047852993,0.000547359639313072,-0.10071522742509842,1668050442.153766
269934823.0,0.14,0.08,348.43,11.109999656677246,14.0837737,100.42015099999999,0.9949066638946533,0.0012998522724956274,0.0006129214307293296,-0.10079050064086914,1668050442.253844
270034780.0,0.13,0.08,348.42,11.010000228881836,14.0837737,100.4201511,0.994903564453125,0.0012810396729037166,0.0005831799935549498,-0.10082104802131653,1668050442.353801
270134786.0,0.14,0.07,348.42,11.0,14.0837737,100.4201511,0.9949027895927429,0.0012910990044474602,0.0005378437926992774,-0.1008293479681015,1668050442.4538069
270234733.0,0.13,0.08,348.41,11.179999351501465,14.083773599999999,100.42015119999999,0.9948936700820923,0.0012562752235680819,0.0006035587866790593,-0.10091878473758698,1668050442.553754
270334717.0,0.13,0.08,348.41,10.9399995803833,14.083773599999999,100.42015119999999,0.9948926568031311,0.0012870237696915865,0.0005877040675841272,-0.10092908889055252,1668050442.653738
270434888.0,0.13,0.07,348.41,11.1899995803833,14.083773599999999,100.42015119999999,0.994890570640564,0.0012746043503284454,0.0005628071376122534,-0.10094969719648361,1668050442.7539089
270534719.0,0.14,0.08,348.40000000000003,11.170000076293945,14.083773599999999,100.4201513,0.9948832988739014,0.00130340491887182,0.0006001786096021533,-0.10102052986621857,1668050442.85374
270634698.0,0.13,0.08,348.40000000000003,11.050000190734863,14.083773599999999,100.4201513,0.9948812127113342,0.001287975232116878,0.0005911741172894835,-0.1010417714715004,1668050442.953719
270734743.0,0.14,0.08,348.39,11.15999984741211,14.083773599999999,100.4201513,0.9948782324790955,0.0012984308414161205,0.0005977895343676209,-0.10107032209634781,1668050443.053764
270834702.0,0.14,0.08,348.39,11.0,14.083773599999999,100.4201514,0.9948710799217224,0.0012951743556186557,0.0006189456325955689,-0.10114076733589172,1668050443.153723
270934654.0,0.13,0.08,348.38,10.920000076293945,14.083773599999999,100.4201514,0.9948680400848389,0.0012845942983403802,0.0005720093031413853,-0.10117132216691971,1668050443.253675
271034747.0,0.14,0.08,348.38,11.069999694824219,14.083773599999999,100.42015149999999,0.994864821434021,0.0013036831514909863,0.0005744725931435823,-0.1012028306722641,1668050443.3537679
271134706.0,0.13,0.08,348.37,10.899999618530273,14.083773599999999,100.4201516,0.9948566555976868,0.0012845753226429224,0.0006218422786332667,-0.10128258168697357,1668050443.453727
271234706.0,0.14,0.08,348.37,11.029999732971191,14.083773599999999,100.4201516,0.9948566555976868,0.0013127228012308478,0.0005689167301170528,-0.10128310322761536,1668050443.553727
271334773.0,0.14,0.08,348.36,11.15999984741211,14.083773599999999,100.4201516,0.9948514699935913,0.0012935874983668327,0.000613352342043072,-0.10133388638496399,1668050443.653794
271434799.0,0.14,0.08,348.36,11.069999694824219,14.083773599999999,100.4201516,0.9948465824127197,0.001322086900472641,0.0006276218919083476,-0.10138116031885147,1668050443.75382
271534814.0,0.14,0.07,348.36,11.149999618530273,14.083773599999999,100.4201516,0.994844913482666,0.0012940324377268553,0.0005260168109089136,-0.10139890015125275,1668050443.8538349
271634751.0,0.14,0.07,348.35,11.09999942779541,14.083773599999999,100.42015169999999,0.9948400855064392,0.0013318181736394763,0.0005642403848469257,-0.10144545137882233,1668050443.953772
