TimeUS,DesRoll,Roll,DesPitch,Pitch,DesYaw,Yaw,ErrRP,ErrYaw,timestamp
221061343.0,0.0,1.2,0.0,0.28,347.64,347.65000000000003,0.01,1.0,1668050393.380364
221161043.0,0.0,1.18,0.0,0.3,347.63,347.64,0.01,1.0,1668050393.480064
221261146.0,0.0,1.17,0.0,0.29,347.64,347.65000000000003,0.01,1.0,1668050393.580167
221360947.0,0.0,1.16,0.0,0.29,347.62,347.63,0.01,1.0,1668050393.6799679
221460950.0,0.0,1.1400000000000001,0.0,0.33,347.6,347.61,0.01,1.0,1668050393.779971
221560984.0,0.0,1.1300000000000001,0.0,0.34,347.61,347.62,0.01,1.0,1668050393.880005
221660913.0,0.0,1.12,0.0,0.33,347.6,347.61,0.01,1.0,1668050393.979934
221760984.0,0.0,1.1,0.0,0.36,347.58,347.59000000000003,0.0,1.0,1668050394.080005
221860902.0,0.0,1.11,0.0,0.36,347.59000000000003,347.6,0.0,1.0,1668050394.179923
221961361.0,0.0,1.1,0.0,0.35000000000000003,347.57,347.58,0.0,1.0,1668050394.280382
222060950.0,0.0,1.1,0.0,0.36,347.56,347.57,0.0,1.0,1668050394.379971
222160961.0,0.0,1.1,0.0,0.36,347.56,347.57,0.0,1.0,1668050394.479982
222260925.0,0.0,1.11,0.0,0.35000000000000003,347.56,347.56,0.0,1.0,1668050394.579946
222361011.0,0.0,1.1,0.0,0.36,347.53000000000003,347.54,0.0,1.0,1668050394.680032
222461024.0,0.0,1.11,0.0,0.35000000000000003,347.56,347.56,0.0,1.0,1668050394.780045
222560969.0,0.0,1.1,0.0,0.35000000000000003,347.53000000000003,347.54,0.0,1.0,1668050394.87999
222661011.0,0.0,1.11,0.0,0.35000000000000003,347.51,347.52,0.0,1.0,1668050394.980032
222760949.0,0.0,1.11,0.0,0.34,347.53000000000003,347.54,0.0,1.0,1668050395.07997
222861012.0,0.0,1.11,0.0,0.35000000000000003,347.51,347.52,0.0,1.0,1668050395.180033
222961091.0,0.0,1.12,0.0,0.34,347.49,347.49,0.0,1.0,1668050395.280112
223061361.0,0.0,1.11,0.0,0.34,347.5,347.51,0.0,1.0,1668050395.380382
223161262.0,0.0,1.12,0.0,0.34,347.49,347.5,0.0,1.0,1668050395.480283
223261047.0,0.0,1.11,0.0,0.34,347.46,347.47,0.0,1.0,1668050395.5800679
223361119.0,0.0,1.12,0.0,0.33,347.48,347.49,0.0,1.0,1668050395.68014
223460948.0,0.0,1.12,0.0,0.34,347.47,347.48,0.0,1.0,1668050395.779969
223560974.0,0.0,1.12,0.0,0.34,347.45,347.46,0.0,1.0,1668050395.8799949
223660949.0,0.0,1.12,0.0,0.34,347.46,347.47,0.0,1.0,1668050395.97997
223761046.0,0.0,1.12,0.0,0.34,347.45,347.46,0.0,1.0,1668050396.080067
223860993.0,0.0,1.12,0.0,0.34,347.43,347.43,0.0,1.0,1668050396.180014
223960999.0,0.0,1.12,0.0,0.34,347.43,347.44,0.0,1.0,1668050396.28002
224061307.0,0.0,1.12,0.0,0.34,347.43,347.44,0.0,1.0,1668050396.380328
224160971.0,0.0,1.12,0.0,0.34,347.40000000000003,347.41,0.0,1.0,1668050396.479992
224260980.0,0.0,1.12,0.0,0.34,347.41,347.42,0.0,1.0,1668050396.5800009
227273054.0,0.0,1.1400000000000001,0.0,0.29,347.23,347.23,0.0,1.0,1668050399.5920749
227372893.0,0.0,1.1500000000000001,0.0,0.3,347.17,347.18,0.0,1.0,1668050399.691914
227472950.0,0.0,1.1400000000000001,0.0,0.3,347.14,347.15000000000003,0.0,1.0,1668050399.791971
227573008.0,0.0,1.1300000000000001,0.0,0.33,347.2,347.2,0.0,1.0,1668050399.892029
227672959.0,0.0,1.11,0.0,0.33,347.15000000000003,347.15000000000003,0.0,1.0,1668050399.99198
227772982.0,0.0,1.11,0.0,0.34,347.12,347.13,0.0,1.0,1668050400.0920029
227872902.0,0.0,1.1,0.0,0.36,347.16,347.17,0.0,1.0,1668050400.191923
227972920.0,0.0,1.09,0.0,0.36,347.14,347.14,0.0,1.0,1668050400.291941
228072964.0,0.0,1.1,0.0,0.36,347.1,347.11,0.0,1.0,1668050400.391985
228173048.0,0.0,1.09,0.0,0.36,347.13,347.14,0.0,1.0,1668050400.492069
228272861.0,0.0,1.1,0.0,0.36,347.11,347.12,0.0,1.0,1668050400.591882
228372945.0,0.0,1.1,0.0,0.36,347.08,347.09000000000003,0.0,1.0,1668050400.691966
228473005.0,0.0,1.1,0.0,0.36,347.11,347.11,0.0,1.0,1668050400.792026
228572975.0,0.0,1.1,0.0,0.36,347.09000000000003,347.1,0.0,1.0,1668050400.891996
228673110.0,0.0,1.1,0.0,0.35000000000000003,347.06,347.07,0.0,1.0,1668050400.992131
228772974.0,0.0,1.1,0.0,0.35000000000000003,347.08,347.09000000000003,0.0,1.0,1668050401.091995
228872971.0,0.0,1.1,0.0,0.35000000000000003,347.07,347.07,0.0,1.0,1668050401.191992
228972958.0,0.0,1.11,0.0,0.35000000000000003,347.04,347.05,0.0,1.0,1668050401.291979
229073122.0,0.0,1.1,0.0,0.35000000000000003,347.05,347.06,0.0,1.0,1668050401.392143
229172909.0,0.0,1.1,0.0,0.35000000000000003,347.04,347.05,0.0,1.0,1668050401.49193
229272953.0,0.0,1.1,0.0,0.35000000000000003,347.02,347.02,0.0,1.0,1668050401.591974
229372930.0,0.0,1.1,0.0,0.35000000000000003,347.03000000000003,347.04,0.0,1.0,1668050401.691951
229472993.0,0.0,1.1,0.0,0.35000000000000003,347.02,347.03000000000003,0.0,1.0,1668050401.792014
229572979.0,0.0,1.1,0.0,0.35000000000000003,347.0,347.0,0.0,1.0,1668050401.892
229673068.0,0.0,1.11,0.0,0.34,347.0,347.01,0.0,1.0,1668050401.992089
229772974.0,0.0,1.11,0.0,0.34,347.0,347.01,0.0,1.0,1668050402.091995
229872804.0,0.0,1.11,0.0,0.34,346.97,346.98,0.0,1.0,1668050402.191825
229973005.0,0.0,1.11,0.0,0.34,346.98,346.99,0.0,1.0,1668050402.292026
230072984.0,0.0,1.1,0.0,0.34,346.97,346.98,0.0,1.0,1668050402.392005
233086671.0,0.0,1.16,0.0,0.22,346.74,346.75,0.0,1.0,1668050405.405692
233186425.0,0.0,1.1500000000000001,0.0,0.24,346.74,346.75,0.0,1.0,1668050405.505446
233286355.0,0.0,1.1400000000000001,0.0,0.26,346.72,346.73,0.0,1.0,1668050405.605376
233386722.0,0.0,1.1400000000000001,0.0,0.28,346.72,346.73,0.0,1.0,1668050405.705743
233486584.0,0.0,1.12,0.0,0.3,346.73,346.73,0.0,1.0,1668050405.805605
233586496.0,0.0,1.11,0.0,0.31,346.71,346.72,0.0,1.0,1668050405.905517
233686413.0,0.0,1.1,0.0,0.32,346.72,346.72,0.0,1.0,1668050406.005434
233786422.0,0.0,1.11,0.0,0.33,346.73,346.74,0.0,1.0,1668050406.105443
233886349.0,0.0,1.11,0.0,0.33,346.7,346.71,0.0,1.0,1668050406.20537
233986347.0,0.0,1.09,0.0,0.34,346.69,346.7,0.0,1.0,1668050406.305368
234086413.0,0.0,1.1,0.0,0.35000000000000003,346.7,346.71,0.0,1.0,1668050406.405434
234186373.0,0.0,1.09,0.0,0.34,346.67,346.68,0.0,1.0,1668050406.505394
234286396.0,0.0,1.1,0.0,0.34,346.68,346.69,0.0,1.0,1668050406.605417
234386866.0,0.0,1.1,0.0,0.33,346.67,346.67,0.0,1.0,1668050406.705887
234486394.0,0.0,1.1,0.0,0.34,346.67,346.68,0.0,1.0,1668050406.805415
234586567.0,0.0,1.11,0.0,0.34,346.65000000000003,346.65000000000003,0.0,1.0,1668050406.905588
234686410.0,0.0,1.12,0.0,0.34,346.64,346.65000000000003,0.0,1.0,1668050407.005431
234786389.0,0.0,1.1,0.0,0.34,346.66,346.67,0.0,1.0,1668050407.10541
234886464.0,0.0,1.1300000000000001,0.0,0.33,346.62,346.62,0.0,1.0,1668050407.205485
234986366.0,0.0,1.11,0.0,0.34,346.63,346.64,0.0,1.0,1668050407.305387
235086403.0,0.0,1.11,0.0,0.34,346.65000000000003,346.66,0.0,1.0,1668050407.4054239
235186432.0,0.0,1.12,0.0,0.33,346.59000000000003,346.59000000000003,0.0,1.0,1668050407.5054529
235286648.0,0.0,1.11,0.0,0.34,346.6,346.61,0.0,1.0,1668050407.605669
235386767.0,0.0,1.12,0.0,0.34,346.64,346.65000000000003,0.0,1.0,1668050407.705788
235486569.0,0.0,1.12,0.0,0.33,346.57,346.58,0.0,1.0,1668050407.80559
235586371.0,0.0,1.12,0.0,0.34,346.57,346.58,0.0,1.0,1668050407.905392
235686408.0,0.0,1.12,0.0,0.34,346.6,346.61,0.0,1.0,1668050408.005429
238398636.0,0.0,1.2,0.0,0.23,346.38,346.39,0.0,1.0,1668050410.717657
238499012.0,0.0,1.19,0.0,0.24,346.37,346.38,0.0,1.0,1668050410.818033
238598411.0,0.0,1.18,0.0,0.25,346.37,346.38,0.0,1.0,1668050410.917432
238698648.0,0.0,1.16,0.0,0.27,346.36,346.36,0.0,1.0,1668050411.017669
238798654.0,0.0,1.1500000000000001,0.0,0.28,346.36,346.36,0.0,1.0,1668050411.117675
238898608.0,0.0,1.1400000000000001,0.0,0.3,346.35,346.35,0.0,1.0,1668050411.217629
238998636.0,0.0,1.1300000000000001,0.0,0.31,346.33,346.34000000000003,0.0,1.0,1668050411.317657
239098450.0,0.0,1.11,0.0,0.32,346.34000000000003,346.35,0.0,1.0,1668050411.417471
239198594.0,0.0,1.12,0.0,0.32,346.32,346.32,0.0,1.0,1668050411.517615
239298571.0,0.0,1.11,0.0,0.34,346.32,346.33,0.0,1.0,1668050411.617592
239398634.0,0.0,1.12,0.0,0.31,346.31,346.31,0.0,1.0,1668050411.717655
239498690.0,0.0,1.11,0.0,0.33,346.3,346.31,0.0,1.0,1668050411.8177109
239598588.0,0.0,1.12,0.0,0.33,346.28000000000003,346.29,0.0,1.0,1668050411.917609
239698663.0,0.0,1.11,0.0,0.32,346.3,346.31,0.0,1.0,1668050412.017684
239798489.0,0.0,1.1300000000000001,0.0,0.33,346.27,346.28000000000003,0.0,1.0,1668050412.11751
239898438.0,0.0,1.11,0.0,0.32,346.26,346.27,0.0,1.0,1668050412.217459
239998652.0,0.0,1.1300000000000001,0.0,0.32,346.3,346.31,0.0,1.0,1668050412.317673
240098482.0,0.0,1.12,0.0,0.33,346.23,346.24,0.0,1.0,1668050412.4175029
240198437.0,0.0,1.12,0.0,0.31,346.23,346.24,0.0,1.0,1668050412.517458
240298440.0,0.0,1.12,0.0,0.32,346.28000000000003,346.29,0.0,1.0,1668050412.617461
240398627.0,0.0,1.12,0.0,0.33,346.22,346.23,0.0,1.0,1668050412.717648
240498635.0,0.0,1.1300000000000001,0.0,0.32,346.21,346.22,0.0,1.0,1668050412.817656
240598795.0,0.0,1.12,0.0,0.32,346.24,346.25,0.0,1.0,1668050412.917816
240698592.0,0.0,1.1300000000000001,0.0,0.32,346.21,346.22,0.0,1.0,1668050413.017613
240798740.0,0.0,1.1300000000000001,0.0,0.31,346.19,346.2,0.0,1.0,1668050413.117761
240898623.0,0.0,1.12,0.0,0.32,346.22,346.23,0.0,1.0,1668050413.217644
240998697.0,0.0,1.12,0.0,0.32,346.19,346.2,0.0,1.0,1668050413.317718
241098495.0,0.0,1.12,0.0,0.31,346.17,346.18,0.0,1.0,1668050413.417516
241198500.0,0.0,1.12,0.0,0.32,346.2,346.21,0.0,1.0,1668050413.517521
241298572.0,0.0,1.12,0.0,0.32,346.18,346.18,0.0,1.0,1668050413.617593
241398724.0,0.0,1.12,0.0,0.31,346.15000000000003,346.16,0.0,1.0,1668050413.717745
241498849.0,0.0,1.12,0.0,0.32,346.17,346.18,0.0,1.0,1668050413.81787
241598497.0,0.0,1.12,0.0,0.32,346.16,346.16,0.0,1.0,1668050413.917518
241698417.0,0.0,1.12,0.0,0.31,346.13,346.14,0.0,1.0,1668050414.017438
241798441.0,0.0,1.12,0.0,0.32,346.15000000000003,346.15000000000003,0.0,1.0,1668050414.117462
241898431.0,0.0,1.12,0.0,0.32,346.13,346.14,0.0,1.0,1668050414.217452
241998717.0,0.0,1.12,0.0,0.32,346.11,346.12,0.0,1.0,1668050414.317738
242098693.0,0.0,1.12,0.0,0.32,346.12,346.13,0.0,1.0,1668050414.4177139
242198594.0,0.0,1.12,0.0,0.32,346.11,346.12,0.0,1.0,1668050414.517615
242298465.0,0.0,1.12,0.0,0.32,346.09000000000003,346.1,0.0,1.0,1668050414.617486
242398708.0,0.0,1.12,0.0,0.32,346.1,346.11,0.0,1.0,1668050414.717729
242498717.0,0.0,1.12,0.0,0.32,346.09000000000003,346.1,0.0,1.0,1668050414.817738
242598403.0,0.0,1.12,0.0,0.32,346.07,346.08,0.0,1.0,1668050414.917424
242698676.0,0.0,1.12,0.0,0.32,346.08,346.08,0.0,1.0,1668050415.017697
242798689.0,0.0,1.12,0.0,0.33,346.06,346.07,0.0,1.0,1668050415.1177099
242898725.0,0.0,1.12,0.0,0.32,346.05,346.05,0.0,1.0,1668050415.217746
242998785.0,0.0,1.12,0.0,0.33,346.05,346.06,0.0,1.0,1668050415.317806
243098608.0,0.0,1.12,0.0,0.33,346.04,346.05,0.0,1.0,1668050415.417629
243198444.0,0.0,1.12,0.0,0.32,346.02,346.03000000000003,0.0,1.0,1668050415.5174649
243298669.0,0.0,1.12,0.0,0.33,346.03000000000003,346.03000000000003,0.0,1.0,1668050415.61769
243398464.0,0.0,1.12,0.0,0.33,346.02,346.03000000000003,0.0,1.0,1668050415.717485
246510704.0,0.0,1.22,0.0,0.2,345.78000000000003,345.79,0.0,1.0,1668050418.829725
246610474.0,0.0,1.22,0.0,0.22,345.76,345.77,0.0,1.0,1668050418.929495
246710658.0,0.0,1.2,0.0,0.22,345.77,345.78000000000003,0.0,1.0,1668050419.029679
246810365.0,0.0,1.19,0.0,0.25,345.77,345.78000000000003,0.0,1.0,1668050419.129386
246910446.0,0.0,1.17,0.0,0.28,345.74,345.75,0.0,1.0,1668050419.229467
247010355.0,0.0,1.16,0.0,0.28,345.74,345.75,0.0,1.0,1668050419.329376
247110415.0,0.0,1.1400000000000001,0.0,0.3,345.74,345.75,0.0,1.0,1668050419.429436
247210567.0,0.0,1.1400000000000001,0.0,0.31,345.72,345.73,0.0,1.0,1668050419.529588
247310400.0,0.0,1.1300000000000001,0.0,0.3,345.72,345.73,0.0,1.0,1668050419.629421
247410261.0,0.0,1.1400000000000001,0.0,0.32,345.71,345.72,0.0,1.0,1668050419.729282
247510317.0,0.0,1.1300000000000001,0.0,0.32,345.7,345.71,0.0,1.0,1668050419.829338
247610249.0,0.0,1.1400000000000001,0.0,0.31,345.7,345.71,0.0,1.0,1668050419.92927
247710594.0,0.0,1.1300000000000001,0.0,0.32,345.68,345.68,0.0,1.0,1668050420.029615
247810378.0,0.0,1.1400000000000001,0.0,0.31,345.69,345.69,0.0,1.0,1668050420.129399
247910503.0,0.0,1.1400000000000001,0.0,0.31,345.66,345.67,0.0,1.0,1668050420.229524
248010323.0,0.0,1.1300000000000001,0.0,0.32,345.65000000000003,345.66,0.0,1.0,1668050420.329344
248110514.0,0.0,1.1400000000000001,0.0,0.31,345.67,345.68,0.0,1.0,1668050420.429535
248210701.0,0.0,1.1400000000000001,0.0,0.31,345.64,345.65000000000003,0.0,1.0,1668050420.529722
248310336.0,0.0,1.1400000000000001,0.0,0.32,345.63,345.63,0.0,1.0,1668050420.629357
248410482.0,0.0,1.1400000000000001,0.0,0.3,345.64,345.65000000000003,0.0,1.0,1668050420.729503
248510301.0,0.0,1.1400000000000001,0.0,0.31,345.62,345.63,0.0,1.0,1668050420.829322
248610354.0,0.0,1.1400000000000001,0.0,0.31,345.6,345.61,0.0,1.0,1668050420.929375
248710643.0,0.0,1.1400000000000001,0.0,0.3,345.62,345.63,0.0,1.0,1668050421.029664
248810370.0,0.0,1.1400000000000001,0.0,0.3,345.59000000000003,345.6,0.0,1.0,1668050421.129391
248910243.0,0.0,1.1400000000000001,0.0,0.31,345.58,345.59000000000003,0.0,1.0,1668050421.229264
249010541.0,0.0,1.1400000000000001,0.0,0.3,345.59000000000003,345.6,0.0,1.0,1668050421.329562
249110472.0,0.0,1.1400000000000001,0.0,0.31,345.57,345.58,0.0,1.0,1668050421.429493
249210417.0,0.0,1.1400000000000001,0.0,0.31,345.56,345.56,0.0,1.0,1668050421.529438
249310470.0,0.0,1.1400000000000001,0.0,0.3,345.57,345.58,0.0,1.0,1668050421.629491
249410446.0,0.0,1.1400000000000001,0.0,0.31,345.55,345.56,0.0,1.0,1668050421.729467
249510322.0,0.0,1.1400000000000001,0.0,0.31,345.53000000000003,345.54,0.0,1.0,1668050421.829343
249610475.0,0.0,1.1400000000000001,0.0,0.3,345.54,345.55,0.0,1.0,1668050421.929496
249710419.0,0.0,1.1400000000000001,0.0,0.31,345.52,345.53000000000003,0.0,1.0,1668050422.02944
249810557.0,0.0,1.1400000000000001,0.0,0.31,345.51,345.52,0.0,1.0,1668050422.1295779
252822516.0,0.0,1.26,0.0,0.19,345.28000000000003,345.28000000000003,0.0,1.0,1668050425.141537
252922350.0,0.0,1.25,0.0,0.23,345.26,345.27,0.0,1.0,1668050425.241371
253022349.0,0.0,1.23,0.0,0.22,345.27,345.28000000000003,0.0,1.0,1668050425.34137
253122313.0,0.0,1.21,0.0,0.25,345.26,345.27,0.0,1.0,1668050425.441334
253222487.0,0.0,1.19,0.0,0.28,345.24,345.24,0.0,1.0,1668050425.541508
253322244.0,0.0,1.18,0.0,0.28,345.25,345.26,0.0,1.0,1668050425.641265
253422356.0,0.0,1.16,0.0,0.29,345.24,345.24,0.0,1.0,1668050425.7413769
253522260.0,0.0,1.1500000000000001,0.0,0.31,345.21,345.22,0.0,1.0,1668050425.841281
253622330.0,0.0,1.1500000000000001,0.0,0.31,345.22,345.23,0.0,1.0,1668050425.941351
253722581.0,0.0,1.1500000000000001,0.0,0.32,345.21,345.22,0.0,1.0,1668050426.041602
253822386.0,0.0,1.1500000000000001,0.0,0.32,345.19,345.2,0.0,1.0,1668050426.141407
253922356.0,0.0,1.1500000000000001,0.0,0.31,345.2,345.21,0.0,1.0,1668050426.2413769
254022341.0,0.0,1.1500000000000001,0.0,0.32,345.18,345.19,0.0,1.0,1668050426.341362
254122522.0,0.0,1.1500000000000001,0.0,0.31,345.17,345.18,0.0,1.0,1668050426.441543
254222249.0,0.0,1.1500000000000001,0.0,0.3,345.17,345.18,0.0,1.0,1668050426.54127
254322295.0,0.0,1.16,0.0,0.31,345.16,345.17,0.0,1.0,1668050426.641316
254422371.0,0.0,1.1500000000000001,0.0,0.3,345.15000000000003,345.16,0.0,1.0,1668050426.741392
254522309.0,0.0,1.16,0.0,0.3,345.15000000000003,345.16,0.0,1.0,1668050426.84133
254622352.0,0.0,1.1500000000000001,0.0,0.31,345.14,345.15000000000003,0.0,1.0,1668050426.9413729
254722338.0,0.0,1.16,0.0,0.3,345.14,345.15000000000003,0.0,1.0,1668050427.041359
254822252.0,0.0,1.16,0.0,0.31,345.13,345.14,0.0,1.0,1668050427.141273
254922433.0,0.0,1.16,0.0,0.32,345.12,345.12,0.0,1.0,1668050427.241454
255022435.0,0.0,1.16,0.0,0.3,345.12,345.12,0.0,1.0,1668050427.341456
255122292.0,0.0,1.16,0.0,0.31,345.1,345.11,0.0,1.0,1668050427.441313
255222265.0,0.0,1.16,0.0,0.32,345.09000000000003,345.1,0.0,1.0,1668050427.541286
255322353.0,0.0,1.16,0.0,0.31,345.09000000000003,345.1,0.0,1.0,1668050427.6413739
255422337.0,0.0,1.17,0.0,0.32,345.08,345.09000000000003,0.0,1.0,1668050427.741358
255522271.0,0.0,1.16,0.0,0.32,345.07,345.08,0.0,1.0,1668050427.841292
258434520.0,0.0,1.27,0.0,0.22,344.85,344.86,0.0,1.0,1668050430.753541
258534530.0,0.0,1.27,0.0,0.24,344.85,344.86,0.0,1.0,1668050430.853551
258634453.0,0.0,1.24,0.0,0.25,344.85,344.86,0.0,1.0,1668050430.953474
258734570.0,0.0,1.23,0.0,0.26,344.83,344.84000000000003,0.0,1.0,1668050431.053591
258834410.0,0.0,1.21,0.0,0.29,344.83,344.83,0.0,1.0,1668050431.153431
258934516.0,0.0,1.2,0.0,0.3,344.83,344.84000000000003,0.0,1.0,1668050431.253537
259034328.0,0.0,1.17,0.0,0.31,344.81,344.82,0.0,1.0,1668050431.353349
259134421.0,0.0,1.17,0.0,0.33,344.81,344.81,0.0,1.0,1668050431.453442
259234556.0,0.0,1.17,0.0,0.33,344.8,344.81,0.0,1.0,1668050431.553577
259334393.0,0.0,1.16,0.0,0.33,344.8,344.8,0.0,1.0,1668050431.653414
259434523.0,0.0,1.16,0.0,0.33,344.78000000000003,344.79,0.0,1.0,1668050431.753544
259534422.0,0.0,1.17,0.0,0.33,344.79,344.8,0.0,1.0,1668050431.853443
259634585.0,0.0,1.16,0.0,0.33,344.76,344.77,0.0,1.0,1668050431.953606
259734411.0,0.0,1.18,0.0,0.33,344.76,344.77,0.0,1.0,1668050432.053432
259834403.0,0.0,1.17,0.0,0.33,344.77,344.78000000000003,0.0,1.0,1668050432.153424
259934388.0,0.0,1.17,0.0,0.33,344.74,344.75,0.0,1.0,1668050432.253409
260034410.0,0.0,1.18,0.0,0.32,344.74,344.74,0.0,1.0,1668050432.353431
260134408.0,0.0,1.17,0.0,0.32,344.75,344.76,0.0,1.0,1668050432.453429
260234374.0,0.0,1.18,0.0,0.33,344.72,344.73,0.0,1.0,1668050432.553395
260334363.0,0.0,1.18,0.0,0.32,344.71,344.72,0.0,1.0,1668050432.653384
260434405.0,0.0,1.18,0.0,0.32,344.72,344.73,0.0,1.0,1668050432.753426
260534587.0,0.0,1.18,0.0,0.32,344.7,344.71,0.0,1.0,1668050432.853608
260634385.0,0.0,1.18,0.0,0.32,344.69,344.7,0.0,1.0,1668050432.953406
260734505.0,0.0,1.18,0.0,0.32,344.7,344.7,0.0,1.0,1668050433.053526
260834388.0,0.0,1.18,0.0,0.32,344.68,344.69,0.0,1.0,1668050433.153409
260934379.0,0.0,1.19,0.0,0.32,344.67,344.68,0.0,1.0,1668050433.2534
261034431.0,0.0,1.18,0.0,0.32,344.67,344.68,0.0,1.0,1668050433.353452
261134583.0,0.0,1.19,0.0,0.32,344.66,344.67,0.0,1.0,1668050433.453604
261234399.0,0.0,1.18,0.0,0.32,344.64,344.65000000000003,0.0,1.0,1668050433.55342
261334579.0,0.0,1.18,0.0,0.32,344.65000000000003,344.65000000000003,0.0,1.0,1668050433.6536
261434565.0,0.0,1.18,0.0,0.31,344.63,344.64,0.0,1.0,1668050433.753586
261534482.0,0.0,1.18,0.0,0.32,344.62,344.63,0.0,1.0,1668050433.853503
261634375.0,0.0,1.18,0.0,0.32,344.62,344.63,0.0,1.0,1668050433.953396
261734402.0,0.0,1.18,0.0,0.31,344.61,344.62,0.0,1.0,1668050434.053423
261834506.0,0.0,1.18,0.0,0.32,344.6,344.61,0.0,1.0,1668050434.153527
261934388.0,0.0,1.18,0.0,0.32,344.6,344.61,0.0,1.0,1668050434.253409
262034505.0,0.0,1.19,0.0,0.31,344.59000000000003,344.6,0.0,1.0,1668050434.3535259
262134464.0,0.0,1.18,0.0,0.32,344.57,344.58,0.0,1.0,1668050434.453485
262234384.0,0.0,1.18,0.0,0.32,344.58,344.58,0.0,1.0,1668050434.553405
262334614.0,0.0,1.18,0.0,0.31,344.57,344.57,0.0,1.0,1668050434.653635
262434420.0,0.0,1.18,0.0,0.32,344.55,344.56,0.0,1.0,1668050434.753441
262534423.0,0.0,1.18,0.0,0.32,344.55,344.56,0.0,1.0,1668050434.853444
262634418.0,0.0,1.18,0.0,0.32,344.54,344.55,0.0,1.0,1668050434.953439
262734417.0,0.0,1.18,0.0,0.32,344.53000000000003,344.54,0.0,1.0,1668050435.053438
262834547.0,0.0,1.18,0.0,0.32,344.53000000000003,344.54,0.0,1.0,1668050435.153568
262934401.0,0.0,1.18,0.0,0.32,344.52,344.53000000000003,0.0,1.0,1668050435.253422
263034492.0,0.0,1.18,0.0,0.32,344.51,344.51,0.0,1.0,1668050435.353513
263134415.0,0.0,1.18,0.0,0.32,344.51,344.51,0.0,1.0,1668050435.453436
263234581.0,0.0,1.18,0.0,0.32,344.5,344.51,0.0,1.0,1668050435.553602
263334412.0,0.0,1.18,0.0,0.32,344.48,344.49,0.0,1.0,1668050435.653433
263434620.0,0.0,1.18,0.0,0.32,344.49,344.49,0.0,1.0,1668050435.753641
263534499.0,0.0,1.18,0.0,0.32,344.48,344.48,0.0,1.0,1668050435.85352
263634493.0,0.0,1.18,0.0,0.32,344.46,344.47,0.0,1.0,1668050435.953514
263734417.0,0.0,1.18,0.0,0.32,344.46,344.47,0.0,1.0,1668050436.053438
263834411.0,0.0,1.18,0.0,0.32,344.45,344.46,0.0,1.0,1668050436.153432
263934402.0,0.0,1.18,0.0,0.32,344.44,344.45,0.0,1.0,1668050436.253423
264034472.0,0.0,1.18,0.0,0.32,344.43,344.44,0.0,1.0,1668050436.353493
264134578.0,0.0,1.18,0.0,0.32,344.43,344.43,0.0,1.0,1668050436.453599
264234366.0,0.0,1.18,0.0,0.32,344.41,344.42,0.0,1.0,1668050436.553387
264334371.0,0.0,1.18,0.0,0.32,344.41,344.42,0.0,1.0,1668050436.653392
264434432.0,0.0,1.18,0.0,0.32,344.40000000000003,344.41,0.0,1.0,1668050436.753453
264534433.0,0.0,1.18,0.0,0.32,344.39,344.40000000000003,0.0,1.0,1668050436.8534539
264634386.0,0.0,1.18,0.0,0.32,344.38,344.39,0.0,1.0,1668050436.953407
264734420.0,0.0,1.18,0.0,0.33,344.38,344.39,0.0,1.0,1668050437.053441
264834355.0,0.0,1.18,0.0,0.32,344.37,344.38,0.0,1.0,1668050437.153376
264934389.0,0.0,1.18,0.0,0.32,344.36,344.37,0.0,1.0,1668050437.25341
265034577.0,0.0,1.18,0.0,0.32,344.36,344.36,0.0,1.0,1668050437.3535979
265134425.0,0.0,1.18,0.0,0.32,344.35,344.35,0.0,1.0,1668050437.453446
265234426.0,0.0,1.18,0.0,0.32,344.34000000000003,344.35,0.0,1.0,1668050437.553447
265334409.0,0.0,1.18,0.0,0.32,344.33,344.34000000000003,0.0,1.0,1668050437.65343
265434371.0,0.0,1.18,0.0,0.32,344.32,344.33,0.0,1.0,1668050437.753392
265534628.0,0.0,1.18,0.0,0.32,344.32,344.32,0.0,1.0,1668050437.853649
265634415.0,0.0,1.18,0.0,0.32,344.31,344.32,0.0,1.0,1668050437.953436
265734524.0,0.0,1.18,0.0,0.32,344.3,344.31,0.0,1.0,1668050438.053545
265834437.0,0.0,1.18,0.0,0.32,344.29,344.3,0.0,1.0,1668050438.1534579
265934534.0,0.0,1.18,0.0,0.32,344.29,344.29,0.0,1.0,1668050438.253555
266034399.0,0.0,1.18,0.0,0.32,344.28000000000003,344.28000000000003,0.0,1.0,1668050438.35342
266134433.0,0.0,1.18,0.0,0.32,344.27,344.28000000000003,0.0,1.0,1668050438.453454
266234481.0,0.0,1.18,0.0,0.32,344.26,344.27,0.0,1.0,1668050438.553502
266334379.0,0.0,1.18,0.0,0.32,344.25,344.26,0.0,1.0,1668050438.6534
266434434.0,0.0,1.18,0.0,0.32,344.25,344.25,0.0,1.0,1668050438.753455
266534408.0,0.0,1.18,0.0,0.32,344.24,344.25,0.0,1.0,1668050438.853429
266634387.0,0.0,1.18,0.0,0.32,344.23,344.24,0.0,1.0,1668050438.953408
266734488.0,0.0,1.18,0.0,0.32,344.22,344.23,0.0,1.0,1668050439.053509
266834626.0,0.0,1.18,0.0,0.32,344.22,344.22,0.0,1.0,1668050439.153647
266934460.0,0.0,1.18,0.0,0.32,344.21,344.22,0.0,1.0,1668050439.253481
267034428.0,0.0,1.18,0.0,0.32,344.2,344.21,0.0,1.0,1668050439.3534489
267134416.0,0.0,1.18,0.0,0.32,344.19,344.2,0.0,1.0,1668050439.453437
267234467.0,0.0,1.18,0.0,0.32,344.18,344.19,0.0,1.0,1668050439.553488
267334387.0,0.0,1.18,0.0,0.32,344.18,344.18,0.0,1.0,1668050439.653408
267434382.0,0.0,1.18,0.0,0.32,344.17,344.18,0.0,1.0,1668050439.753403
267534430.0,0.0,1.18,0.0,0.32,344.16,344.17,0.0,1.0,1668050439.853451
267634579.0,0.0,1.18,0.0,0.32,344.15000000000003,344.16,0.0,1.0,1668050439.9536
267734609.0,0.0,1.18,0.0,0.32,344.14,344.15000000000003,0.0,1.0,1668050440.0536299
267834424.0,0.0,1.18,0.0,0.32,344.14,344.15000000000003,0.0,1.0,1668050440.153445
267934404.0,0.0,1.18,0.0,0.32,344.13,344.14,0.0,1.0,1668050440.253425
268034454.0,0.0,1.18,0.0,0.32,344.12,344.13,0.0,1.0,1668050440.353475
268134384.0,0.0,1.18,0.0,0.32,344.11,344.12,0.0,1.0,1668050440.453405
268234425.0,0.0,1.18,0.0,0.32,344.1,344.11,0.0,1.0,1668050440.553446
268334393.0,0.0,1.18,0.0,0.32,344.1,344.11,0.0,1.0,1668050440.653414
268434385.0,0.0,1.18,0.0,0.32,344.09000000000003,344.1,0.0,1.0,1668050440.753406
268534554.0,0.0,1.18,0.0,0.32,344.08,344.09000000000003,0.0,1.0,1668050440.853575
268634455.0,0.0,1.18,0.0,0.32,344.08,344.08,0.0,1.0,1668050440.953476
268734422.0,0.0,1.18,0.0,0.32,344.06,344.07,0.0,1.0,1668050441.053443
268834433.0,0.0,1.18,0.0,0.33,344.05,344.06,0.0,1.0,1668050441.153454
268934414.0,0.0,1.18,0.0,0.32,344.05,344.06,0.0,1.0,1668050441.253435
269034409.0,0.0,1.18,0.0,0.32,344.04,344.04,0.0,1.0,1668050441.35343
269134533.0,0.0,1.18,0.0,0.33,344.03000000000003,344.04,0.0,1.0,1668050441.453554
269234407.0,0.0,1.18,0.0,0.32,344.03000000000003,344.04,0.0,1.0,1668050441.553428
269334393.0,0.0,1.18,0.0,0.32,344.01,344.02,0.0,1.0,1668050441.653414
269434392.0,0.0,1.18,0.0,0.32,344.01,344.01,0.0,1.0,1668050441.753413
269534624.0,0.0,1.18,0.0,0.31,344.0,344.01,0.0,1.0,1668050441.853645
269634404.0,0.0,1.18,0.0,0.32,343.99,344.0,0.0,1.0,1668050441.953425
269734482.0,0.0,1.18,0.0,0.32,343.99,343.99,0.0,1.0,1668050442.053503
269834474.0,0.0,1.18,0.0,0.31,343.98,343.99,0.0,1.0,1668050442.153495
269934549.0,0.0,1.18,0.0,0.32,343.97,343.98,0.0,1.0,1668050442.25357
270034420.0,0.0,1.18,0.0,0.32,343.96,343.97,0.0,1.0,1668050442.353441
270134429.0,0.0,1.18,0.0,0.31,343.96,343.97,0.0,1.0,1668050442.45345
270234393.0,0.0,1.18,0.0,0.32,343.95,343.95,0.0,1.0,1668050442.5534139
270334373.0,0.0,1.18,0.0,0.32,343.94,343.95,0.0,1.0,1668050442.653394
270434576.0,0.0,1.18,0.0,0.31,343.94,343.94,0.0,1.0,1668050442.753597
270534426.0,0.0,1.18,0.0,0.32,343.92,343.93,0.0,1.0,1668050442.853447
270634414.0,0.0,1.18,0.0,0.32,343.92,343.93,0.0,1.0,1668050442.953435
270734510.0,0.0,1.18,0.0,0.32,343.91,343.92,0.0,1.0,1668050443.053531
270834370.0,0.0,1.18,0.0,0.32,343.90000000000003,343.91,0.0,1.0,1668050443.153391
270934371.0,0.0,1.17,0.0,0.32,343.89,343.90000000000003,0.0,1.0,1668050443.253392
271034411.0,0.0,1.18,0.0,0.32,343.88,343.89,0.0,1.0,1668050443.353432
271134409.0,0.0,1.17,0.0,0.33,343.87,343.88,0.0,1.0,1668050443.45343
271234377.0,0.0,1.18,0.0,0.32,343.87,343.88,0.0,1.0,1668050443.553398
271334449.0,0.0,1.18,0.0,0.33,343.86,343.87,0.0,1.0,1668050443.65347
271434441.0,0.0,1.18,0.0,0.33,343.85,343.86,0.0,1.0,1668050443.753462
271534461.0,0.0,1.18,0.0,0.32,343.85,343.85,0.0,1.0,1668050443.853482
271634452.0,0.0,1.18,0.0,0.32,343.84000000000003,343.85,0.0,1.0,1668050443.953473
271734406.0,0.0,1.18,0.0,0.33,343.83,343.84000000000003,0.0,1.0,1668050444.053427
271834479.0,0.0,1.18,0.0,0.32,343.83,343.84000000000003,0.0,1.0,1668050444.1535
271934409.0,0.0,1.18,0.0,0.33,343.81,343.82,0.0,1.0,1668050444.25343
272034624.0,0.0,1.18,0.0,0.33,343.81,343.82,0.0,1.0,1668050444.353645
272134477.0,0.0,1.18,0.0,0.32,343.8,343.81,0.0,1.0,1668050444.453498
272234493.0,0.0,1.18,0.0,0.33,343.79,343.8,0.0,1.0,1668050444.553514
272334409.0,0.0,1.18,0.0,0.33,343.79,343.79,0.0,1.0,1668050444.65343
272434376.0,0.0,1.18,0.0,0.32,343.78000000000003,343.79,0.0,1.0,1668050444.753397
272534574.0,0.0,1.18,0.0,0.33,343.77,343.77,0.0,1.0,1668050444.853595
272634323.0,0.0,1.18,0.0,0.33,343.77,343.77,0.0,1.0,1668050444.9533439
272734421.0,0.0,1.18,0.0,0.32,343.76,343.76,0.0,1.0,1668050445.053442
272834395.0,0.0,1.18,0.0,0.33,343.76,343.75,0.0,1.0,1668050445.153416
272934365.0,0.0,1.18,0.0,0.33,343.76,343.75,0.0,1.0,1668050445.253386
273034534.0,0.0,1.18,0.0,0.33,343.76,343.74,0.0,1.0,1668050445.353555
273134561.0,0.0,1.19,0.0,0.33,343.75,343.72,0.0,1.0,1668050445.453582
273234372.0,0.0,1.19,0.0,0.33,343.74,343.72,0.0,1.0,1668050445.553393
273334385.0,0.0,1.19,0.0,0.33,343.73,343.71,0.0,1.0,1668050445.653406
274134561.0,0.0,1.19,0.0,0.34,343.83,343.65000000000003,0.0,1.0,1668050446.453582
274234339.0,0.0,1.19,0.0,0.34,347.43,343.64,0.0,1.0,1668050446.55336
274334413.0,0.0,1.19,0.0,0.34,351.03000000000003,343.64,0.0,1.0,1668050446.653434
274434338.0,0.0,1.19,0.0,0.33,354.63,343.63,0.01,1.0,1668050446.753359
274534426.0,0.0,1.2,0.0,0.33,358.23,343.62,0.01,1.0,1668050446.853447
274634380.0,0.0,1.2,0.0,0.33,1.83,343.61,0.02,1.0,1668050446.953401
274734381.0,0.0,1.2,0.0,0.33,5.43,343.61,0.03,1.0,1668050447.053402
274834391.0,0.0,1.2,0.0,0.33,9.03,343.6,0.03,1.0,1668050447.153412
274934562.0,0.0,1.21,0.0,0.32,12.63,343.59000000000003,0.03,1.0,1668050447.253583
275034426.0,0.0,1.21,0.0,0.31,16.23,343.59000000000003,0.03,1.0,1668050447.353447
275134387.0,0.0,1.22,0.0,0.31,19.830000000000002,343.58,0.04,1.0,1668050447.453408
275234557.0,0.0,1.22,0.0,0.3,23.43,343.57,0.05,1.0,1668050447.553578
275334407.0,0.0,1.23,0.0,0.3,23.650000000000002,343.57,0.05,1.0,1668050447.653428
275434419.0,0.0,1.23,0.0,0.3,23.64,343.56,0.05,1.0,1668050447.75344
275534509.0,0.0,1.24,0.0,0.3,23.63,343.55,0.04,1.0,1668050447.85353
275634421.0,0.0,1.24,0.0,0.29,23.62,343.54,0.05,1.0,1668050447.953442
275734398.0,0.0,1.24,0.0,0.29,23.61,343.53000000000003,0.04,1.0,1668050448.0534189
275834559.0,0.0,1.25,0.0,0.28,23.6,343.52,0.04,1.0,1668050448.15358
275934385.0,0.0,1.25,0.0,0.26,23.6,343.52,0.04,1.0,1668050448.253406
276034536.0,0.0,1.25,0.0,0.28,23.59,343.51,0.05,1.0,1668050448.3535569
276134408.0,0.0,1.26,0.0,0.27,343.5,343.5,0.05,1.0,1668050448.453429
276234508.0,0.0,1.26,0.0,0.26,343.58,343.5,0.04,1.0,1668050448.553529
276334548.0,0.0,1.26,0.0,0.27,343.57,343.48,0.04,1.0,1668050448.653569
276434475.0,0.0,1.27,0.0,0.25,343.57,343.48,0.04,1.0,1668050448.753496
276534431.0,0.0,1.27,0.0,0.24,343.55,343.47,0.04,1.0,1668050448.853452
276634408.0,0.0,1.27,0.0,0.25,343.54,343.46,0.03,1.0,1668050448.953429
276734670.0,0.0,1.28,0.0,0.24,343.54,343.46,0.03,1.0,1668050449.053691
276834463.0,0.0,1.29,0.0,0.24,343.53000000000003,343.45,0.03,1.0,1668050449.1534839
276934471.0,0.0,1.28,0.0,0.25,343.53000000000003,343.45,0.03,1.0,1668050449.2534919
277034499.0,0.0,1.29,0.0,0.23,343.52,343.44,0.02,1.0,1668050449.35352
277134523.0,0.0,1.3,0.0,0.23,343.49,343.41,0.02,1.0,1668050449.453544
277234539.0,0.0,1.3,0.0,0.24,343.51,343.43,0.01,1.0,1668050449.55356
277334580.0,0.0,1.3,0.0,0.21,343.49,343.41,0.01,1.0,1668050449.653601
277434502.0,0.0,1.31,0.0,0.21,343.47,343.38,0.01,1.0,1668050449.7535229
277534426.0,0.0,1.31,0.0,0.22,343.5,343.42,0.01,1.0,1668050449.853447
277634559.0,0.0,1.32,0.0,0.2,343.48,343.40000000000003,0.02,1.0,1668050449.95358
277734423.0,0.0,1.32,0.0,0.2,343.44,343.35,0.02,1.0,1668050450.053444
277834399.0,0.0,1.32,0.0,0.21,343.44,343.38,0.02,1.0,1668050450.15342
277934514.0,0.0,1.33,0.0,0.19,343.40000000000003,343.37,0.02,1.0,1668050450.253535
278034395.0,0.0,1.33,0.0,0.19,343.34000000000003,343.34000000000003,0.02,1.0,1668050450.353416
278134573.0,0.0,1.33,0.0,0.2,343.35,343.36,0.02,1.0,1668050450.453594
278234407.0,0.0,1.34,0.0,0.18,343.35,343.37,0.02,1.0,1668050450.553428
278334415.0,0.0,1.34,0.0,0.18,343.35,343.29,0.02,1.0,1668050450.653436
278434501.0,0.0,1.34,0.0,0.18,343.35,343.33,0.02,1.0,1668050450.753522
278534588.0,0.0,1.35,0.0,0.18,343.35,343.35,0.02,1.0,1668050450.853609
278634391.0,0.0,1.35,0.0,0.18,343.35,343.31,0.02,1.0,1668050450.953412
278734521.0,0.0,1.35,0.0,0.16,343.35,343.3,0.02,1.0,1668050451.053542
278834407.0,0.0,1.34,0.0,0.16,343.35,343.3,0.02,1.0,1668050451.153428
278934403.0,0.0,1.34,0.0,0.17,343.35,343.27,0.02,1.0,1668050451.253424
279034420.0,0.0,1.34,0.0,0.14,343.35,343.29,0.02,1.0,1668050451.353441
279134404.0,0.0,1.33,0.0,0.18,343.35,343.25,0.04,1.0,1668050451.453425
279234409.0,0.0,1.34,0.0,0.18,343.35,343.22,0.04,1.0,1668050451.55343
279334395.0,0.0,1.34,0.0,0.16,343.35,343.24,0.03,1.0,1668050451.653416
279434769.0,0.0,1.36,0.0,0.17,343.35,343.25,0.03,1.0,1668050451.75379
279534549.0,0.0,1.36,0.0,0.16,343.35,343.27,0.04,1.0,1668050451.85357
279634625.0,0.0,1.32,0.0,0.16,343.35,343.22,0.05,1.0,1668050451.953646
279734509.0,0.0,1.34,0.0,0.16,343.35,343.17,0.05,1.0,1668050452.05353
279834416.0,0.0,1.35,0.0,0.12,343.35,343.18,0.06,1.0,1668050452.153437
279934403.0,0.0,1.37,0.0,0.12,343.35,343.23,0.06,1.0,1668050452.253424
280034433.0,0.0,1.37,0.0,0.16,343.35,343.23,0.05,1.0,1668050452.3534539
280134458.0,0.0,1.36,0.0,0.14,343.35,343.18,0.05,1.0,1668050452.453479
280234484.0,0.0,1.37,0.0,0.16,343.35,343.16,0.06,1.0,1668050452.553505
280334548.0,0.0,1.37,0.0,0.15,343.35,343.17,0.06,1.0,1668050452.653569
280434437.0,0.0,1.3900000000000001,0.0,0.14,343.35,343.19,0.06,1.0,1668050452.753458
280534399.0,0.0,1.37,0.0,0.13,343.35,343.15000000000003,0.05,1.0,1668050452.85342
280634387.0,0.0,1.37,0.0,0.13,343.35,343.13,0.05,1.0,1668050452.953408
280734413.0,0.0,1.37,0.0,0.12,343.35,343.16,0.04,1.0,1668050453.053434
280834394.0,0.0,1.3800000000000001,0.0,0.14,343.35,343.15000000000003,0.04,1.0,1668050453.153415
280934392.0,0.0,1.3800000000000001,0.0,0.11,343.35,343.15000000000003,0.04,1.0,1668050453.253413
281034414.0,0.0,1.37,0.0,0.14,343.35,343.09000000000003,0.04,1.0,1668050453.353435
281134514.0,0.0,1.3800000000000001,0.0,0.11,343.35,343.1,0.03,1.0,1668050453.453535
281234568.0,0.0,1.4000000000000001,0.0,0.13,343.35,343.12,0.03,1.0,1668050453.553589
281334405.0,0.0,1.3900000000000001,0.0,0.13,343.35,343.11,0.03,1.0,1668050453.653426
281434406.0,0.0,1.3800000000000001,0.0,0.13,343.35,343.06,0.04,1.0,1668050453.753427
281534607.0,0.0,1.37,0.0,0.09,343.35,343.09000000000003,0.04,1.0,1668050453.853628
281634428.0,0.0,1.3900000000000001,0.0,0.11,343.35,343.09000000000003,0.04,1.0,1668050453.953449
281734389.0,0.0,1.4000000000000001,0.0,0.14,343.35,343.07,0.04,1.0,1668050454.05341
281834483.0,0.0,1.4000000000000001,0.0,0.14,343.35,343.03000000000003,0.04,1.0,1668050454.153504
281934408.0,0.0,1.41,0.0,0.1,343.35,343.09000000000003,0.04,1.0,1668050454.253429
282034493.0,0.0,1.3900000000000001,0.0,0.1,343.35,343.08,0.03,1.0,1668050454.353514
282134653.0,0.0,1.3900000000000001,0.0,0.11,343.35,343.03000000000003,0.03,1.0,1668050454.453674
282234393.0,0.0,1.41,0.0,0.13,343.35,343.03000000000003,0.04,1.0,1668050454.5534139
282334879.0,0.0,1.4000000000000001,0.0,0.13,343.35,343.07,0.06,1.0,1668050454.6539
282434397.0,0.0,1.41,0.0,0.13,343.35,343.03000000000003,0.05,1.0,1668050454.753418
282534409.0,0.0,1.4000000000000001,0.0,0.08,343.35,343.0,0.05,1.0,1668050454.85343
282634420.0,0.0,1.4000000000000001,0.0,0.11,343.35,343.03000000000003,0.04,1.0,1668050454.953441
282734518.0,0.0,1.41,0.0,0.15,343.35,343.01,0.03,1.0,1668050455.053539
282834399.0,0.0,1.3900000000000001,0.0,0.15,343.35,342.96,0.03,1.0,1668050455.15342
282934505.0,0.0,1.41,0.0,0.12,343.35,343.01,0.03,1.0,1668050455.253526
283034578.0,0.0,1.41,0.0,0.09,343.35,342.98,0.04,1.0,1668050455.353599
283134400.0,0.0,1.41,0.0,0.14,343.35,342.93,0.05,1.0,1668050455.4534209
283234436.0,0.0,1.4000000000000001,0.0,0.14,343.35,342.99,0.05,1.0,1668050455.553457
283334605.0,0.0,1.3900000000000001,0.0,0.13,343.35,342.93,0.05,1.0,1668050455.653626
283434382.0,0.0,1.4000000000000001,0.0,0.11,343.35,342.88,0.05,1.0,1668050455.753403
283534425.0,0.0,1.45,0.0,0.11,343.35,342.94,0.05,1.0,1668050455.853446
283634474.0,0.0,1.3900000000000001,0.0,0.13,343.35,342.93,0.06,1.0,1668050455.953495
283734462.0,0.0,1.3900000000000001,0.0,0.15,343.35,342.94,0.06,1.0,1668050456.053483
283834542.0,0.0,1.4000000000000001,0.0,0.14,343.35,342.93,0.06,1.0,1668050456.153563
283934662.0,0.0,1.41,0.0,0.09,343.35,342.90000000000003,0.06,1.0,1668050456.253683
284034588.0,0.0,1.4000000000000001,0.0,0.08,343.35,342.95,0.05,1.0,1668050456.353609
284134415.0,0.0,1.4000000000000001,0.0,0.15,343.35,342.92,0.06,1.0,1668050456.453436
284234478.0,0.0,1.3900000000000001,0.0,0.18,343.35,342.90000000000003,0.06,1.0,1668050456.553499
284334666.0,0.0,1.4000000000000001,0.0,0.1,343.35,342.88,0.05,1.0,1668050456.653687
284434566.0,0.0,1.4000000000000001,0.0,0.1,343.35,342.85,0.05,1.0,1668050456.753587
284534485.0,0.0,1.41,0.0,0.12,343.35,342.89,0.05,1.0,1668050456.853506
284634405.0,0.0,1.41,0.0,0.17,343.35,342.84000000000003,0.05,1.0,1668050456.953426
284734406.0,0.0,1.3900000000000001,0.0,0.14,343.35,342.85,0.05,1.0,1668050457.053427
284834585.0,0.0,1.3800000000000001,0.0,0.05,343.35,342.82,0.04,1.0,1668050457.153606
284934382.0,0.0,1.41,0.0,0.09,343.35,342.81,0.04,1.0,1668050457.253403
285034417.0,0.0,1.43,0.0,0.15,343.35,342.86,0.04,1.0,1668050457.353438
285134435.0,0.0,1.3900000000000001,0.0,0.16,343.35,342.83,0.03,1.0,1668050457.453456
285234382.0,0.0,1.41,0.0,0.12,343.35,342.82,0.03,1.0,1668050457.553403
285334905.0,0.0,1.3900000000000001,0.0,0.07,343.35,342.79,0.03,1.0,1668050457.653926
285434390.0,0.0,1.41,0.0,0.13,343.35,342.8,0.03,1.0,1668050457.753411
285534460.0,0.0,1.4000000000000001,0.0,0.17,343.35,342.77,0.03,1.0,1668050457.853481
285634392.0,0.0,1.4000000000000001,0.0,0.14,343.35,342.79,0.03,1.0,1668050457.953413
285734690.0,0.0,1.41,0.0,0.04,343.35,342.76,0.03,1.0,1668050458.053711
285834394.0,0.0,1.41,0.0,0.08,343.35,342.76,0.03,1.0,1668050458.153415
285934402.0,0.0,1.41,0.0,0.17,343.35,342.8,0.03,1.0,1668050458.253423
286034452.0,0.0,1.4000000000000001,0.0,0.16,343.35,342.78000000000003,0.03,1.0,1668050458.353473
286134412.0,0.0,1.42,0.0,0.08,343.35,342.74,0.04,1.0,1668050458.453433
286234387.0,0.0,1.42,0.0,0.05,343.35,342.71,0.04,1.0,1668050458.553408
286334667.0,0.0,1.43,0.0,0.13,343.35,342.74,0.04,1.0,1668050458.653688
286434469.0,0.0,1.43,0.0,0.18,343.35,342.74,0.04,1.0,1668050458.75349
286534547.0,0.0,1.41,0.0,0.1,343.35,342.71,0.04,1.0,1668050458.853568
286634554.0,0.0,1.42,0.0,0.01,343.35,342.7,0.04,1.0,1668050458.953575
286734416.0,0.0,1.43,0.0,0.09,343.35,342.71,0.04,1.0,1668050459.053437
286834453.0,0.0,1.42,0.0,0.17,343.35,342.74,0.04,1.0,1668050459.153474
286934409.0,0.0,1.42,0.0,0.15,343.35,342.7,0.04,1.0,1668050459.25343
287034496.0,0.0,1.43,0.0,0.05,343.35,342.65000000000003,0.03,1.0,1668050459.353517
287134550.0,0.0,1.43,0.0,0.04,343.35,342.63,0.05,1.0,1668050459.453571
287234378.0,0.0,1.42,0.0,0.12,343.35,342.69,0.05,1.0,1668050459.553399
287334638.0,0.0,1.41,0.0,0.15,343.35,342.67,0.05,1.0,1668050459.653659
287434334.0,0.0,1.42,0.0,0.1,343.35,342.65000000000003,0.05,1.0,1668050459.753355
287534619.0,0.0,1.42,0.0,0.02,343.35,342.61,0.04,1.0,1668050459.85364
287634361.0,0.0,1.41,0.0,0.08,343.35,342.64,0.04,1.0,1668050459.953382
287734416.0,0.0,1.42,0.0,0.17,343.35,342.63,0.04,1.0,1668050460.053437
287834567.0,0.0,1.42,0.0,0.13,343.35,342.6,0.04,1.0,1668050460.153588
287934508.0,0.0,1.42,0.0,0.04,343.35,342.57,0.03,1.0,1668050460.253529
288034415.0,0.0,1.42,0.0,0.05,343.35,342.59000000000003,0.03,1.0,1668050460.353436
288134416.0,0.0,1.43,0.0,0.15,343.35,342.62,0.02,1.0,1668050460.453437
288234552.0,0.0,1.43,0.0,0.14,343.35,342.6,0.03,1.0,1668050460.553573
288334728.0,0.0,1.42,0.0,0.05,343.35,342.56,0.04,1.0,1668050460.653749
288434593.0,0.0,1.44,0.0,0.03,343.35,342.56,0.05,1.0,1668050460.753614
288534407.0,0.0,1.43,0.0,0.09,343.25,342.57,0.06,1.0,1668050460.853428
288634484.0,0.0,1.44,0.0,0.14,342.71,342.48,0.06,1.0,1668050460.953505
288734554.0,0.0,1.44,0.0,0.07,341.72,342.33,0.05,1.0,1668050461.053575
288834477.0,0.0,1.45,0.0,0.04,342.40000000000003,342.46,0.05,1.0,1668050461.153498
288934425.0,0.0,1.47,0.0,0.07,342.65000000000003,342.72,0.05,1.0,1668050461.253446
289034405.0,0.0,1.46,0.0,0.08,342.46,342.53000000000003,0.04,1.0,1668050461.353426
289134406.0,0.0,1.48,0.0,0.07,342.35,342.43,0.04,1.0,1668050461.453427
289234482.0,0.0,1.46,0.0,0.06,342.44,342.53000000000003,0.04,1.0,1668050461.553503
289334629.0,0.0,1.46,0.0,0.04,342.41,342.51,0.05,1.0,1668050461.65365
289434372.0,0.0,1.47,0.0,0.05,342.33,342.43,0.06,1.0,1668050461.753393
289534416.0,0.0,1.46,0.0,0.06,342.40000000000003,342.5,0.06,1.0,1668050461.853437
289634537.0,0.0,1.47,0.0,0.05,342.40000000000003,342.49,0.06,1.0,1668050461.953558
289746361.0,0.0,1.47,0.0,0.05,342.32,342.42,0.05,1.0,1668050462.065382
289846184.0,0.0,1.47,0.0,0.04,342.36,342.46,0.04,1.0,1668050462.165205
289946236.0,0.0,1.45,0.0,0.07,342.36,342.46,0.04,1.0,1668050462.265257
290046232.0,0.0,1.43,0.0,0.08,342.29,342.38,0.03,1.0,1668050462.365253
290146341.0,0.0,1.41,0.0,0.1,342.33,342.43,0.03,1.0,1668050462.465362
290246196.0,0.0,1.3900000000000001,0.0,0.11,342.34000000000003,342.43,0.02,1.0,1668050462.565217
290346187.0,0.0,1.3800000000000001,0.0,0.12,342.27,342.37,0.02,1.0,1668050462.665208
290446222.0,0.0,1.3800000000000001,0.0,0.13,342.3,342.40000000000003,0.01,1.0,1668050462.765243
290546205.0,0.0,1.37,0.0,0.14,342.3,342.40000000000003,0.01,1.0,1668050462.865226
290646176.0,0.0,1.37,0.0,0.14,342.26,342.36,0.01,1.0,1668050462.965197
290746246.0,0.0,1.37,0.0,0.14,342.26,342.36,0.01,1.0,1668050463.065267
290846293.0,0.0,1.36,0.0,0.14,342.28000000000003,342.38,0.01,1.0,1668050463.165314
290946357.0,0.0,1.36,0.0,0.14,342.24,342.34000000000003,0.01,1.0,1668050463.265378
291046464.0,0.0,1.35,0.0,0.14,342.24,342.34000000000003,0.01,1.0,1668050463.365485
291146237.0,0.0,1.35,0.0,0.15,342.25,342.35,0.01,1.0,1668050463.465258
291246257.0,0.0,1.34,0.0,0.15,342.22,342.31,0.01,1.0,1668050463.565278
291346222.0,0.0,1.34,0.0,0.16,342.22,342.32,0.01,1.0,1668050463.665243
291446192.0,0.0,1.33,0.0,0.17,342.22,342.32,0.0,1.0,1668050463.765213
291546223.0,0.0,1.32,0.0,0.18,342.2,342.29,0.0,1.0,1668050463.865244
291646227.0,0.0,1.31,0.0,0.18,342.2,342.29,0.0,1.0,1668050463.9652479
291746219.0,0.0,1.31,0.0,0.2,342.2,342.29,0.0,1.0,1668050464.06524
291846217.0,0.0,1.3,0.0,0.2,342.17,342.27,0.0,1.0,1668050464.165238
291946299.0,0.0,1.29,0.0,0.21,342.17,342.27,0.0,1.0,1668050464.26532
292046362.0,0.0,1.28,0.0,0.23,342.17,342.27,0.0,1.0,1668050464.365383
292146212.0,0.0,1.28,0.0,0.23,342.15000000000003,342.25,0.0,1.0,1668050464.465233
292246180.0,0.0,1.27,0.0,0.24,342.14,342.24,0.0,1.0,1668050464.565201
292346334.0,0.0,1.26,0.0,0.25,342.14,342.23,0.0,1.0,1668050464.665355
292446189.0,0.0,1.26,0.0,0.24,342.12,342.22,0.0,1.0,1668050464.76521
292546213.0,0.0,1.25,0.0,0.25,342.11,342.21,0.0,1.0,1668050464.865234
292646254.0,0.0,1.25,0.0,0.26,342.13,342.21,0.0,1.0,1668050464.965275
292746191.0,0.0,1.24,0.0,0.26,342.14,342.19,0.0,1.0,1668050465.065212
292846276.0,0.0,1.24,0.0,0.27,342.15000000000003,342.18,0.0,1.0,1668050465.165297
292946282.0,0.0,1.24,0.0,0.27,342.17,342.18,0.0,1.0,1668050465.265303
293046397.0,0.0,1.24,0.0,0.27,342.16,342.17,0.0,1.0,1668050465.365418
293146381.0,0.0,1.23,0.0,0.28,342.14,342.15000000000003,0.0,1.0,1668050465.465402
293246195.0,0.0,1.23,0.0,0.28,342.14,342.15000000000003,0.0,1.0,1668050465.565216
293346291.0,0.0,1.23,0.0,0.28,342.13,342.14,0.0,1.0,1668050465.665312
293446218.0,0.0,1.23,0.0,0.28,342.12,342.12,0.0,1.0,1668050465.765239
293546188.0,0.0,1.23,0.0,0.28,342.12,342.13,0.0,1.0,1668050465.865209
293646094.0,0.0,1.23,0.0,0.28,342.11,342.11,0.0,1.0,1668050465.965115
293746376.0,0.0,1.23,0.0,0.29,342.09000000000003,342.1,0.0,1.0,1668050466.065397
293846231.0,0.0,1.23,0.0,0.28,342.09000000000003,342.1,0.0,1.0,1668050466.165252
293946105.0,0.0,1.23,0.0,0.29,342.08,342.09000000000003,0.0,1.0,1668050466.265126
294046235.0,0.0,1.23,0.0,0.29,342.06,342.07,0.0,1.0,1668050466.365256
294146215.0,0.0,1.23,0.0,0.28,342.06,342.07,0.0,1.0,1668050466.465236
294246206.0,0.0,1.23,0.0,0.29,342.07,342.06,0.0,1.0,1668050466.565227
294346264.0,0.0,1.23,0.0,0.29,342.1,342.05,0.0,1.0,1668050466.6652849
294446184.0,0.0,1.23,0.0,0.28,342.13,342.05,0.0,1.0,1668050466.765205
294546226.0,0.0,1.23,0.0,0.29,342.12,342.03000000000003,0.0,1.0,1668050466.865247
294646377.0,0.0,1.23,0.0,0.29,342.1,342.02,0.0,1.0,1668050466.965398
294746191.0,0.0,1.23,0.0,0.27,342.1,342.02,0.0,1.0,1668050467.065212
294846199.0,0.0,1.23,0.0,0.29,342.09000000000003,342.0,0.0,1.0,1668050467.16522
294946179.0,0.0,1.23,0.0,0.29,342.08,342.0,0.0,1.0,1668050467.2652
295046575.0,0.0,1.23,0.0,0.28,342.16,341.99,0.0,1.0,1668050467.365596
295146113.0,0.0,1.23,0.0,0.29,345.76,341.98,0.02,1.0,1668050467.465134
295246113.0,0.0,1.23,0.0,0.28,349.36,341.97,0.03,1.0,1668050467.565134
295346218.0,0.0,1.24,0.0,0.27,352.96,341.96,0.05,1.0,1668050467.665239
295446267.0,0.0,1.24,0.0,0.28,356.56,341.95,0.05,1.0,1668050467.7652879
295546397.0,0.0,1.24,0.0,0.28,0.16,341.95,0.05,1.0,1668050467.865418
295646193.0,0.0,1.24,0.0,0.26,3.7600000000000002,341.94,0.05,1.0,1668050467.965214
295746123.0,0.0,1.25,0.0,0.27,7.36,341.92,0.04,1.0,1668050468.065144
295846126.0,0.0,1.26,0.0,0.26,10.96,341.92,0.04,1.0,1668050468.165147
295946225.0,0.0,1.26,0.0,0.25,14.56,341.91,0.04,1.0,1668050468.265246
296046231.0,0.0,1.27,0.0,0.25,18.16,341.90000000000003,0.04,1.0,1668050468.365252
296146376.0,0.0,1.27,0.0,0.24,21.76,341.89,0.04,1.0,1668050468.465397
296246336.0,0.0,1.28,0.0,0.24,21.97,341.89,0.04,1.0,1668050468.565357
296346321.0,0.0,1.28,0.0,0.23,21.95,341.87,0.04,1.0,1668050468.665342
296446336.0,0.0,1.29,0.0,0.22,21.95,341.87,0.07,1.0,1668050468.765357
296546170.0,0.0,1.29,0.0,0.21,21.94,341.86,0.07,1.0,1668050468.865191
296646178.0,0.0,1.3,0.0,0.21,21.93,341.85,0.07,1.0,1668050468.965199
296746215.0,0.0,1.3,0.0,0.2,21.93,341.85,0.06,1.0,1668050469.065236
296846219.0,0.0,1.31,0.0,0.2,21.92,341.84000000000003,0.05,1.0,1668050469.16524
296946172.0,0.0,1.31,0.0,0.2,21.91,341.83,0.05,1.0,1668050469.265193
297046195.0,0.0,1.32,0.0,0.19,341.82,341.83,0.04,1.0,1668050469.365216
297146225.0,0.0,1.32,0.0,0.18,341.90000000000003,341.82,0.05,1.0,1668050469.465246
297246220.0,0.0,1.33,0.0,0.18,341.89,341.8,0.05,1.0,1668050469.565241
297346412.0,0.0,1.33,0.0,0.17,341.88,341.8,0.05,1.0,1668050469.665433
297446189.0,0.0,1.34,0.0,0.17,341.87,341.79,0.05,1.0,1668050469.76521
297546480.0,0.0,1.34,0.0,0.16,341.86,341.78000000000003,0.05,1.0,1668050469.865501
297646185.0,0.0,1.34,0.0,0.16,341.86,341.77,0.05,1.0,1668050469.965206
297746138.0,0.0,1.35,0.0,0.15,341.85,341.76,0.04,1.0,1668050470.065159
297846287.0,0.0,1.35,0.0,0.14,341.85,341.76,0.04,1.0,1668050470.165308
297946179.0,0.0,1.36,0.0,0.14,341.83,341.74,0.04,1.0,1668050470.2652
298046313.0,0.0,1.36,0.0,0.13,341.79,341.71,0.05,1.0,1668050470.365334
298146220.0,0.0,1.37,0.0,0.13,341.82,341.75,0.05,1.0,1668050470.465241
298246447.0,0.0,1.37,0.0,0.12,341.75,341.72,0.04,1.0,1668050470.565468
298346207.0,0.0,1.3800000000000001,0.0,0.11,341.68,341.68,0.04,1.0,1668050470.665228
298446202.0,0.0,1.3800000000000001,0.0,0.11,341.71,341.72,0.05,1.0,1668050470.765223
298546163.0,0.0,1.3900000000000001,0.0,0.11,341.69,341.7,0.07,1.0,1668050470.865184
298646209.0,0.0,1.4000000000000001,0.0,0.1,341.67,341.66,0.07,1.0,1668050470.96523
298746206.0,0.0,1.4000000000000001,0.0,0.1,341.67,341.68,0.06,1.0,1668050471.065227
298846192.0,0.0,1.4000000000000001,0.0,0.09,341.67,341.65000000000003,0.06,1.0,1668050471.1652129
298946215.0,0.0,1.41,0.0,0.08,341.67,341.65000000000003,0.05,1.0,1668050471.265236
299046240.0,0.0,1.41,0.0,0.09,341.67,341.66,0.05,1.0,1668050471.365261
299146353.0,0.0,1.42,0.0,0.08,341.67,341.63,0.05,1.0,1668050471.465374
299246248.0,0.0,1.42,0.0,0.07,341.67,341.62,0.05,1.0,1668050471.565269
299346203.0,0.0,1.42,0.0,0.08,341.67,341.63,0.05,1.0,1668050471.665224
299446204.0,0.0,1.43,0.0,0.06,341.67,341.61,0.04,1.0,1668050471.765225
299546230.0,0.0,1.43,0.0,0.06,341.67,341.62,0.05,1.0,1668050471.865251
299646287.0,0.0,1.44,0.0,0.06,341.67,341.59000000000003,0.06,1.0,1668050471.965308
299746198.0,0.0,1.43,0.0,0.05,341.67,341.6,0.05,1.0,1668050472.065219
299846154.0,0.0,1.44,0.0,0.05,341.67,341.58,0.05,1.0,1668050472.165175
299946166.0,0.0,1.43,0.0,0.07,341.67,341.57,0.05,1.0,1668050472.265187
300046311.0,0.0,1.44,0.0,0.06,341.67,341.56,0.05,1.0,1668050472.365332
300146254.0,0.0,1.44,0.0,0.06,341.67,341.53000000000003,0.04,1.0,1668050472.465275
300246197.0,0.0,1.44,0.0,0.06,341.67,341.56,0.03,1.0,1668050472.565218
300346293.0,0.0,1.44,0.0,0.03,341.67,341.52,0.03,1.0,1668050472.665314
300446330.0,0.0,1.44,0.0,0.06,341.67,341.54,0.04,1.0,1668050472.765351
300546217.0,0.0,1.45,0.0,0.06,341.67,341.51,0.05,1.0,1668050472.865238
300646180.0,0.0,1.45,0.0,0.04,341.67,341.51,0.05,1.0,1668050472.965201
300746199.0,0.0,1.45,0.0,0.02,341.67,341.52,0.05,1.0,1668050473.0652199
300846248.0,0.0,1.46,0.0,0.02,341.67,341.52,0.05,1.0,1668050473.165269
300946322.0,0.0,1.47,0.0,0.03,341.67,341.49,0.05,1.0,1668050473.265343
301046367.0,0.0,1.45,0.0,0.03,341.67,341.45,0.04,1.0,1668050473.365388
301146300.0,0.0,1.47,0.0,0.05,341.67,341.44,0.05,1.0,1668050473.465321
301246274.0,0.0,1.46,0.0,0.03,341.67,341.47,0.05,1.0,1668050473.565295
301346259.0,0.0,1.48,0.0,0.03,341.67,341.48,0.04,1.0,1668050473.66528
301446193.0,0.0,1.47,0.0,0.01,341.67,341.44,0.04,1.0,1668050473.765214
301546213.0,0.0,1.48,0.0,0.02,341.67,341.42,0.04,1.0,1668050473.865234
301646204.0,0.0,1.47,0.0,0.04,341.67,341.44,0.04,1.0,1668050473.965225
301746238.0,0.0,1.48,0.0,0.03,341.67,341.42,0.04,1.0,1668050474.065259
301846379.0,0.0,1.48,0.0,0.02,341.67,341.40000000000003,0.04,1.0,1668050474.1654
301946200.0,0.0,1.48,0.0,0.0,341.67,341.38,0.03,1.0,1668050474.2652209
302046289.0,0.0,1.48,0.0,0.0,341.67,341.41,0.03,1.0,1668050474.36531
302146224.0,0.0,1.49,0.0,0.03,341.67,341.40000000000003,0.04,1.0,1668050474.465245
302246196.0,0.0,1.48,0.0,0.04,341.67,341.36,0.05,1.0,1668050474.565217
302346284.0,0.0,1.48,0.0,0.0,341.67,341.37,0.05,1.0,1668050474.665305
302446344.0,0.0,1.49,0.0,-0.01,341.67,341.37,0.06,1.0,1668050474.765365
302546282.0,0.0,1.49,0.0,-0.01,341.67,341.33,0.07,1.0,1668050474.865303
302646231.0,0.0,1.48,0.0,0.03,341.67,341.33,0.08,1.0,1668050474.965252
302746381.0,0.0,1.49,0.0,0.05,341.67,341.35,0.06,1.0,1668050475.065402
302846235.0,0.0,1.49,0.0,0.02,341.67,341.32,0.07,1.0,1668050475.165256
302946186.0,0.0,1.49,0.0,-0.01,341.67,341.3,0.07,1.0,1668050475.265207
303046227.0,0.0,1.49,0.0,-0.01,341.67,341.32,0.06,1.0,1668050475.365248
303146206.0,0.0,1.48,0.0,0.05,341.67,341.31,0.05,1.0,1668050475.465227
303246216.0,0.0,1.48,0.0,0.06,341.67,341.28000000000003,0.05,1.0,1668050475.565237
303346218.0,0.0,1.48,0.0,-0.02,341.67,341.28000000000003,0.05,1.0,1668050475.665239
303446194.0,0.0,1.48,0.0,-0.05,341.67,341.26,0.05,1.0,1668050475.765215
303546279.0,0.0,1.48,0.0,0.02,341.67,341.27,0.05,1.0,1668050475.8653
303646711.0,0.0,1.49,0.0,0.1,341.67,341.27,0.05,1.0,1668050475.965732
303746350.0,0.0,1.49,0.0,0.04,341.67,341.24,0.05,1.0,1668050476.065371
303846286.0,0.0,1.48,0.0,-0.07,341.67,341.22,0.06,1.0,1668050476.165307
303946182.0,0.0,1.47,0.0,-0.04,341.67,341.22,0.06,1.0,1668050476.265203
304046218.0,0.0,1.48,0.0,0.08,341.67,341.23,0.05,1.0,1668050476.365239
304146204.0,0.0,1.47,0.0,0.06,341.67,341.21,0.05,1.0,1668050476.465225
304246216.0,0.0,1.47,0.0,-0.06,341.67,341.18,0.04,1.0,1668050476.565237
304346220.0,0.0,1.48,0.0,-0.06,341.67,341.17,0.05,1.0,1668050476.665241
304446212.0,0.0,1.47,0.0,0.07,341.67,341.2,0.06,1.0,1668050476.765233
304546650.0,0.0,1.49,0.0,0.11,341.67,341.2,0.06,1.0,1668050476.865671
304646388.0,0.0,1.47,0.0,-0.02,341.67,341.15000000000003,0.06,1.0,1668050476.965409
304746208.0,0.0,1.48,0.0,-0.07,341.67,341.16,0.06,1.0,1668050477.065229
304846152.0,0.0,1.48,0.0,0.03,341.67,341.16,0.06,1.0,1668050477.165173
304946194.0,0.0,1.49,0.0,0.11,341.67,341.16,0.06,1.0,1668050477.265215
305046402.0,0.0,1.48,0.0,0.01,341.67,341.11,0.05,1.0,1668050477.365423
305146122.0,0.0,1.47,0.0,-0.08,341.67,341.11,0.05,1.0,1668050477.465143
305246235.0,0.0,1.48,0.0,0.01,341.67,341.1,0.05,1.0,1668050477.5652559
305346224.0,0.0,1.48,0.0,0.12,341.67,341.14,0.04,1.0,1668050477.665245
305446293.0,0.0,1.47,0.0,0.02,341.67,341.1,0.05,1.0,1668050477.765314
305546343.0,0.0,1.47,0.0,-0.07,341.67,341.08,0.05,1.0,1668050477.865364
305646398.0,0.0,1.48,0.0,-0.01,341.67,341.06,0.06,1.0,1668050477.965419
305746191.0,0.0,1.46,0.0,0.09,341.67,341.1,0.06,1.0,1668050478.065212
305846186.0,0.0,1.47,0.0,0.03,341.67,341.06,0.06,1.0,1668050478.165207
305946288.0,0.0,1.46,0.0,-0.06,341.67,341.04,0.06,1.0,1668050478.265309
306046376.0,0.0,1.47,0.0,-0.04,341.67,341.04,0.06,1.0,1668050478.365397
306146124.0,0.0,1.47,0.0,0.09,341.67,341.04,0.05,1.0,1668050478.4651449
306246246.0,0.0,1.46,0.0,0.07,341.67,341.03000000000003,0.04,1.0,1668050478.565267
306346443.0,0.0,1.47,0.0,-0.04,341.67,341.01,0.04,1.0,1668050478.665464
306446200.0,0.0,1.46,0.0,-0.07,341.67,340.99,0.04,1.0,1668050478.7652209
306546232.0,0.0,1.48,0.0,0.07,341.67,341.02,0.04,1.0,1668050478.865253
306646708.0,0.0,1.46,0.0,0.09,341.67,341.0,0.04,1.0,1668050478.965729
306746184.0,0.0,1.47,0.0,-0.03,341.67,340.97,0.04,1.0,1668050479.065205
306846268.0,0.0,1.48,0.0,-0.08,341.67,340.96,0.05,1.0,1668050479.165289
306946195.0,0.0,1.48,0.0,0.04,341.67,340.97,0.05,1.0,1668050479.2652159
307046367.0,0.0,1.47,0.0,0.09,341.67,340.98,0.04,1.0,1668050479.365388
307146195.0,0.0,1.48,0.0,0.0,341.67,340.93,0.06,1.0,1668050479.465216
307246361.0,0.0,1.48,0.0,-0.09,341.67,340.93,0.07,1.0,1668050479.565382
307346344.0,0.0,1.47,0.0,0.01,341.67,340.93,0.07,1.0,1668050479.665365
307446180.0,0.0,1.48,0.0,0.1,341.67,340.94,0.07,1.0,1668050479.765201
307546228.0,0.0,1.47,-0.05,0.01,341.67,340.91,0.06,1.0,1668050479.865249
307646600.0,0.0,1.48,-0.22,-0.08,341.67,340.89,0.06,1.0,1668050479.965621
307746125.0,0.0,1.47,-0.4,-0.05,341.67,340.90000000000003,0.05,1.0,1668050480.065146
307846168.0,0.0,1.47,-0.53,0.07,341.67,340.90000000000003,0.05,1.0,1668050480.165189
307946120.0,0.0,1.48,-0.71,0.02,341.67,340.88,0.04,1.0,1668050480.265141
308046309.0,0.0,1.49,-0.84,-0.08,341.67,340.85,0.04,1.0,1668050480.36533
308146273.0,0.0,1.48,-0.93,-0.05,341.67,340.84000000000003,0.03,1.0,1668050480.465294
308246212.0,0.0,1.47,-1.02,0.05,341.67,340.86,0.04,1.0,1668050480.565233
308346291.0,0.0,1.48,-1.2,0.01,341.67,340.87,0.04,1.0,1668050480.665312
308446119.0,0.0,1.5,-1.3800000000000001,-0.06,341.67,340.82,0.04,1.0,1668050480.76514
308546360.0,0.0,1.48,-1.53,-0.05,341.67,340.81,0.03,1.0,1668050480.865381
308646407.0,0.0,1.49,-1.77,0.0,341.67,340.83,0.03,1.0,1668050480.9654279
308746213.0,0.0,1.48,-1.94,0.01,341.67,340.85,0.04,1.0,1668050481.065234
308846257.0,0.0,1.48,-2.14,-0.05,341.67,340.78000000000003,0.04,1.0,1668050481.165278
308946134.0,0.0,1.49,-2.34,-0.08,341.67,340.76,0.04,1.0,1668050481.265155
309046392.0,0.0,1.48,-2.5300000000000002,-0.05,341.67,340.76,0.03,1.0,1668050481.365413
309146101.0,0.0,1.49,-2.7,0.0,341.67,340.79,0.03,1.0,1668050481.465122
309246139.0,0.0,1.5,-2.86,-0.03,341.67,340.78000000000003,0.03,1.0,1668050481.56516
309346258.0,0.0,1.5,-3.0100000000000002,-0.06,341.67,340.73,0.03,1.0,1668050481.665279
309446182.0,0.0,1.5,-3.06,-0.05,341.67,340.72,0.03,1.0,1668050481.765203
309546222.0,0.0,1.5,-3.1,-0.02,341.67,340.72,0.03,1.0,1668050481.865243
309646365.0,0.0,1.51,-3.16,-0.04,341.67,340.73,0.04,1.0,1668050481.965386
309746109.0,0.0,1.51,-3.3200000000000003,-0.05,341.67,340.71,0.03,1.0,1668050482.06513
309846175.0,0.0,1.5,-3.45,-0.06,341.67,340.74,0.03,1.0,1668050482.165196
309946290.0,0.0,1.49,-3.6,-0.06,341.67,340.7,0.03,1.0,1668050482.265311
310046301.0,0.0,1.5,-3.85,-0.04,341.67,340.68,0.03,1.0,1668050482.3653219
310146385.0,0.0,1.51,-4.04,-0.04,341.67,340.68,0.03,1.0,1668050482.465406
310246204.0,0.0,1.5,-4.2,-0.07,341.67,340.67,0.03,1.0,1668050482.565225
310346235.0,0.0,1.5,-4.32,-0.07,341.67,340.63,0.03,1.0,1668050482.665256
310446206.0,0.0,1.52,-4.61,-0.08,341.67,340.65000000000003,0.04,1.0,1668050482.765227
310546205.0,0.0,1.5,-4.84,-0.07,341.67,340.63,0.03,1.0,1668050482.865226
310646292.0,0.0,1.51,-5.03,-0.06,341.67,340.62,0.03,1.0,1668050482.965313
310746237.0,0.0,1.52,-5.26,-0.06,341.67,340.62,0.03,1.0,1668050483.065258
310846453.0,0.0,1.51,-5.49,-0.08,341.67,340.61,0.03,1.0,1668050483.165474
310946210.0,0.0,1.5,-5.68,-0.07,341.67,340.61,0.03,1.0,1668050483.265231
311046247.0,0.0,1.48,-5.84,-0.08,341.67,340.63,0.03,1.0,1668050483.365268
311146194.0,0.0,1.5,-6.0,-0.1,341.67,340.59000000000003,0.03,1.0,1668050483.465215
311246201.0,0.0,1.51,-6.19,-0.1,341.67,340.57,0.04,1.0,1668050483.565222
311346311.0,0.0,1.53,-6.3500000000000005,-0.08,341.67,340.58,0.05,1.0,1668050483.665332
311446196.0,0.0,1.53,-6.47,-0.08,341.67,340.55,0.05,1.0,1668050483.765217
311546375.0,0.0,1.54,-6.58,-0.07,341.67,340.55,0.05,1.0,1668050483.865396
311646334.0,0.0,1.52,-6.68,-0.07,341.67,340.56,0.06,1.0,1668050483.965355
311746384.0,0.0,1.51,-6.7700000000000005,-0.1,341.67,340.53000000000003,0.06,1.0,1668050484.065405
311846205.0,0.0,1.52,-6.890000000000001,-0.09,341.67,340.52,0.06,1.0,1668050484.165226
311946181.0,0.0,1.53,-6.98,-0.09,341.67,340.51,0.06,1.0,1668050484.265202
312046200.0,0.0,1.55,-7.04,-0.09,341.67,340.48,0.05,1.0,1668050484.365221
312146225.0,0.0,1.54,-7.13,-0.09,341.67,340.49,0.05,1.0,1668050484.465246
312246336.0,0.0,1.53,-7.17,-0.1,341.67,340.5,0.05,1.0,1668050484.565357
312346227.0,0.0,1.52,-7.25,-0.1,341.67,340.5,0.04,1.0,1668050484.665248
312446234.0,0.0,1.52,-7.38,-0.09,341.67,340.49,0.04,1.0,1668050484.765255
312546244.0,0.0,1.51,-7.48,-0.12,341.67,340.48,0.04,1.0,1668050484.865265
312646552.0,0.0,1.52,-7.58,-0.14,341.67,340.45,0.03,1.0,1668050484.965573
312746196.0,0.0,1.55,-7.640000000000001,-0.1,341.67,340.43,0.03,1.0,1668050485.065217
312846191.0,0.0,1.56,-7.46,-0.08,341.67,340.42,0.04,1.0,1668050485.165212
312946393.0,0.0,1.55,-6.67,-0.08,341.67,340.46,0.04,1.0,1668050485.265414
313046289.0,0.0,1.53,-4.89,-0.02,341.67,340.49,0.04,1.0,1668050485.36531
313146306.0,0.0,1.52,-2.58,0.07,341.67,340.41,0.04,1.0,1668050485.465327
313246269.0,0.0,1.54,-1.31,0.04,341.67,340.40000000000003,0.03,1.0,1668050485.56529
313346240.0,0.0,1.55,-0.67,-0.02,341.67,340.44,0.03,1.0,1668050485.665261
313446197.0,0.0,1.54,-0.34,0.0,341.67,340.37,0.03,1.0,1668050485.765218
313546398.0,0.0,1.54,-0.17,0.0,341.67,340.39,0.03,1.0,1668050485.865419
313646215.0,0.0,1.53,-0.08,-0.03,341.67,340.39,0.04,1.0,1668050485.965236
313746198.0,0.0,1.51,-0.04,-0.03,341.67,340.36,0.04,1.0,1668050486.065219
313846212.0,0.0,1.54,-0.02,-0.01,341.67,340.35,0.03,1.0,1668050486.165233
313946192.0,0.0,1.52,-0.01,-0.04,341.67,340.36,0.03,1.0,1668050486.265213
314046211.0,0.0,1.53,0.0,-0.02,341.67,340.34000000000003,0.03,1.0,1668050486.365232
314146229.0,0.0,1.52,0.0,-0.03,341.67,340.32,0.04,1.0,1668050486.46525
314246360.0,0.0,1.52,0.0,-0.03,341.67,340.3,0.05,1.0,1668050486.565381
314346406.0,0.0,1.53,0.0,-0.02,341.67,340.34000000000003,0.05,1.0,1668050486.665427
314446414.0,0.0,1.52,0.0,-0.05,341.67,340.32,0.05,1.0,1668050486.765435
314546293.0,0.0,1.54,0.0,-0.04,341.67,340.29,0.05,1.0,1668050486.865314
314646195.0,0.0,1.53,0.0,-0.04,341.67,340.31,0.05,1.0,1668050486.965216
314746114.0,0.0,1.54,0.0,-0.03,341.67,340.28000000000003,0.05,1.0,1668050487.065135
314846207.0,0.0,1.52,0.0,-0.05,341.67,340.28000000000003,0.04,1.0,1668050487.165228
314946208.0,0.0,1.52,0.0,-0.03,341.67,340.27,0.04,1.0,1668050487.265229
315046331.0,0.0,1.52,0.0,-0.05,341.67,340.26,0.04,1.0,1668050487.365352
315146138.0,0.0,1.53,0.0,-0.05,341.67,340.24,0.03,1.0,1668050487.465159
315246198.0,0.0,1.53,0.0,-0.05,341.67,340.27,0.03,1.0,1668050487.565219
315346381.0,0.0,1.53,0.0,-0.05,341.67,340.25,0.03,1.0,1668050487.665402
315446224.0,0.0,1.53,0.0,-0.05,341.67,340.23,0.04,1.0,1668050487.765245
315546297.0,0.0,1.54,0.0,-0.05,341.67,340.22,0.04,1.0,1668050487.865318
315646290.0,0.0,1.55,0.0,-0.05,341.67,340.23,0.04,1.0,1668050487.965311
315746201.0,0.0,1.55,0.0,-0.04,341.67,340.21,0.04,1.0,1668050488.065222
315846241.0,0.0,1.54,0.0,-0.04,341.67,340.2,0.04,1.0,1668050488.165262
315946111.0,0.0,1.53,0.0,-0.05,341.67,340.18,0.04,1.0,1668050488.265132
316046217.0,0.0,1.55,0.0,-0.03,341.67,340.18,0.04,1.0,1668050488.365238
316146093.0,0.0,1.51,0.0,-0.06,341.67,340.19,0.04,1.0,1668050488.4651139
316246312.0,0.0,1.54,0.0,-0.06,341.67,340.14,0.04,1.0,1668050488.565333
316346217.0,0.0,1.53,0.0,-0.05,341.67,340.15000000000003,0.04,1.0,1668050488.665238
316446384.0,0.0,1.54,0.0,-0.05,341.67,340.16,0.05,1.0,1668050488.765405
316546213.0,0.0,1.53,0.0,-0.04,341.67,340.14,0.05,1.0,1668050488.865234
316646370.0,0.0,1.54,0.11,-0.04,341.67,340.11,0.06,1.0,1668050488.965391
316746291.0,0.0,1.55,0.27,-0.04,341.67,340.11,0.06,1.0,1668050489.065312
316846239.0,0.0,1.55,0.51,-0.04,341.67,340.12,0.05,1.0,1668050489.16526
316946182.0,0.0,1.54,0.9400000000000001,0.0,341.67,340.07,0.05,1.0,1668050489.265203
317046208.0,0.0,1.56,1.42,0.0,341.67,340.12,0.04,1.0,1668050489.365229
317146464.0,0.0,1.54,1.93,0.0,341.67,340.08,0.04,1.0,1668050489.465485
317246188.0,0.0,1.53,2.43,0.0,341.67,340.08,0.04,1.0,1668050489.565209
317346370.0,0.0,1.53,2.95,-0.02,341.67,340.07,0.04,1.0,1668050489.665391
317446267.0,0.0,1.56,3.34,0.01,341.67,340.04,0.04,1.0,1668050489.7652879
317546205.0,0.0,1.56,3.5700000000000003,0.0,341.67,340.02,0.05,1.0,1668050489.865226
317646230.0,0.0,1.54,3.81,0.0,341.67,340.07,0.04,1.0,1668050489.965251
317746211.0,0.0,1.53,4.16,0.0,341.67,340.03000000000003,0.05,1.0,1668050490.065232
317846215.0,0.0,1.57,4.51,0.0,341.67,340.01,0.05,1.0,1668050490.165236
317946177.0,0.0,1.56,4.86,0.03,341.67,340.03000000000003,0.04,1.0,1668050490.265198
318046422.0,0.0,1.52,5.29,0.02,341.67,340.01,0.04,1.0,1668050490.365443
318146226.0,0.0,1.51,5.73,0.0,341.67,340.01,0.03,1.0,1668050490.465247
318246188.0,0.0,1.54,5.99,0.0,341.67,339.98,0.04,1.0,1668050490.565209
318346246.0,0.0,1.59,6.19,0.05,341.67,339.96,0.04,1.0,1668050490.665267
