TimeUS,Alt,Press,Temp,CRt,SMS,Offset,GndTemp,Health,timestamp
221041188.0,0.26203879714012146,101329.25,29.07,-0.11142580211162567,221041.0,0.0,24.514814376831055,1.0,1668050393.360209
221158827.0,0.3739511966705322,101327.921875,29.07,0.2985844910144806,221158.0,0.0,24.514814376831055,1.0,1668050393.477848
221258832.0,0.28660494089126587,101328.953125,29.07,0.41452980041503906,221258.0,0.0,24.514814376831055,1.0,1668050393.577853
221358824.0,0.3111710548400879,101328.671875,29.080000000000002,0.3643922805786133,221358.0,0.0,24.514814376831055,1.0,1668050393.677845
221458904.0,0.18015167117118835,101330.171875,29.080000000000002,0.17891059815883636,221458.0,0.0,24.514814376831055,1.0,1668050393.777925
221559151.0,0.21290650963783264,101329.796875,29.080000000000002,-0.18039919435977936,221559.0,0.0,24.514814376831055,1.0,1668050393.878172
221658738.0,0.19925867021083832,101329.953125,29.080000000000002,-0.38621529936790466,221658.0,0.0,24.514814376831055,1.0,1668050393.977759
221758917.0,0.3384667634963989,101328.34375,29.080000000000002,-0.27304619550704956,221758.0,0.0,24.514814376831055,1.0,1668050394.077938
221859163.0,0.2784162163734436,101329.03125,29.09,0.06141960248351097,221859.0,0.0,24.514814376831055,1.0,1668050394.178184
221959002.0,0.3248189091682434,101328.515625,29.09,0.32396310567855835,221958.0,0.0,24.514814376831055,1.0,1668050394.278023
222059052.0,0.4367313086986542,101327.203125,29.09,0.3433571457862854,222059.0,0.0,24.514814376831055,1.0,1668050394.378073
222158914.0,0.08461669087409973,101331.3046875,29.09,0.23461826145648956,222158.0,0.0,24.514814376831055,1.0,1668050394.477935
222259081.0,0.2784162163734436,101329.03125,29.09,-0.04524971917271614,222259.0,0.0,24.514814376831055,1.0,1668050394.5781019
222358866.0,0.27295708656311035,101329.125,29.1,-0.3957877457141876,222358.0,0.0,24.514814376831055,1.0,1668050394.677887
222459178.0,0.2647683620452881,101329.203125,29.1,-0.3164595365524292,222459.0,0.0,24.514814376831055,1.0,1668050394.778199
222558870.0,0.34119632840156555,101328.3125,29.1,0.08444612473249435,222558.0,0.0,24.514814376831055,1.0,1668050394.877891
222659016.0,-0.005459141451865435,101332.328125,29.1,0.16121526062488556,222659.0,0.0,24.514814376831055,1.0,1668050394.9780369
222758866.0,0.35211461782455444,101328.1796875,29.1,-0.16462723910808563,222758.0,0.0,24.514814376831055,1.0,1668050395.077887
222858760.0,0.2674979269504547,101329.1796875,29.11,-0.32670116424560547,222858.0,0.0,24.514814376831055,1.0,1668050395.177781
222959195.0,0.2674979269504547,101329.171875,29.11,0.018777186051011086,222959.0,0.0,24.514814376831055,1.0,1668050395.278216
223059071.0,0.18288123607635498,101330.140625,29.11,0.3111555874347687,223059.0,0.0,24.514814376831055,1.0,1668050395.378092
223159142.0,0.16650381684303284,101330.328125,29.11,0.04936910420656204,223159.0,0.0,24.514814376831055,1.0,1668050395.478163
223259224.0,0.11737154424190521,101330.921875,29.11,-0.32460615038871765,223259.0,0.0,24.514814376831055,1.0,1668050395.578245
223358857.0,0.18015167117118835,101330.1875,29.12,-0.3987317383289337,223358.0,0.0,24.514814376831055,1.0,1668050395.677878
223458965.0,0.2183656543493271,101329.7265625,29.12,-0.2271691858768463,223458.0,0.0,24.514814376831055,1.0,1668050395.777986
223559136.0,0.3220893442630768,101328.546875,29.12,0.08295844495296478,223559.0,0.0,24.514814376831055,1.0,1668050395.878157
223659066.0,0.34392592310905457,101328.28125,29.12,0.4034046530723572,223659.0,0.0,24.514814376831055,1.0,1668050395.978087
223758808.0,0.20198823511600494,101329.9296875,29.12,0.5149746537208557,223758.0,0.0,24.514814376831055,1.0,1668050396.077829
223859092.0,0.2183656543493271,101329.734375,29.13,0.2540682256221771,223859.0,0.0,24.514814376831055,1.0,1668050396.178113
223958855.0,0.21017694473266602,101329.828125,29.13,-0.1792180836200714,223958.0,0.0,24.514814376831055,1.0,1668050396.277876
224059095.0,0.2565796375274658,101329.296875,29.13,-0.3245070278644562,224059.0,0.0,24.514814376831055,1.0,1668050396.378116
224159088.0,0.36576247215270996,101328.0234375,29.13,-0.08274015039205551,224159.0,0.0,24.514814376831055,1.0,1668050396.478109
224259027.0,0.24839094281196594,101329.40625,29.14,0.23406194150447845,224259.0,0.0,24.514814376831055,1.0,1668050396.578048
224359021.0,0.22382479906082153,101329.6875,29.14,0.28624844551086426,224358.0,0.0,24.514814376831055,1.0,1668050396.678042
227258857.0,0.36303290724754333,101328.0625,29.19,-0.15609735250473022,227258.0,0.0,24.514814376831055,1.0,1668050399.577878
227370978.0,0.2538500726222992,101329.3359375,29.2,-0.1372646540403366,227370.0,0.0,24.514814376831055,1.0,1668050399.689999
227471015.0,0.2674979269504547,101329.15625,29.2,0.14929044246673584,227470.0,0.0,24.514814376831055,1.0,1668050399.790036
227571392.0,0.31663021445274353,101328.6015625,29.2,0.17279735207557678,227571.0,0.0,24.514814376831055,1.0,1668050399.890413
227670757.0,0.12010110914707184,101330.875,29.2,-0.011393128894269466,227670.0,0.0,24.514814376831055,1.0,1668050399.989778
227770871.0,0.21017694473266602,101329.828125,29.2,-0.19136033952236176,227770.0,0.0,24.514814376831055,1.0,1668050400.089892
227870716.0,0.18015167117118835,101330.1953125,29.21,-0.34092870354652405,227870.0,0.0,24.514814376831055,1.0,1668050400.189737
227970812.0,0.3139006197452545,101328.6171875,29.21,-0.2575860917568207,227970.0,0.0,24.514814376831055,1.0,1668050400.289833
228071067.0,0.35211461782455444,101328.1875,29.21,0.11680717021226883,228071.0,0.0,24.514814376831055,1.0,1668050400.390088
228170713.0,0.2565796375274658,101329.3125,29.21,0.43256473541259766,228170.0,0.0,24.514814376831055,1.0,1668050400.489734
228270778.0,0.25930923223495483,101329.265625,29.21,0.36886125802993774,228270.0,0.0,24.514814376831055,1.0,1668050400.589799
228370970.0,0.24020221829414368,101329.5,29.21,0.018765810877084732,228370.0,0.0,24.514814376831055,1.0,1668050400.689991
228471019.0,0.3357371985912323,101328.375,29.22,-0.18923962116241455,228470.0,0.0,24.514814376831055,1.0,1668050400.79004
228571191.0,0.22382479906082153,101329.6796875,29.22,-0.07421465963125229,228571.0,0.0,24.514814376831055,1.0,1668050400.890212
228671194.0,0.24566136300563812,101329.4375,29.22,0.0453106164932251,228671.0,0.0,24.514814376831055,1.0,1668050400.990215
228770936.0,0.16923338174819946,101330.3203125,29.23,-0.06977540254592896,228770.0,0.0,24.514814376831055,1.0,1668050401.089957
228870764.0,0.4367313086986542,101327.203125,29.22,-0.17330993711948395,228870.0,0.0,24.514814376831055,1.0,1668050401.189785
228971124.0,0.1501263827085495,101330.546875,29.23,0.01241305097937584,228971.0,0.0,24.514814376831055,1.0,1668050401.290145
229071160.0,0.3466554880142212,101328.234375,29.23,0.21133027970790863,229071.0,0.0,24.514814376831055,1.0,1668050401.390181
229171198.0,0.2647683620452881,101329.203125,29.23,0.10933136194944382,229171.0,0.0,24.514814376831055,1.0,1668050401.4902189
229270979.0,0.2893345057964325,101328.921875,29.23,-0.007251687813550234,229270.0,0.0,24.514814376831055,1.0,1668050401.59
229371090.0,0.30571192502975464,101328.7265625,29.240000000000002,0.03746065869927406,229371.0,0.0,24.514814376831055,1.0,1668050401.690111
229470659.0,0.27295708656311035,101329.09375,29.240000000000002,0.05328837409615517,229470.0,0.0,24.514814376831055,1.0,1668050401.78968
229571107.0,0.040943559259176254,101331.796875,29.240000000000002,-0.06249920278787613,229571.0,0.0,24.514814376831055,1.0,1668050401.890128
229671166.0,0.2920640707015991,101328.875,29.240000000000002,-0.3224305510520935,229671.0,0.0,24.514814376831055,1.0,1668050401.990187
229770942.0,0.1965290904045105,101329.984375,29.240000000000002,-0.43165746331214905,229770.0,0.0,24.514814376831055,1.0,1668050402.089963
229870811.0,0.15558552742004395,101330.484375,29.25,-0.1489110291004181,229870.0,0.0,24.514814376831055,1.0,1668050402.189832
229970985.0,0.19106994569301605,101330.0625,29.25,0.06172413006424904,229970.0,0.0,24.514814376831055,1.0,1668050402.290006
230071028.0,0.20471780002117157,101329.8984375,29.25,-0.047480326145887375,230071.0,0.0,24.514814376831055,1.0,1668050402.390049
233071104.0,0.25930923223495483,101329.28125,29.310000000000002,0.12555693089962006,233071.0,0.0,24.514814376831055,1.0,1668050405.390125
233184078.0,0.39032861590385437,101327.734375,29.310000000000002,0.009648305363953114,233184.0,0.0,24.514814376831055,1.0,1668050405.503099
233284312.0,0.29479363560676575,101328.859375,29.310000000000002,0.15399035811424255,233284.0,0.0,24.514814376831055,1.0,1668050405.603333
233384519.0,0.40943560004234314,101327.5234375,29.32,0.3824864327907562,233384.0,0.0,24.514814376831055,1.0,1668050405.70354
233484206.0,0.28114578127861023,101329.0078125,29.32,0.34366610646247864,233484.0,0.0,24.514814376831055,1.0,1668050405.803227
233584351.0,0.3384667634963989,101328.3359375,29.32,0.10888994485139847,233584.0,0.0,24.514814376831055,1.0,1668050405.903372
233684461.0,0.2210952341556549,101329.71875,29.32,-0.09784070402383804,233684.0,0.0,24.514814376831055,1.0,1668050406.003482
233784143.0,0.24566136300563812,101329.4140625,29.330000000000002,-0.24822033941745758,233784.0,0.0,24.514814376831055,1.0,1668050406.103164
233884159.0,0.19106994569301605,101330.0625,29.330000000000002,-0.3309604227542877,233884.0,0.0,24.514814376831055,1.0,1668050406.20318
233984361.0,0.28114578127861023,101329.015625,29.330000000000002,-0.29769381880760193,233984.0,0.0,24.514814376831055,1.0,1668050406.303382
234084395.0,0.2784162163734436,101329.0546875,29.330000000000002,-0.11941873282194138,234084.0,0.0,24.514814376831055,1.0,1668050406.403416
234184385.0,0.23747265338897705,101329.53125,29.330000000000002,0.09553498029708862,234184.0,0.0,24.514814376831055,1.0,1668050406.503406
234284283.0,0.21563608944416046,101329.765625,29.34,0.1245366707444191,234284.0,0.0,24.514814376831055,1.0,1668050406.603304
234384257.0,0.28114578127861023,101329.0,29.34,-0.02644270285964012,234384.0,0.0,24.514814376831055,1.0,1668050406.703278
234484263.0,0.2647683620452881,101329.203125,29.34,-0.07506319880485535,234484.0,0.0,24.514814376831055,1.0,1668050406.803284
234584384.0,0.3139006197452545,101328.6328125,29.34,0.061415333300828934,234584.0,0.0,24.514814376831055,1.0,1668050406.903405
234684408.0,0.22382479906082153,101329.6796875,29.34,0.15524432063102722,234684.0,0.0,24.514814376831055,1.0,1668050407.003429
234784497.0,0.25112050771713257,101329.3671875,29.35,0.06568028032779694,234784.0,0.0,24.514814376831055,1.0,1668050407.103518
234884272.0,0.35484418272972107,101328.1640625,29.35,-0.05800337716937065,234884.0,0.0,24.514814376831055,1.0,1668050407.203293
234984183.0,0.33027806878089905,101328.453125,29.35,0.02985469251871109,234984.0,0.0,24.514814376831055,1.0,1668050407.303204
235084565.0,0.3111710548400879,101328.65625,29.35,0.23969043791294098,235084.0,0.0,24.514814376831055,1.0,1668050407.403586
235184571.0,0.4421904683113098,101327.1484375,29.35,0.27295708656311035,235184.0,0.0,24.514814376831055,1.0,1668050407.503592
235284395.0,0.3603033423423767,101328.078125,29.35,0.21324771642684937,235284.0,0.0,24.514814376831055,1.0,1668050407.603416
235384591.0,0.31935977935791016,101328.5625,29.36,0.20301184058189392,235384.0,0.0,24.514814376831055,1.0,1668050407.703612
235484383.0,0.1965290904045105,101330.0,29.36,0.013647866435348988,235484.0,0.0,24.514814376831055,1.0,1668050407.803404
235584279.0,0.17742209136486053,101330.21875,29.37,-0.3829928934574127,235584.0,0.0,24.514814376831055,1.0,1668050407.9033
235684466.0,0.34392592310905457,101328.296875,29.36,-0.5766218304634094,235684.0,0.0,24.514814376831055,1.0,1668050408.0034869
238383994.0,0.2920640707015991,101328.875,29.42,0.027345571666955948,238383.0,0.0,24.514814376831055,1.0,1668050410.703015
238495913.0,0.3603033423423767,101328.0859375,29.42,-0.04282839968800545,238495.0,0.0,24.514814376831055,1.0,1668050410.814934
238596269.0,0.300252765417099,101328.78125,29.42,0.06069495156407356,238596.0,0.0,24.514814376831055,1.0,1668050410.9152899
238695997.0,0.18288123607635498,101330.15625,29.42,0.10975635051727295,238695.0,0.0,24.514814376831055,1.0,1668050411.015018
238796214.0,0.2920640707015991,101328.8984375,29.43,-0.09254980087280273,238796.0,0.0,24.514814376831055,1.0,1668050411.115235
238896053.0,0.2183656543493271,101329.734375,29.43,-0.29394733905792236,238896.0,0.0,24.514814376831055,1.0,1668050411.215074
238996030.0,0.28114578127861023,101329.0,29.43,-0.19311410188674927,238996.0,0.0,24.514814376831055,1.0,1668050411.315051
239096245.0,0.3821398913860321,101327.828125,29.43,0.03809739649295807,239096.0,0.0,24.514814376831055,1.0,1668050411.415266
239196003.0,0.24020221829414368,101329.484375,29.44,0.21259523928165436,239195.0,0.0,24.514814376831055,1.0,1668050411.515024
239296187.0,0.22382479906082153,101329.671875,29.44,0.20368105173110962,239296.0,0.0,24.514814376831055,1.0,1668050411.615208
239396017.0,0.33027806878089905,101328.453125,29.44,-0.045529987663030624,239396.0,0.0,24.514814376831055,1.0,1668050411.715038
239496377.0,0.17196296155452728,101330.296875,29.44,-0.2004527747631073,239496.0,0.0,24.514814376831055,1.0,1668050411.815398
239596077.0,0.32754847407341003,101328.4765625,29.44,-0.10817701369524002,239596.0,0.0,24.514814376831055,1.0,1668050411.915098
239696380.0,0.2975232005119324,101328.828125,29.45,0.0014337110333144665,239696.0,0.0,24.514814376831055,1.0,1668050412.015401
239796047.0,0.21017694473266602,101329.84375,29.45,0.0784907266497612,239796.0,0.0,24.514814376831055,1.0,1668050412.115068
239895968.0,0.1856108158826828,101330.125,29.45,0.03409966453909874,239895.0,0.0,24.514814376831055,1.0,1668050412.214989
239996071.0,0.35211461782455444,101328.1875,29.45,-0.15946653485298157,239996.0,0.0,24.514814376831055,1.0,1668050412.315092
240095988.0,0.30844148993492126,101328.703125,29.45,-0.10231338441371918,240095.0,0.0,24.514814376831055,1.0,1668050412.415009
240195988.0,0.3357371985912323,101328.390625,29.45,0.23802292346954346,240195.0,0.0,24.514814376831055,1.0,1668050412.515009
240296130.0,0.1856108158826828,101330.109375,29.46,0.3142940104007721,240296.0,0.0,24.514814376831055,1.0,1668050412.615151
240396102.0,0.2320135086774826,101329.5859375,29.46,-0.018894383683800697,240396.0,0.0,24.514814376831055,1.0,1668050412.715123
240496051.0,0.22382479906082153,101329.671875,29.46,-0.3291724622249603,240496.0,0.0,24.514814376831055,1.0,1668050412.815072
240595955.0,0.2565796375274658,101329.3046875,29.46,-0.29667359590530396,240595.0,0.0,24.514814376831055,1.0,1668050412.914976
240695963.0,0.21017694473266602,101329.828125,29.46,-0.06994526833295822,240695.0,0.0,24.514814376831055,1.0,1668050413.014984
240796232.0,0.14466725289821625,101330.6015625,29.47,0.00975207518786192,240796.0,0.0,24.514814376831055,1.0,1668050413.115253
240896169.0,0.1965290904045105,101329.984375,29.47,-0.12720279395580292,240896.0,0.0,24.514814376831055,1.0,1668050413.21519
240996075.0,0.19925867021083832,101329.953125,29.47,-0.2183486521244049,240996.0,0.0,24.514814376831055,1.0,1668050413.315096
241096069.0,0.32754847407341003,101328.46875,29.47,-0.060277555137872696,241096.0,0.0,24.514814376831055,1.0,1668050413.41509
241195988.0,0.2320135086774826,101329.578125,29.48,0.2239707112312317,241195.0,0.0,24.514814376831055,1.0,1668050413.515009
241296432.0,0.3139006197452545,101328.640625,29.48,0.34653395414352417,241296.0,0.0,24.514814376831055,1.0,1668050413.615453
241396035.0,0.07642798125743866,101331.3984375,29.48,0.17682626843452454,241396.0,0.0,24.514814376831055,1.0,1668050413.715056
241495992.0,0.17196296155452728,101330.296875,29.48,-0.18255285918712616,241495.0,0.0,24.514814376831055,1.0,1668050413.815013
241596116.0,0.34119632840156555,101328.3046875,29.48,-0.3925067186355591,241596.0,0.0,24.514814376831055,1.0,1668050413.915137
241695978.0,0.2920640707015991,101328.8828125,29.490000000000002,-0.09786126762628555,241695.0,0.0,24.514814376831055,1.0,1668050414.014999
241796186.0,0.30571192502975464,101328.71875,29.490000000000002,0.4093289077281952,241796.0,0.0,24.514814376831055,1.0,1668050414.115207
241895959.0,0.09826454520225525,101331.1484375,29.490000000000002,0.40676411986351013,241895.0,0.0,24.514814376831055,1.0,1668050414.21498
241996093.0,0.1392081081867218,101330.671875,29.490000000000002,-0.1279486119747162,241996.0,0.0,24.514814376831055,1.0,1668050414.315114
242096146.0,0.2893345057964325,101328.90625,29.5,-0.5186794400215149,242096.0,0.0,24.514814376831055,1.0,1668050414.415167
242196042.0,0.23474308848381042,101329.546875,29.5,-0.29683229327201843,242196.0,0.0,24.514814376831055,1.0,1668050414.515063
242296023.0,0.2320135086774826,101329.578125,29.5,0.1896159052848816,242296.0,0.0,24.514814376831055,1.0,1668050414.6150439
242396135.0,0.25930923223495483,101329.265625,29.5,0.30154183506965637,242396.0,0.0,24.514814376831055,1.0,1668050414.715156
242496021.0,0.2893345057964325,101328.9140625,29.5,0.12017235904932022,242496.0,0.0,24.514814376831055,1.0,1668050414.815042
242595966.0,0.25112050771713257,101329.375,29.5,0.073415607213974,242595.0,0.0,24.514814376831055,1.0,1668050414.914987
242696184.0,0.28114578127861023,101329.0,29.5,0.10752817243337631,242696.0,0.0,24.514814376831055,1.0,1668050415.015205
242796403.0,0.3603033423423767,101328.1015625,29.51,0.0877937451004982,242796.0,0.0,24.514814376831055,1.0,1668050415.115424
242896159.0,0.17196296155452728,101330.28125,29.51,0.09468196332454681,242896.0,0.0,24.514814376831055,1.0,1668050415.21518
242995940.0,0.18288123607635498,101330.140625,29.51,-0.0008886236464604735,242995.0,0.0,24.514814376831055,1.0,1668050415.314961
243096103.0,0.3684920370578766,101327.984375,29.51,-0.231160506606102,243096.0,0.0,24.514814376831055,1.0,1668050415.415124
243196019.0,0.22928394377231598,101329.6015625,29.52,-0.17624488472938538,243196.0,0.0,24.514814376831055,1.0,1668050415.51504
243296016.0,0.06823927164077759,101331.4921875,29.51,0.076769158244133,243296.0,0.0,24.514814376831055,1.0,1668050415.615037
243396259.0,0.17196296155452728,101330.2734375,29.52,-0.11636746674776077,243396.0,0.0,24.514814376831055,1.0,1668050415.71528
246496074.0,0.2183656543493271,101329.734375,29.580000000000002,0.09878881275653839,246496.0,0.0,24.514814376831055,1.0,1668050418.815095
246607969.0,0.2565796375274658,101329.2890625,29.59,-0.26928749680519104,246607.0,0.0,24.514814376831055,1.0,1668050418.92699
246707843.0,0.23747265338897705,101329.515625,29.59,-0.44892361760139465,246707.0,0.0,24.514814376831055,1.0,1668050419.026864
246807904.0,0.2920640707015991,101328.890625,29.59,-0.2936725318431854,246807.0,0.0,24.514814376831055,1.0,1668050419.126925
246907848.0,0.16650381684303284,101330.3515625,29.59,-0.06932540982961655,246907.0,0.0,24.514814376831055,1.0,1668050419.2268689
247007995.0,0.1856108158826828,101330.109375,29.59,-0.04862484335899353,247007.0,0.0,24.514814376831055,1.0,1668050419.3270159
247108044.0,0.25930923223495483,101329.265625,29.59,-0.18705584108829498,247108.0,0.0,24.514814376831055,1.0,1668050419.427065
247207852.0,0.25112050771713257,101329.375,29.6,-0.14081153273582458,247207.0,0.0,24.514814376831055,1.0,1668050419.5268729
247307974.0,0.302982360124588,101328.7734375,29.6,0.11357935518026352,247307.0,0.0,24.514814376831055,1.0,1668050419.626995
247407865.0,0.30844148993492126,101328.6796875,29.6,0.2780750095844269,247407.0,0.0,24.514814376831055,1.0,1668050419.726886
247507894.0,0.2183656543493271,101329.75,29.6,0.23832733929157257,247507.0,0.0,24.514814376831055,1.0,1668050419.826915
247607904.0,0.2975232005119324,101328.8125,29.61,0.07322891056537628,247607.0,0.0,24.514814376831055,1.0,1668050419.926925
247707971.0,0.31935977935791016,101328.578125,29.61,-0.05541311949491501,247707.0,0.0,24.514814376831055,1.0,1668050420.026992
247807827.0,0.22928394377231598,101329.625,29.61,-0.0034119784832000732,247807.0,0.0,24.514814376831055,1.0,1668050420.126848
247907919.0,0.24839094281196594,101329.390625,29.61,0.04179656133055687,247907.0,0.0,24.514814376831055,1.0,1668050420.22694
248007899.0,0.43400174379348755,101327.234375,29.61,-0.029854651540517807,248007.0,0.0,24.514814376831055,1.0,1668050420.32692
248107827.0,0.30844148993492126,101328.6875,29.61,0.08785807341337204,248107.0,0.0,24.514814376831055,1.0,1668050420.426848
248207878.0,0.2210952341556549,101329.71875,29.62,0.2823399603366852,248207.0,0.0,24.514814376831055,1.0,1668050420.526899
248307912.0,0.27295708656311035,101329.125,29.62,0.06909224390983582,248307.0,0.0,24.514814376831055,1.0,1668050420.626933
248407963.0,0.302982360124588,101328.7734375,29.62,-0.2789279818534851,248407.0,0.0,24.514814376831055,1.0,1668050420.726984
248507823.0,0.29479363560676575,101328.8359375,29.62,-0.20471777021884918,248507.0,0.0,24.514814376831055,1.0,1668050420.826844
248607971.0,0.31663021445274353,101328.59375,29.62,0.07421020418405533,248607.0,0.0,24.514814376831055,1.0,1668050420.926992
248707814.0,0.275686651468277,101329.078125,29.63,0.14330244064331055,248707.0,0.0,24.514814376831055,1.0,1668050421.026835
248807923.0,0.24020221829414368,101329.5,29.63,0.03070766292512417,248807.0,0.0,24.514814376831055,1.0,1668050421.126944
248907919.0,0.4039764702320099,101327.59375,29.63,-0.06738628447055817,248907.0,0.0,24.514814376831055,1.0,1668050421.22694
249007799.0,0.3684920370578766,101327.984375,29.63,0.037531573325395584,249007.0,0.0,24.514814376831055,1.0,1668050421.32682
249107962.0,0.300252765417099,101328.78125,29.63,0.26698607206344604,249107.0,0.0,24.514814376831055,1.0,1668050421.4269829
249207915.0,0.393058180809021,101327.6953125,29.64,0.25504422187805176,249207.0,0.0,24.514814376831055,1.0,1668050421.526936
249307880.0,0.3575737774372101,101328.109375,29.64,0.05459138751029968,249307.0,0.0,24.514814376831055,1.0,1668050421.626901
249407966.0,0.28114578127861023,101329.0078125,29.64,-0.006823905277997255,249407.0,0.0,24.514814376831055,1.0,1668050421.726987
249507898.0,0.3111710548400879,101328.6640625,29.64,-0.048620421439409256,249507.0,0.0,24.514814376831055,1.0,1668050421.826919
249607829.0,0.3111710548400879,101328.6640625,29.64,-0.17912806570529938,249607.0,0.0,24.514814376831055,1.0,1668050421.92685
249707964.0,0.4312721788883209,101327.265625,29.64,-0.1339195817708969,249707.0,0.0,24.514814376831055,1.0,1668050422.026985
249807869.0,0.3848694860935211,101327.8125,29.650000000000002,0.13647852838039398,249807.0,0.0,24.514814376831055,1.0,1668050422.12689
252807856.0,0.2210952341556549,101329.703125,29.71,0.000852960511110723,252807.0,0.0,24.514814376831055,1.0,1668050425.126877
252919829.0,0.28660494089126587,101328.9453125,29.71,-0.1726052314043045,252919.0,0.0,24.514814376831055,1.0,1668050425.2388499
253019872.0,0.32754847407341003,101328.46875,29.71,-0.19685690104961395,253019.0,0.0,24.514814376831055,1.0,1668050425.338893
253119877.0,0.22928394377231598,101329.6015625,29.71,-0.018030334264039993,253119.0,0.0,24.514814376831055,1.0,1668050425.438898
253219837.0,0.4995114505290985,101326.46875,29.72,0.14910754561424255,253219.0,0.0,24.514814376831055,1.0,1668050425.538858
253319834.0,0.28387534618377686,101328.984375,29.72,0.25082847476005554,253319.0,0.0,24.514814376831055,1.0,1668050425.638855
253419792.0,0.28387534618377686,101328.984375,29.72,0.28451427817344666,253419.0,0.0,24.514814376831055,1.0,1668050425.738813
253519846.0,0.29479363560676575,101328.84375,29.72,0.03326663002371788,253519.0,0.0,24.514814376831055,1.0,1668050425.838867
253619760.0,0.24839094281196594,101329.40625,29.73,-0.2797810733318329,253619.0,0.0,24.514814376831055,1.0,1668050425.938781
253719806.0,0.3357371985912323,101328.390625,29.73,-0.26357418298721313,253719.0,0.0,24.514814376831055,1.0,1668050426.038827
253819908.0,0.31935977935791016,101328.578125,29.73,-0.04691446200013161,253819.0,0.0,24.514814376831055,1.0,1668050426.138929
253919924.0,0.393058180809021,101327.703125,29.73,0.1424494832754135,253919.0,0.0,24.514814376831055,1.0,1668050426.238945
254019881.0,0.17742209136486053,101330.203125,29.73,0.20045284926891327,254019.0,0.0,24.514814376831055,1.0,1668050426.338902
254119787.0,0.3466554880142212,101328.234375,29.73,0.017059795558452606,254119.0,0.0,24.514814376831055,1.0,1668050426.438808
254219818.0,0.1037236899137497,101331.0859375,29.740000000000002,-0.2533382773399353,254219.0,0.0,24.514814376831055,1.0,1668050426.538839
254319796.0,0.21017694473266602,101329.8203125,29.740000000000002,-0.3812869191169739,254319.0,0.0,24.514814376831055,1.0,1668050426.638817
254419814.0,0.12010110914707184,101330.875,29.740000000000002,-0.40602365136146545,254419.0,0.0,24.514814376831055,1.0,1668050426.738835
254519801.0,0.3712216317653656,101327.953125,29.740000000000002,-0.2917228937149048,254519.0,0.0,24.514814376831055,1.0,1668050426.838822
254619930.0,0.26203879714012146,101329.234375,29.75,0.08274011313915253,254619.0,0.0,24.514814376831055,1.0,1668050426.938951
254719992.0,0.25930923223495483,101329.2578125,29.75,0.4222305119037628,254719.0,0.0,24.514814376831055,1.0,1668050427.039013
254819886.0,0.25112050771713257,101329.375,29.75,0.32925447821617126,254819.0,0.0,24.514814376831055,1.0,1668050427.138907
254919852.0,0.25930923223495483,101329.28125,29.75,0.004264975432306528,254919.0,0.0,24.514814376831055,1.0,1668050427.238873
255019775.0,0.2647683620452881,101329.1953125,29.76,-0.111741803586483,255019.0,0.0,24.514814376831055,1.0,1668050427.338796
255119814.0,0.23747265338897705,101329.515625,29.76,-0.03838460147380829,255119.0,0.0,24.514814376831055,1.0,1668050427.438835
255219810.0,0.300252765417099,101328.78125,29.76,0.0059709143824875355,255219.0,0.0,24.514814376831055,1.0,1668050427.538831
255319854.0,0.15831510722637177,101330.4375,29.76,-0.004264995455741882,255319.0,0.0,24.514814376831055,1.0,1668050427.638875
255419867.0,0.30571192502975464,101328.71875,29.76,-0.05373845249414444,255419.0,0.0,24.514814376831055,1.0,1668050427.738888
255519816.0,0.09007583558559418,101331.25,29.77,-0.12538965046405792,255519.0,0.0,24.514814376831055,1.0,1668050427.838837
258419970.0,0.2920640707015991,101328.8828125,29.82,0.47852787375450134,258419.0,0.0,24.514814376831055,1.0,1668050430.738991
258532065.0,0.3384667634963989,101328.3359375,29.82,0.041003406047821045,258532.0,0.0,24.514814376831055,1.0,1668050430.851086
258632087.0,0.22655436396598816,101329.65625,29.830000000000002,-0.08161161094903946,258631.0,0.0,24.514814376831055,1.0,1668050430.951108
258731839.0,0.275686651468277,101329.0703125,29.830000000000002,0.08129635453224182,258731.0,0.0,24.514814376831055,1.0,1668050431.05086
258831970.0,0.2893345057964325,101328.9140625,29.830000000000002,0.03400608152151108,258831.0,0.0,24.514814376831055,1.0,1668050431.150991
258931928.0,0.24839094281196594,101329.390625,29.830000000000002,-0.07012134045362473,258931.0,0.0,24.514814376831055,1.0,1668050431.250949
259031993.0,0.15285596251487732,101330.5,29.830000000000002,-0.05743253603577614,259031.0,0.0,24.514814376831055,1.0,1668050431.351014
259131856.0,0.3821398913860321,101327.828125,29.84,-0.12110190838575363,259131.0,0.0,24.514814376831055,1.0,1668050431.450877
259231896.0,0.3684920370578766,101328.0,29.84,-0.03582564741373062,259231.0,0.0,24.514814376831055,1.0,1668050431.550917
259331929.0,0.13647854328155518,101330.703125,29.84,0.2644270956516266,259331.0,0.0,24.514814376831055,1.0,1668050431.65095
259432013.0,0.3330076336860657,101328.40625,29.84,0.21068869531154633,259431.0,0.0,24.514814376831055,1.0,1668050431.751034
259532039.0,0.36303290724754333,101328.046875,29.85,-0.12283068150281906,259531.0,0.0,24.514814376831055,1.0,1668050431.85106
259631918.0,0.3384667634963989,101328.34375,29.84,-0.021324729546904564,259631.0,0.0,24.514814376831055,1.0,1668050431.950939
259732114.0,0.4421904683113098,101327.140625,29.85,0.3351941704750061,259732.0,0.0,24.514814376831055,1.0,1668050432.051135
259831939.0,0.33027806878089905,101328.4296875,29.85,0.3777749538421631,259831.0,0.0,24.514814376831055,1.0,1668050432.15096
259932087.0,0.39032861590385437,101327.75,29.85,0.1988525390625,259932.0,0.0,24.514814376831055,1.0,1668050432.251108
260031904.0,0.300252765417099,101328.8046875,29.86,0.011003819294273853,260031.0,0.0,24.514814376831055,1.0,1668050432.350925
260132085.0,0.3821398913860321,101327.828125,29.86,-0.12283072620630264,260131.0,0.0,24.514814376831055,1.0,1668050432.451106
260232047.0,0.21563608944416046,101329.765625,29.86,-0.1604866087436676,260232.0,0.0,24.514814376831055,1.0,1668050432.551068
260332047.0,0.2565796375274658,101329.3046875,29.86,-0.21380767226219177,260332.0,0.0,24.514814376831055,1.0,1668050432.651068
260432125.0,0.2674979269504547,101329.1640625,29.86,-0.3183281421661377,260432.0,0.0,24.514814376831055,1.0,1668050432.751146
260531843.0,0.20471780002117157,101329.90625,29.87,-0.29415351152420044,260531.0,0.0,24.514814376831055,1.0,1668050432.850864
260632039.0,0.3220893442630768,101328.53125,29.87,-0.13391956686973572,260631.0,0.0,24.514814376831055,1.0,1668050432.95106
260731923.0,0.1965290904045105,101330.0,29.87,-0.006044629029929638,260731.0,0.0,24.514814376831055,1.0,1668050433.050944
260832092.0,0.300252765417099,101328.796875,29.87,0.036963269114494324,260831.0,0.0,24.514814376831055,1.0,1668050433.151113
260931927.0,0.2320135086774826,101329.5859375,29.88,0.020561575889587402,260931.0,0.0,24.514814376831055,1.0,1668050433.250948
261032039.0,0.3384667634963989,101328.3515625,29.88,0.022214768454432487,261031.0,0.0,24.514814376831055,1.0,1668050433.35106
261131818.0,0.26203879714012146,101329.2265625,29.88,0.09382899105548859,261131.0,0.0,24.514814376831055,1.0,1668050433.450839
261232026.0,0.32754847407341003,101328.484375,29.88,0.1432996541261673,261232.0,0.0,24.514814376831055,1.0,1668050433.551047
261331995.0,0.16650381684303284,101330.328125,29.88,0.0715661570429802,261331.0,0.0,24.514814376831055,1.0,1668050433.651016
261431918.0,0.25112050771713257,101329.359375,29.88,-0.1142159029841423,261431.0,0.0,24.514814376831055,1.0,1668050433.750939
261532080.0,0.28387534618377686,101328.96875,29.89,-0.24224939942359924,261531.0,0.0,24.514814376831055,1.0,1668050433.851101
261631892.0,0.3794103264808655,101327.8515625,29.89,-0.07992823421955109,261631.0,0.0,24.514814376831055,1.0,1668050433.950913
261732146.0,0.4176243245601654,101327.4375,29.89,0.29692238569259644,261732.0,0.0,24.514814376831055,1.0,1668050434.051167
261831911.0,0.3111710548400879,101328.671875,29.89,0.5084441900253296,261831.0,0.0,24.514814376831055,1.0,1668050434.150932
261932050.0,0.20471780002117157,101329.890625,29.89,0.29494813084602356,261931.0,0.0,24.514814376831055,1.0,1668050434.251071
262031895.0,0.34392592310905457,101328.28125,29.900000000000002,-0.1765691190958023,262031.0,0.0,24.514814376831055,1.0,1668050434.350916
262132034.0,0.36576247215270996,101328.015625,29.900000000000002,-0.353146493434906,262132.0,0.0,24.514814376831055,1.0,1668050434.451055
262232090.0,0.35211461782455444,101328.1953125,29.900000000000002,-0.022163545712828636,262232.0,0.0,24.514814376831055,1.0,1668050434.551111
262331980.0,0.3575737774372101,101328.125,29.900000000000002,0.2826350927352905,262331.0,0.0,24.514814376831055,1.0,1668050434.651001
262432107.0,0.2183656543493271,101329.75,29.91,0.17484770715236664,262432.0,0.0,24.514814376831055,1.0,1668050434.751128
262532013.0,0.25112050771713257,101329.3515625,29.91,-0.15491721034049988,262531.0,0.0,24.514814376831055,1.0,1668050434.851034
262631987.0,0.13101939857006073,101330.75,29.91,-0.4191776514053345,262631.0,0.0,24.514814376831055,1.0,1668050434.951008
262731950.0,0.18834038078784943,101330.09375,29.91,-0.4989319145679474,262731.0,0.0,24.514814376831055,1.0,1668050435.050971
262831925.0,0.23474308848381042,101329.5625,29.91,-0.3854459226131439,262831.0,0.0,24.514814376831055,1.0,1668050435.150946
262931897.0,0.3111710548400879,101328.65625,29.91,-0.09207169711589813,262931.0,0.0,24.514814376831055,1.0,1668050435.250918
263032175.0,0.35484418272972107,101328.1484375,29.91,0.2797810137271881,263032.0,0.0,24.514814376831055,1.0,1668050435.351196
263132044.0,0.300252765417099,101328.796875,29.92,0.4863600432872772,263131.0,0.0,24.514814376831055,1.0,1668050435.451065
263231975.0,0.27022749185562134,101329.140625,29.92,0.3701173663139343,263231.0,0.0,24.514814376831055,1.0,1668050435.550996
263332053.0,0.30571192502975464,101328.734375,29.92,0.0639132559299469,263332.0,0.0,24.514814376831055,1.0,1668050435.651074
263431977.0,0.2784162163734436,101329.046875,29.92,-0.12603701651096344,263431.0,0.0,24.514814376831055,1.0,1668050435.750998
263531953.0,0.24839094281196594,101329.3828125,29.93,-0.10690567642450333,263531.0,0.0,24.514814376831055,1.0,1668050435.850974
263631945.0,0.25112050771713257,101329.34375,29.93,-0.08450015634298325,263631.0,0.0,24.514814376831055,1.0,1668050435.950966
263732113.0,0.2210952341556549,101329.71875,29.93,-0.1386345475912094,263731.0,0.0,24.514814376831055,1.0,1668050436.0511339
263831953.0,0.4776748716831207,101326.71875,29.93,-0.0838581994175911,263831.0,0.0,24.514814376831055,1.0,1668050436.150974
263932120.0,0.3712216317653656,101327.953125,29.93,0.2268955558538437,263932.0,0.0,24.514814376831055,1.0,1668050436.251141
264032053.0,0.2320135086774826,101329.5703125,29.94,0.4926699995994568,264032.0,0.0,24.514814376831055,1.0,1668050436.351074
264131887.0,0.25112050771713257,101329.3671875,29.94,0.21043427288532257,264131.0,0.0,24.514814376831055,1.0,1668050436.450908
264232138.0,0.25112050771713257,101329.3671875,29.94,-0.34440457820892334,264231.0,0.0,24.514814376831055,1.0,1668050436.551159
264331910.0,0.3248189091682434,101328.4921875,29.94,-0.4393802881240845,264331.0,0.0,24.514814376831055,1.0,1668050436.650931
264432162.0,0.4503791630268097,101327.046875,29.94,-0.03665978088974953,264432.0,0.0,24.514814376831055,1.0,1668050436.751183
264532008.0,0.1746925264596939,101330.234375,29.94,0.32659295201301575,264531.0,0.0,24.514814376831055,1.0,1668050436.851029
264632075.0,0.20471780002117157,101329.890625,29.95,0.20572780072689056,264632.0,0.0,24.514814376831055,1.0,1668050436.951096
264731970.0,0.28387534618377686,101328.96875,29.95,-0.2821953296661377,264731.0,0.0,24.514814376831055,1.0,1668050437.050991
264832019.0,0.21017694473266602,101329.828125,29.95,-0.4478202164173126,264831.0,0.0,24.514814376831055,1.0,1668050437.15104
264931974.0,0.24839094281196594,101329.3828125,29.95,-0.15429086983203888,264931.0,0.0,24.514814376831055,1.0,1668050437.250995
265031969.0,0.18834038078784943,101330.09375,29.96,0.01867198385298252,265031.0,0.0,24.514814376831055,1.0,1668050437.35099
265132172.0,0.23474308848381042,101329.546875,29.96,-0.05723288282752037,265132.0,0.0,24.514814376831055,1.0,1668050437.451193
265231955.0,0.15831510722637177,101330.4375,29.96,-0.10990684479475021,265231.0,0.0,24.514814376831055,1.0,1668050437.550976
265332069.0,0.48313403129577637,101326.65625,29.96,-0.02388124354183674,265332.0,0.0,24.514814376831055,1.0,1668050437.65109
265431973.0,0.24020221829414368,101329.484375,29.97,0.2551655173301697,265431.0,0.0,24.514814376831055,1.0,1668050437.750994
265532014.0,0.2565796375274658,101329.296875,29.97,0.4554970860481262,265531.0,0.0,24.514814376831055,1.0,1668050437.8510349
265631960.0,0.44492003321647644,101327.09375,29.97,0.23549385368824005,265631.0,0.0,24.514814376831055,1.0,1668050437.950981
265732019.0,0.275686651468277,101329.078125,29.97,0.01528094056993723,265732.0,0.0,24.514814376831055,1.0,1668050438.05104
265832100.0,0.23747265338897705,101329.53125,29.97,0.08525796979665756,265832.0,0.0,24.514814376831055,1.0,1668050438.151121
265931856.0,0.2920640707015991,101328.875,29.97,-0.03350631520152092,265931.0,0.0,24.514814376831055,1.0,1668050438.250877
266032119.0,0.21290650963783264,101329.796875,29.98,-0.2866840958595276,266032.0,0.0,24.514814376831055,1.0,1668050438.35114
266131974.0,0.3330076336860657,101328.4140625,29.98,-0.2396916300058365,266131.0,0.0,24.514814376831055,1.0,1668050438.450995
266232086.0,0.2565796375274658,101329.2890625,29.98,-0.025410162284970284,266231.0,0.0,24.514814376831055,1.0,1668050438.551107
266331871.0,0.35484418272972107,101328.1640625,29.98,0.11269593238830566,266331.0,0.0,24.514814376831055,1.0,1668050438.650892
266431972.0,0.33027806878089905,101328.453125,29.98,0.17610742151737213,266431.0,0.0,24.514814376831055,1.0,1668050438.750993
266532031.0,0.3493850529193878,101328.2109375,29.990000000000002,0.1991145759820938,266531.0,0.0,24.514814376831055,1.0,1668050438.851052
266632061.0,0.275686651468277,101329.0859375,29.990000000000002,0.1552443653345108,266632.0,0.0,24.514814376831055,1.0,1668050438.951082
266732197.0,0.28387534618377686,101328.96875,29.990000000000002,-3.397690306883305e-05,266732.0,0.0,24.514814376831055,1.0,1668050439.051218
266831873.0,0.36303290724754333,101328.046875,29.990000000000002,-0.14009790122509003,266831.0,0.0,24.514814376831055,1.0,1668050439.150894
266932014.0,0.12556025385856628,101330.828125,30.0,-0.13255734741687775,266931.0,0.0,24.514814376831055,1.0,1668050439.251035
267031896.0,0.302982360124588,101328.7734375,30.0,-0.1511465609073639,267031.0,0.0,24.514814376831055,1.0,1668050439.350917
267132129.0,0.4776748716831207,101326.734375,30.0,-0.1743813455104828,267132.0,0.0,24.514814376831055,1.0,1668050439.45115
267231942.0,0.27022749185562134,101329.140625,30.0,0.1467115879058838,267231.0,0.0,24.514814376831055,1.0,1668050439.550963
267332034.0,0.23474308848381042,101329.5625,30.01,0.41605567932128906,267331.0,0.0,24.514814376831055,1.0,1668050439.651055
267431927.0,0.2565796375274658,101329.296875,30.01,0.05203241854906082,267431.0,0.0,24.514814376831055,1.0,1668050439.750948
267532110.0,0.43400174379348755,101327.2265625,30.01,-0.3432641923427582,267532.0,0.0,24.514814376831055,1.0,1668050439.851131
267632144.0,0.3357371985912323,101328.390625,30.01,-0.0656973198056221,267632.0,0.0,24.514814376831055,1.0,1668050439.951165
267731912.0,0.28387534618377686,101328.984375,30.01,0.33081215620040894,267731.0,0.0,24.514814376831055,1.0,1668050440.050933
267832168.0,0.27295708656311035,101329.09375,30.01,0.18533524870872498,267832.0,0.0,24.514814376831055,1.0,1668050440.151189
267931946.0,0.3330076336860657,101328.421875,30.01,-0.18462282419204712,267931.0,0.0,24.514814376831055,1.0,1668050440.250967
268032082.0,0.1501263827085495,101330.53125,30.02,-0.25786423683166504,268032.0,0.0,24.514814376831055,1.0,1668050440.351103
268131936.0,0.29479363560676575,101328.84375,30.02,-0.19881948828697205,268131.0,0.0,24.514814376831055,1.0,1668050440.450957
268232041.0,0.11737154424190521,101330.9296875,30.02,-0.24651436507701874,268232.0,0.0,24.514814376831055,1.0,1668050440.5510619
268331896.0,0.31663021445274353,101328.609375,30.02,-0.24395538866519928,268331.0,0.0,24.514814376831055,1.0,1668050440.650917
268432029.0,0.2210952341556549,101329.71875,30.02,-0.08785802870988846,268432.0,0.0,24.514814376831055,1.0,1668050440.75105
268531981.0,0.3139006197452545,101328.6328125,30.03,0.11685977876186371,268531.0,0.0,24.514814376831055,1.0,1668050440.851002
268632016.0,0.275686651468277,101329.0625,30.03,0.225255087018013,268631.0,0.0,24.514814376831055,1.0,1668050440.951037
268731937.0,0.2210952341556549,101329.703125,30.03,0.1710941195487976,268731.0,0.0,24.514814376831055,1.0,1668050441.050958
268832027.0,0.3248189091682434,101328.5,30.03,0.031136304140090942,268832.0,0.0,24.514814376831055,1.0,1668050441.151048
268932060.0,0.43400174379348755,101327.2265625,30.04,0.02132479101419449,268931.0,0.0,24.514814376831055,1.0,1668050441.251081
269031933.0,0.2647683620452881,101329.203125,30.04,0.2401842623949051,269031.0,0.0,24.514814376831055,1.0,1668050441.350954
269132125.0,0.3848694860935211,101327.8125,30.04,0.3411594033241272,269132.0,0.0,24.514814376831055,1.0,1668050441.451146
269231949.0,0.23474308848381042,101329.5546875,30.04,0.09711195528507233,269231.0,0.0,24.514814376831055,1.0,1668050441.55097
269332037.0,0.275686651468277,101329.0703125,30.04,-0.17220436036586761,269331.0,0.0,24.514814376831055,1.0,1668050441.651058
269432030.0,0.39032861590385437,101327.734375,30.04,-0.22430239617824554,269431.0,0.0,24.514814376831055,1.0,1668050441.751051
269531927.0,0.45856788754463196,101326.9375,30.04,-0.006828210782259703,269531.0,0.0,24.514814376831055,1.0,1668050441.850948
269632132.0,0.275686651468277,101329.078125,30.05,0.3388625681400299,269632.0,0.0,24.514814376831055,1.0,1668050441.951153
269731923.0,0.4640270173549652,101326.8984375,30.05,0.3615817725658417,269731.0,0.0,24.514814376831055,1.0,1668050442.050944
269832147.0,0.22928394377231598,101329.625,30.05,0.05548543110489845,269832.0,0.0,24.514814376831055,1.0,1668050442.1511679
269931911.0,0.30571192502975464,101328.734375,30.060000000000002,-0.18289102613925934,269931.0,0.0,24.514814376831055,1.0,1668050442.250932
270031955.0,0.20471780002117157,101329.890625,30.060000000000002,-0.3215775787830353,270031.0,0.0,24.514814376831055,1.0,1668050442.350976
270131907.0,0.1965290904045105,101329.984375,30.060000000000002,-0.41818782687187195,270131.0,0.0,24.514814376831055,1.0,1668050442.450928
270231991.0,0.3794103264808655,101327.859375,30.060000000000002,-0.34048211574554443,270231.0,0.0,24.514814376831055,1.0,1668050442.551012
270331913.0,0.13647854328155518,101330.703125,30.07,-0.08482877910137177,270331.0,0.0,24.514814376831055,1.0,1668050442.650934
270431955.0,0.3848694860935211,101327.796875,30.07,0.11011697351932526,270431.0,0.0,24.514814376831055,1.0,1668050442.750976
270532136.0,0.3684920370578766,101328.0,30.07,0.15094676613807678,270532.0,0.0,24.514814376831055,1.0,1668050442.851157
270631883.0,0.2429317981004715,101329.453125,30.07,0.2348894476890564,270631.0,0.0,24.514814376831055,1.0,1668050442.950904
270732059.0,0.3575737774372101,101328.125,30.07,0.2403620481491089,270732.0,0.0,24.514814376831055,1.0,1668050443.05108
270831933.0,0.19379952549934387,101330.03125,30.080000000000002,-0.004101177211850882,270831.0,0.0,24.514814376831055,1.0,1668050443.150954
270932022.0,0.11737154424190521,101330.90625,30.080000000000002,-0.2618582248687744,270932.0,0.0,24.514814376831055,1.0,1668050443.251043
271031951.0,0.2647683620452881,101329.203125,30.080000000000002,-0.42820143699645996,271031.0,0.0,24.514814376831055,1.0,1668050443.350972
271132057.0,0.09553497284650803,101331.171875,30.080000000000002,-0.4333193600177765,271132.0,0.0,24.514814376831055,1.0,1668050443.451078
271232014.0,0.22928394377231598,101329.6171875,30.080000000000002,-0.22092464566230774,271231.0,0.0,24.514814376831055,1.0,1668050443.551035
271331934.0,0.3575737774372101,101328.1171875,30.080000000000002,0.010235878638923168,271331.0,0.0,24.514814376831055,1.0,1668050443.650955
271432102.0,0.2647683620452881,101329.203125,30.080000000000002,0.26770177483558655,271432.0,0.0,24.514814376831055,1.0,1668050443.751123
271531941.0,0.34392592310905457,101328.2890625,30.09,0.4824095368385315,271531.0,0.0,24.514814376831055,1.0,1668050443.850962
271631854.0,0.29479363560676575,101328.8359375,30.09,0.37581828236579895,271631.0,0.0,24.514814376831055,1.0,1668050443.950875
271731899.0,0.28660494089126587,101328.9375,30.09,0.12037138640880585,271731.0,0.0,24.514814376831055,1.0,1668050444.05092
271831986.0,0.2429317981004715,101329.46875,30.09,-0.03729584440588951,271831.0,0.0,24.514814376831055,1.0,1668050444.151007
271931930.0,0.22655436396598816,101329.6328125,30.1,-0.15787172317504883,271931.0,0.0,24.514814376831055,1.0,1668050444.250951
272032051.0,0.21290650963783264,101329.8125,30.1,-0.24395538866519928,272032.0,0.0,24.514814376831055,1.0,1668050444.351072
272132091.0,0.25112050771713257,101329.3515625,30.1,-0.22488611936569214,272132.0,0.0,24.514814376831055,1.0,1668050444.451112
272231944.0,0.26203879714012146,101329.234375,30.1,-0.10116193443536758,272231.0,0.0,24.514814376831055,1.0,1668050444.550965
272331940.0,0.25930923223495483,101329.28125,30.11,0.05354746803641319,272331.0,0.0,24.514814376831055,1.0,1668050444.650961
272431946.0,0.2647683620452881,101329.1953125,30.11,0.1249224841594696,272431.0,0.0,24.514814376831055,1.0,1668050444.750967
272532043.0,0.275686651468277,101329.078125,30.11,0.09320281445980072,272531.0,0.0,24.514814376831055,1.0,1668050444.851064
272631936.0,0.20198823511600494,101329.921875,30.11,0.03163193166255951,272631.0,0.0,24.514814376831055,1.0,1668050444.950957
272731982.0,0.300252765417099,101328.796875,30.11,-0.03409402444958687,272731.0,0.0,24.514814376831055,1.0,1668050445.051003
272832059.0,0.3739511966705322,101327.9296875,30.12,-0.012000098824501038,272832.0,0.0,24.514814376831055,1.0,1668050445.15108
272932047.0,0.39851734042167664,101327.640625,30.11,0.2179528921842575,272932.0,0.0,24.514814376831055,1.0,1668050445.2510679
273032147.0,0.24839094281196594,101329.40625,30.12,0.4154013991355896,273032.0,0.0,24.514814376831055,1.0,1668050445.351168
273131941.0,0.34119632840156555,101328.3046875,30.12,0.2311050295829773,273131.0,0.0,24.514814376831055,1.0,1668050445.450962
273232078.0,0.393058180809021,101327.71875,30.12,-0.08529908955097198,273231.0,0.0,24.514814376831055,1.0,1668050445.551099
273331869.0,0.22655436396598816,101329.65625,30.12,-0.08910131454467773,273331.0,0.0,24.514814376831055,1.0,1668050445.6508899
274132775.0,0.3139006197452545,101328.640625,30.14,-0.12633632123470306,274132.0,0.0,24.514814376831055,1.0,1668050446.451796
274231939.0,0.2429317981004715,101329.453125,30.14,-0.11037618666887283,274231.0,0.0,24.514814376831055,1.0,1668050446.55096
274331946.0,0.4039764702320099,101327.578125,30.14,0.2463955283164978,274331.0,0.0,24.514814376831055,1.0,1668050446.650967
274431951.0,0.3684920370578766,101327.984375,30.150000000000002,0.4299073815345764,274431.0,0.0,24.514814376831055,1.0,1668050446.750972
274531949.0,0.24020221829414368,101329.4765625,30.150000000000002,0.37261128425598145,274531.0,0.0,24.514814376831055,1.0,1668050446.85097
274631908.0,0.41216516494750977,101327.484375,30.150000000000002,0.16269035637378693,274631.0,0.0,24.514814376831055,1.0,1668050446.950929
274732079.0,0.30844148993492126,101328.6953125,30.150000000000002,-0.046061526983976364,274732.0,0.0,24.514814376831055,1.0,1668050447.0511
274831900.0,0.2784162163734436,101329.0390625,30.150000000000002,-0.039792779833078384,274831.0,0.0,24.514814376831055,1.0,1668050447.1509209
274932008.0,0.2784162163734436,101329.03125,30.16,-0.045738961547613144,274931.0,0.0,24.514814376831055,1.0,1668050447.251029
275031992.0,0.302982360124588,101328.7734375,30.16,-0.18168701231479645,275031.0,0.0,24.514814376831055,1.0,1668050447.351013
275131919.0,0.31935977935791016,101328.5703125,30.16,-0.15889200568199158,275131.0,0.0,24.514814376831055,1.0,1668050447.45094
275232061.0,0.38759905099868774,101327.765625,30.16,0.044402528554201126,275232.0,0.0,24.514814376831055,1.0,1668050447.551082
275331930.0,0.31935977935791016,101328.5625,30.17,0.2035301923751831,275331.0,0.0,24.514814376831055,1.0,1668050447.650951
275432087.0,0.300252765417099,101328.78125,30.17,0.1895478218793869,275432.0,0.0,24.514814376831055,1.0,1668050447.751108
275531889.0,0.2320135086774826,101329.578125,30.17,-0.017904330044984818,275531.0,0.0,24.514814376831055,1.0,1668050447.85091
275632009.0,0.4067060351371765,101327.546875,30.17,-0.21324776113033295,275631.0,0.0,24.514814376831055,1.0,1668050447.95103
275732062.0,0.41216516494750977,101327.484375,30.17,-0.08353327214717865,275731.0,0.0,24.514814376831055,1.0,1668050448.051083
275831900.0,0.29479363560676575,101328.859375,30.18,0.254125714302063,275831.0,0.0,24.514814376831055,1.0,1668050448.1509209
275932055.0,0.41216516494750977,101327.4921875,30.18,0.30364763736724854,275931.0,0.0,24.514814376831055,1.0,1668050448.251076
276031899.0,0.41216516494750977,101327.484375,30.18,0.08535745739936829,276031.0,0.0,24.514814376831055,1.0,1668050448.35092
276132099.0,0.25112050771713257,101329.34375,30.18,0.01278491411358118,276132.0,0.0,24.514814376831055,1.0,1668050448.45112
276231993.0,0.42308345437049866,101327.359375,30.18,-0.012292841449379921,276231.0,0.0,24.514814376831055,1.0,1668050448.551014
276332092.0,0.31663021445274353,101328.609375,30.18,-0.11982309073209763,276332.0,0.0,24.514814376831055,1.0,1668050448.651113
276431979.0,0.34392592310905457,101328.28125,30.19,-0.0867072194814682,276431.0,0.0,24.514814376831055,1.0,1668050448.751
276532134.0,0.30844148993492126,101328.6953125,30.19,-0.015299851074814796,276532.0,0.0,24.514814376831055,1.0,1668050448.851155
276632079.0,0.27022749185562134,101329.140625,30.19,-0.09631413221359253,276632.0,0.0,24.514814376831055,1.0,1668050448.9510999
276731919.0,0.25112050771713257,101329.375,30.19,-0.20338834822177887,276731.0,0.0,24.514814376831055,1.0,1668050449.05094
276832016.0,0.24566136300563812,101329.4375,30.19,-0.25211766362190247,276831.0,0.0,24.514814376831055,1.0,1668050449.151037
276931967.0,0.3357371985912323,101328.390625,30.19,-0.2068638950586319,276931.0,0.0,24.514814376831055,1.0,1668050449.250988
277032188.0,0.4640270173549652,101326.875,30.2,0.033096831291913986,277032.0,0.0,24.514814376831055,1.0,1668050449.351209
277131906.0,0.2647683620452881,101329.1875,30.2,0.360792338848114,277131.0,0.0,24.514814376831055,1.0,1668050449.450927
277232132.0,0.3957877457141876,101327.671875,30.2,0.3957962393760681,277232.0,0.0,24.514814376831055,1.0,1668050449.551153
277332003.0,0.4503791630268097,101327.046875,30.2,0.13856951892375946,277331.0,0.0,24.514814376831055,1.0,1668050449.651024
277432097.0,0.4039764702320099,101327.578125,30.21,0.0860697478055954,277432.0,0.0,24.514814376831055,1.0,1668050449.751118
277532103.0,0.3575737774372101,101328.109375,30.21,0.22177763283252716,277531.0,0.0,24.514814376831055,1.0,1668050449.851124
277631950.0,0.4503791630268097,101327.03125,30.21,0.12452957034111023,277631.0,0.0,24.514814376831055,1.0,1668050449.950971
277731997.0,0.4285426139831543,101327.3046875,30.21,-0.025418655946850777,277731.0,0.0,24.514814376831055,1.0,1668050450.051018
277831980.0,0.42035388946533203,101327.390625,30.21,0.05326259881258011,277831.0,0.0,24.514814376831055,1.0,1668050450.151001
277932117.0,0.21563608944416046,101329.7890625,30.22,0.05805467814207077,277931.0,0.0,24.514814376831055,1.0,1668050450.251138
278031890.0,0.5158888697624207,101326.28125,30.21,-0.18930558860301971,278031.0,0.0,24.514814376831055,1.0,1668050450.350911
278132102.0,0.3493850529193878,101328.203125,30.22,-0.25333401560783386,278132.0,0.0,24.514814376831055,1.0,1668050450.451123
278231919.0,0.27295708656311035,101329.09375,30.22,-0.004871198907494545,278231.0,0.0,24.514814376831055,1.0,1668050450.55094
278332103.0,0.3739511966705322,101327.9296875,30.23,0.006665604654699564,278332.0,0.0,24.514814376831055,1.0,1668050450.651124
278431934.0,0.4285426139831543,101327.3046875,30.23,-0.17962154746055603,278431.0,0.0,24.514814376831055,1.0,1668050450.750955
278531964.0,0.36576247215270996,101328.015625,30.23,-0.023883724585175514,278531.0,0.0,24.514814376831055,1.0,1668050450.850985
278632000.0,0.36576247215270996,101328.03125,30.23,0.21671096980571747,278631.0,0.0,24.514814376831055,1.0,1668050450.951021
278731879.0,0.30571192502975464,101328.71875,30.23,0.08947692066431046,278731.0,0.0,24.514814376831055,1.0,1668050451.0509
278831940.0,0.28114578127861023,101329.0,30.23,-0.18104787170886993,278831.0,0.0,24.514814376831055,1.0,1668050451.150961
278931872.0,0.21563608944416046,101329.7734375,30.23,-0.3276310861110687,278931.0,0.0,24.514814376831055,1.0,1668050451.2508929
279031965.0,0.3493850529193878,101328.2265625,30.23,-0.3446083068847656,279031.0,0.0,24.514814376831055,1.0,1668050451.350986
279132039.0,0.22928394377231598,101329.6171875,30.240000000000002,-0.20379385352134705,279132.0,0.0,24.514814376831055,1.0,1668050451.45106
279232060.0,0.4039764702320099,101327.59375,30.240000000000002,0.023249134421348572,279232.0,0.0,24.514814376831055,1.0,1668050451.551081
279331953.0,0.22928394377231598,101329.625,30.25,0.150490403175354,279331.0,0.0,24.514814376831055,1.0,1668050451.650974
279431937.0,0.4995114505290985,101326.46875,30.25,0.17017380893230438,279431.0,0.0,24.514814376831055,1.0,1668050451.750958
279531927.0,0.3848694860935211,101327.796875,30.25,0.2405434399843216,279531.0,0.0,24.514814376831055,1.0,1668050451.850948
279631868.0,0.21290650963783264,101329.796875,30.25,0.30234333872795105,279631.0,0.0,24.514814376831055,1.0,1668050451.9508889
279731992.0,0.48040443658828735,101326.6796875,30.25,0.08227254450321198,279731.0,0.0,24.514814376831055,1.0,1668050452.051013
279831905.0,0.23474308848381042,101329.546875,30.26,-0.1868932694196701,279831.0,0.0,24.514814376831055,1.0,1668050452.1509259
279931993.0,0.393058180809021,101327.71875,30.26,-0.1305076628923416,279931.0,0.0,24.514814376831055,1.0,1668050452.251014
280031906.0,0.34119632840156555,101328.3203125,30.26,-0.005117952357977629,280031.0,0.0,24.514814376831055,1.0,1668050452.3509269
280132018.0,0.39032861590385437,101327.734375,30.26,0.025586891919374466,280132.0,0.0,24.514814376831055,1.0,1668050452.451039
280231939.0,0.36303290724754333,101328.0546875,30.26,0.10093370079994202,280231.0,0.0,24.514814376831055,1.0,1668050452.55096
280331903.0,0.3821398913860321,101327.828125,30.26,0.12541088461875916,280331.0,0.0,24.514814376831055,1.0,1668050452.650924
280432158.0,0.2429317981004715,101329.46875,30.27,0.02302650548517704,280432.0,0.0,24.514814376831055,1.0,1668050452.751179
280531882.0,0.26203879714012146,101329.234375,30.27,-0.17632707953453064,280531.0,0.0,24.514814376831055,1.0,1668050452.850903
280631925.0,0.3384667634963989,101328.34375,30.27,-0.34834152460098267,280631.0,0.0,24.514814376831055,1.0,1668050452.950946
280732113.0,0.42035388946533203,101327.375,30.27,-0.20898275077342987,280732.0,0.0,24.514814376831055,1.0,1668050453.0511339
280831949.0,0.2920640707015991,101328.890625,30.27,0.17549411952495575,280831.0,0.0,24.514814376831055,1.0,1668050453.15097
280931871.0,0.15285596251487732,101330.4921875,30.28,0.2360546886920929,280931.0,0.0,24.514814376831055,1.0,1668050453.250892
281032038.0,0.302982360124588,101328.7578125,30.28,-0.19021694362163544,281032.0,0.0,24.514814376831055,1.0,1668050453.351059
281131932.0,0.21017694473266602,101329.84375,30.28,-0.48051753640174866,281131.0,0.0,24.514814376831055,1.0,1668050453.450953
281232038.0,0.302982360124588,101328.75,30.28,-0.2574751079082489,281232.0,0.0,24.514814376831055,1.0,1668050453.551059
281332108.0,0.2920640707015991,101328.890625,30.28,0.06308729201555252,281332.0,0.0,24.514814376831055,1.0,1668050453.651129
281431932.0,0.03275484964251518,101331.9140625,30.29,0.09254205226898193,281431.0,0.0,24.514814376831055,1.0,1668050453.750953
281532136.0,0.16650381684303284,101330.328125,30.29,-0.2070610523223877,281532.0,0.0,24.514814376831055,1.0,1668050453.851157
281631910.0,0.1501263827085495,101330.53125,30.29,-0.5266547799110413,281631.0,0.0,24.514814376831055,1.0,1668050453.950931
281731981.0,0.18015167117118835,101330.171875,30.29,-0.3971196413040161,281731.0,0.0,24.514814376831055,1.0,1668050454.051002
281831886.0,0.13101939857006073,101330.75,30.29,-0.010676208883523941,281831.0,0.0,24.514814376831055,1.0,1668050454.150907
281932099.0,0.26203879714012146,101329.21875,30.29,0.1348797082901001,281932.0,0.0,24.514814376831055,1.0,1668050454.25112
282031985.0,-0.01637742482125759,101332.46875,30.3,0.07421023398637772,282031.0,0.0,24.514814376831055,1.0,1668050454.351006
282131941.0,0.09007583558559418,101331.234375,30.3,-0.10474130511283875,282131.0,0.0,24.514814376831055,1.0,1668050454.450962
282232020.0,0.09826454520225525,101331.125,30.3,-0.35910913348197937,282231.0,0.0,24.514814376831055,1.0,1668050454.551041
282331895.0,0.2074473798274994,101329.8828125,30.310000000000002,-0.30245599150657654,282331.0,0.0,24.514814376831055,1.0,1668050454.650916
282431928.0,0.1746925264596939,101330.2421875,30.310000000000002,0.12436562776565552,282431.0,0.0,24.514814376831055,1.0,1668050454.750949
282532182.0,0.2210952341556549,101329.703125,30.310000000000002,0.40943560004234314,282532.0,0.0,24.514814376831055,1.0,1668050454.851203
282631969.0,0.09826454520225525,101331.1484375,30.310000000000002,0.31861019134521484,282631.0,0.0,24.514814376831055,1.0,1668050454.95099
282731918.0,0.14739681780338287,101330.5625,30.310000000000002,0.03913148492574692,282731.0,0.0,24.514814376831055,1.0,1668050455.050939
282832121.0,0.20471780002117157,101329.90625,30.32,-0.1612706333398819,282832.0,0.0,24.514814376831055,1.0,1668050455.151142
282932010.0,0.19379952549934387,101330.0234375,30.310000000000002,-0.08255939185619354,282931.0,0.0,24.514814376831055,1.0,1668050455.251031
283031917.0,-0.01637742482125759,101332.4453125,30.32,0.07159117609262466,283031.0,0.0,24.514814376831055,1.0,1668050455.350938
283131967.0,0.07096883654594421,101331.453125,30.32,-0.11779104173183441,283131.0,0.0,24.514814376831055,1.0,1668050455.450988
283231945.0,0.03275484964251518,101331.890625,30.32,-0.4632040560245514,283231.0,0.0,24.514814376831055,1.0,1668050455.550966
283332084.0,-0.005459141451865435,101332.3125,30.330000000000002,-0.45510339736938477,283332.0,0.0,24.514814376831055,1.0,1668050455.651105
283431962.0,0.1282898187637329,101330.796875,30.330000000000002,-0.19560663402080536,283431.0,0.0,24.514814376831055,1.0,1668050455.750983
283532138.0,-0.005459141451865435,101332.3515625,30.330000000000002,-0.00015528348740190268,283532.0,0.0,24.514814376831055,1.0,1668050455.851159
283631883.0,-0.05459141358733177,101332.8828125,30.330000000000002,0.042034782469272614,283631.0,0.0,24.514814376831055,1.0,1668050455.950904
283732173.0,0.04367313161492348,101331.78125,30.330000000000002,-0.1176985427737236,283732.0,0.0,24.514814376831055,1.0,1668050456.051194
283831986.0,0.11191239953041077,101330.984375,30.330000000000002,-0.19959987699985504,283831.0,0.0,24.514814376831055,1.0,1668050456.151007
283931963.0,0.12010110914707184,101330.875,30.34,0.09560048580169678,283931.0,0.0,24.514814376831055,1.0,1668050456.250984
284031928.0,0.10918282717466354,101331.0,30.34,0.4115349054336548,284031.0,0.0,24.514814376831055,1.0,1668050456.350949
284131920.0,0.275686651468277,101329.0625,30.34,0.4127413332462311,284131.0,0.0,24.514814376831055,1.0,1668050456.450941
284232001.0,0.2565796375274658,101329.2890625,30.34,0.3837197721004486,284231.0,0.0,24.514814376831055,1.0,1668050456.551022
284331991.0,0.1746925264596939,101330.2578125,30.34,0.4649483859539032,284331.0,0.0,24.514814376831055,1.0,1668050456.651012
284432148.0,0.10918282717466354,101331.015625,30.35,0.29769518971443176,284432.0,0.0,24.514814376831055,1.0,1668050456.751169
284531899.0,0.0027295707259327173,101332.2578125,30.35,-0.19448192417621613,284531.0,0.0,24.514814376831055,1.0,1668050456.85092
284632215.0,-0.03275484964251518,101332.671875,30.35,-0.6146397590637207,284632.0,0.0,24.514814376831055,1.0,1668050456.951236
284732090.0,0.0,101332.3046875,30.35,-0.715467095375061,284732.0,0.0,24.514814376831055,1.0,1668050457.051111
284831862.0,-0.14739681780338287,101334.015625,30.36,-0.5658413171768188,284831.0,0.0,24.514814376831055,1.0,1668050457.150883
284931995.0,0.10918282717466354,101331.0,30.36,-0.3462439179420471,284931.0,0.0,24.514814376831055,1.0,1668050457.251016
285031880.0,-0.03275484964251518,101332.6484375,30.36,-0.09139120578765869,285031.0,0.0,24.514814376831055,1.0,1668050457.350901
285132076.0,-0.027295706793665886,101332.59375,30.36,0.1620725393295288,285131.0,0.0,24.514814376831055,1.0,1668050457.451097
285231917.0,-0.10918282717466354,101333.5390625,30.36,0.1209992989897728,285231.0,0.0,24.514814376831055,1.0,1668050457.550938
285331998.0,-0.04367313161492348,101332.78125,30.36,-0.17915084958076477,285331.0,0.0,24.514814376831055,1.0,1668050457.651019
285432044.0,0.03821399062871933,101331.828125,30.37,-0.25258180499076843,285432.0,0.0,24.514814376831055,1.0,1668050457.751065
285532071.0,-0.08188711851835251,101333.2578125,30.37,0.003290086053311825,285532.0,0.0,24.514814376831055,1.0,1668050457.851092
285632065.0,-0.09826454520225525,101333.453125,30.37,0.14062084257602692,285631.0,0.0,24.514814376831055,1.0,1668050457.951086
285731889.0,-0.15285596251487732,101334.03125,30.37,-0.08500201255083084,285731.0,0.0,24.514814376831055,1.0,1668050458.05091
