TimeUS,Instance,Volt,VoltR,Curr,CurrTot,EnrgTot,Temp,Res,timestamp
221040756.0,0.0,57.553672790527344,57.553672790527344,nan,nan,nan,0.0,0.0,1668050393.359777
221158448.0,0.0,57.545066833496094,57.545066833496094,nan,nan,nan,0.0,0.0,1668050393.477469
221258401.0,0.0,57.5597038269043,57.5597038269043,nan,nan,nan,0.0,0.0,1668050393.577422
221358422.0,0.0,57.574363708496094,57.574363708496094,nan,nan,nan,0.0,0.0,1668050393.677443
221458397.0,0.0,57.57564926147461,57.57564926147461,nan,nan,nan,0.0,0.0,1668050393.777418
221558757.0,0.0,57.57855224609375,57.57855224609375,nan,nan,nan,0.0,0.0,1668050393.877778
221658277.0,0.0,57.58242416381836,57.58242416381836,nan,nan,nan,0.0,0.0,1668050393.977298
221758611.0,0.0,57.58725357055664,57.58725357055664,nan,nan,nan,0.0,0.0,1668050394.077632
221858812.0,0.0,57.584354400634766,57.584354400634766,nan,nan,nan,0.0,0.0,1668050394.177833
221958661.0,0.0,57.58725357055664,57.58725357055664,nan,nan,nan,0.0,0.0,1668050394.277682
222058628.0,0.0,57.580814361572266,57.580814361572266,nan,nan,nan,0.0,0.0,1668050394.377649
222158460.0,0.0,57.58290481567383,57.58290481567383,nan,nan,nan,0.0,0.0,1668050394.477481
222258730.0,0.0,57.5858039855957,57.5858039855957,nan,nan,nan,0.0,0.0,1668050394.577751
222358453.0,0.0,57.58564758300781,57.58564758300781,nan,nan,nan,0.0,0.0,1668050394.677474
222458748.0,0.0,57.584354400634766,57.584354400634766,nan,nan,nan,0.0,0.0,1668050394.777769
222558469.0,0.0,57.5858039855957,57.5858039855957,nan,nan,nan,0.0,0.0,1668050394.87749
222658692.0,0.0,57.58725357055664,57.58725357055664,nan,nan,nan,0.0,0.0,1668050394.9777129
222758571.0,0.0,57.5858039855957,57.5858039855957,nan,nan,nan,0.0,0.0,1668050395.077592
222858245.0,0.0,57.58725357055664,57.58725357055664,nan,nan,nan,0.0,0.0,1668050395.177266
222958830.0,0.0,57.5858039855957,57.5858039855957,nan,nan,nan,0.0,0.0,1668050395.277851
223058799.0,0.0,57.58725357055664,57.58725357055664,nan,nan,nan,0.0,0.0,1668050395.37782
223158735.0,0.0,57.58290481567383,57.58290481567383,nan,nan,nan,0.0,0.0,1668050395.477756
223258797.0,0.0,57.58290481567383,57.58290481567383,nan,nan,nan,0.0,0.0,1668050395.577818
223358430.0,0.0,57.58564758300781,57.58564758300781,nan,nan,nan,0.0,0.0,1668050395.677451
223458605.0,0.0,57.581459045410156,57.581459045410156,nan,nan,nan,0.0,0.0,1668050395.777626
223558643.0,0.0,57.5858039855957,57.5858039855957,nan,nan,nan,0.0,0.0,1668050395.877664
223658613.0,0.0,57.58725357055664,57.58725357055664,nan,nan,nan,0.0,0.0,1668050395.977634
223758369.0,0.0,57.588706970214844,57.588706970214844,nan,nan,nan,0.0,0.0,1668050396.07739
223858664.0,0.0,57.58725357055664,57.58725357055664,nan,nan,nan,0.0,0.0,1668050396.177685
223958463.0,0.0,57.58725357055664,57.58725357055664,nan,nan,nan,0.0,0.0,1668050396.277484
224058684.0,0.0,57.58725357055664,57.58725357055664,nan,nan,nan,0.0,0.0,1668050396.377705
224158733.0,0.0,57.58725357055664,57.58725357055664,nan,nan,nan,0.0,0.0,1668050396.4777539
224258679.0,0.0,57.584354400634766,57.584354400634766,nan,nan,nan,0.0,0.0,1668050396.5777
224358641.0,0.0,57.58725357055664,57.58725357055664,nan,nan,nan,0.0,0.0,1668050396.677662
227258410.0,0.0,57.548583984375,57.548583984375,nan,nan,nan,0.0,0.0,1668050399.577431
227370726.0,0.0,57.55693435668945,57.55693435668945,nan,nan,nan,0.0,0.0,1668050399.689747
227470650.0,0.0,57.564048767089844,57.564048767089844,nan,nan,nan,0.0,0.0,1668050399.789671
227570985.0,0.0,57.584354400634766,57.584354400634766,nan,nan,nan,0.0,0.0,1668050399.890006
227670269.0,0.0,57.588863372802734,57.588863372802734,nan,nan,nan,0.0,0.0,1668050399.98929
227770477.0,0.0,57.59015655517578,57.59015655517578,nan,nan,nan,0.0,0.0,1668050400.089498
227870370.0,0.0,57.58725357055664,57.58725357055664,nan,nan,nan,0.0,0.0,1668050400.189391
227970485.0,0.0,57.588863372802734,57.588863372802734,nan,nan,nan,0.0,0.0,1668050400.289506
228070746.0,0.0,57.58725357055664,57.58725357055664,nan,nan,nan,0.0,0.0,1668050400.389767
228170354.0,0.0,57.58725357055664,57.58725357055664,nan,nan,nan,0.0,0.0,1668050400.4893749
228270405.0,0.0,57.58725357055664,57.58725357055664,nan,nan,nan,0.0,0.0,1668050400.589426
228370646.0,0.0,57.58725357055664,57.58725357055664,nan,nan,nan,0.0,0.0,1668050400.689667
228470732.0,0.0,57.5858039855957,57.5858039855957,nan,nan,nan,0.0,0.0,1668050400.789753
228570794.0,0.0,57.588706970214844,57.588706970214844,nan,nan,nan,0.0,0.0,1668050400.889815
228670825.0,0.0,57.59370040893555,57.59370040893555,nan,nan,nan,0.0,0.0,1668050400.989846
228770671.0,0.0,57.59160614013672,57.59160614013672,nan,nan,nan,0.0,0.0,1668050401.0896919
228870461.0,0.0,57.59305191040039,57.59305191040039,nan,nan,nan,0.0,0.0,1668050401.189482
228970746.0,0.0,57.588863372802734,57.588863372802734,nan,nan,nan,0.0,0.0,1668050401.289767
229070767.0,0.0,57.57420349121094,57.57420349121094,nan,nan,nan,0.0,0.0,1668050401.389788
229170822.0,0.0,57.56260299682617,57.56260299682617,nan,nan,nan,0.0,0.0,1668050401.489843
229270643.0,0.0,57.57130432128906,57.57130432128906,nan,nan,nan,0.0,0.0,1668050401.589664
229370693.0,0.0,57.57758712768555,57.57758712768555,nan,nan,nan,0.0,0.0,1668050401.689714
229470255.0,0.0,57.57130432128906,57.57130432128906,nan,nan,nan,0.0,0.0,1668050401.789276
229570741.0,0.0,57.57130432128906,57.57130432128906,nan,nan,nan,0.0,0.0,1668050401.889762
229670839.0,0.0,57.57275390625,57.57275390625,nan,nan,nan,0.0,0.0,1668050401.98986
229770595.0,0.0,57.588706970214844,57.588706970214844,nan,nan,nan,0.0,0.0,1668050402.089616
229870530.0,0.0,57.59450912475586,57.59450912475586,nan,nan,nan,0.0,0.0,1668050402.1895509
229970651.0,0.0,57.59370040893555,57.59370040893555,nan,nan,nan,0.0,0.0,1668050402.289672
230070722.0,0.0,57.59015655517578,57.59015655517578,nan,nan,nan,0.0,0.0,1668050402.389743
233070703.0,0.0,57.564048767089844,57.564048767089844,nan,nan,nan,0.0,0.0,1668050405.389724
233183778.0,0.0,57.56088638305664,57.56088638305664,nan,nan,nan,0.0,0.0,1668050405.502799
233283877.0,0.0,57.56114959716797,57.56114959716797,nan,nan,nan,0.0,0.0,1668050405.602898
233384095.0,0.0,57.57597732543945,57.57597732543945,nan,nan,nan,0.0,0.0,1668050405.703116
233483886.0,0.0,57.58725357055664,57.58725357055664,nan,nan,nan,0.0,0.0,1668050405.802907
233583928.0,0.0,57.5858039855957,57.5858039855957,nan,nan,nan,0.0,0.0,1668050405.902949
233684140.0,0.0,57.588706970214844,57.588706970214844,nan,nan,nan,0.0,0.0,1668050406.003161
233783809.0,0.0,57.590476989746094,57.590476989746094,nan,nan,nan,0.0,0.0,1668050406.10283
233883775.0,0.0,57.58725357055664,57.58725357055664,nan,nan,nan,0.0,0.0,1668050406.202796
233983950.0,0.0,57.59015655517578,57.59015655517578,nan,nan,nan,0.0,0.0,1668050406.302971
234083976.0,0.0,57.588863372802734,57.588863372802734,nan,nan,nan,0.0,0.0,1668050406.402997
234184044.0,0.0,57.58725357055664,57.58725357055664,nan,nan,nan,0.0,0.0,1668050406.5030649
234283881.0,0.0,57.5858039855957,57.5858039855957,nan,nan,nan,0.0,0.0,1668050406.602902
234383868.0,0.0,57.58725357055664,57.58725357055664,nan,nan,nan,0.0,0.0,1668050406.702889
234483861.0,0.0,57.5858039855957,57.5858039855957,nan,nan,nan,0.0,0.0,1668050406.802882
234584110.0,0.0,57.588706970214844,57.588706970214844,nan,nan,nan,0.0,0.0,1668050406.903131
234684053.0,0.0,57.58725357055664,57.58725357055664,nan,nan,nan,0.0,0.0,1668050407.003074
234784090.0,0.0,57.590476989746094,57.590476989746094,nan,nan,nan,0.0,0.0,1668050407.103111
234883848.0,0.0,57.5959587097168,57.5959587097168,nan,nan,nan,0.0,0.0,1668050407.202869
234983793.0,0.0,57.59015655517578,57.59015655517578,nan,nan,nan,0.0,0.0,1668050407.302814
235084051.0,0.0,57.56792068481445,57.56792068481445,nan,nan,nan,0.0,0.0,1668050407.4030719
235184056.0,0.0,57.56114959716797,57.56114959716797,nan,nan,nan,0.0,0.0,1668050407.503077
235284033.0,0.0,57.57275390625,57.57275390625,nan,nan,nan,0.0,0.0,1668050407.603054
235384194.0,0.0,57.57597732543945,57.57597732543945,nan,nan,nan,0.0,0.0,1668050407.703215
235483953.0,0.0,57.56550216674805,57.56550216674805,nan,nan,nan,0.0,0.0,1668050407.802974
235583841.0,0.0,57.566951751708984,57.566951751708984,nan,nan,nan,0.0,0.0,1668050407.902862
235684095.0,0.0,57.57275390625,57.57275390625,nan,nan,nan,0.0,0.0,1668050408.003116
238383638.0,0.0,57.564048767089844,57.564048767089844,nan,nan,nan,0.0,0.0,1668050410.702659
238495605.0,0.0,57.55825424194336,57.55825424194336,nan,nan,nan,0.0,0.0,1668050410.814626
238595853.0,0.0,57.56840133666992,57.56840133666992,nan,nan,nan,0.0,0.0,1668050410.914874
238695742.0,0.0,57.588863372802734,57.588863372802734,nan,nan,nan,0.0,0.0,1668050411.0147629
238795782.0,0.0,57.58725357055664,57.58725357055664,nan,nan,nan,0.0,0.0,1668050411.114803
238895780.0,0.0,57.5858039855957,57.5858039855957,nan,nan,nan,0.0,0.0,1668050411.214801
238995673.0,0.0,57.588863372802734,57.588863372802734,nan,nan,nan,0.0,0.0,1668050411.314694
239095794.0,0.0,57.58725357055664,57.58725357055664,nan,nan,nan,0.0,0.0,1668050411.414815
239195661.0,0.0,57.58725357055664,57.58725357055664,nan,nan,nan,0.0,0.0,1668050411.514682
239295836.0,0.0,57.584354400634766,57.584354400634766,nan,nan,nan,0.0,0.0,1668050411.614857
239395693.0,0.0,57.58725357055664,57.58725357055664,nan,nan,nan,0.0,0.0,1668050411.714714
239495868.0,0.0,57.58725357055664,57.58725357055664,nan,nan,nan,0.0,0.0,1668050411.814889
239595798.0,0.0,57.588706970214844,57.588706970214844,nan,nan,nan,0.0,0.0,1668050411.914819
239695896.0,0.0,57.590476989746094,57.590476989746094,nan,nan,nan,0.0,0.0,1668050412.014917
239795720.0,0.0,57.59015655517578,57.59015655517578,nan,nan,nan,0.0,0.0,1668050412.114741
239895663.0,0.0,57.59160614013672,57.59160614013672,nan,nan,nan,0.0,0.0,1668050412.214684
239995762.0,0.0,57.59208679199219,57.59208679199219,nan,nan,nan,0.0,0.0,1668050412.314783
240095683.0,0.0,57.588706970214844,57.588706970214844,nan,nan,nan,0.0,0.0,1668050412.414704
240195664.0,0.0,57.58725357055664,57.58725357055664,nan,nan,nan,0.0,0.0,1668050412.514685
240295734.0,0.0,57.5858039855957,57.5858039855957,nan,nan,nan,0.0,0.0,1668050412.614755
240395754.0,0.0,57.588863372802734,57.588863372802734,nan,nan,nan,0.0,0.0,1668050412.714775
240495770.0,0.0,57.5858039855957,57.5858039855957,nan,nan,nan,0.0,0.0,1668050412.814791
240595651.0,0.0,57.59160614013672,57.59160614013672,nan,nan,nan,0.0,0.0,1668050412.914672
240695703.0,0.0,57.590476989746094,57.590476989746094,nan,nan,nan,0.0,0.0,1668050413.014724
240795884.0,0.0,57.59160614013672,57.59160614013672,nan,nan,nan,0.0,0.0,1668050413.1149049
240895795.0,0.0,57.59450912475586,57.59450912475586,nan,nan,nan,0.0,0.0,1668050413.214816
240995755.0,0.0,57.59015655517578,57.59015655517578,nan,nan,nan,0.0,0.0,1668050413.314776
241095783.0,0.0,57.56792068481445,57.56792068481445,nan,nan,nan,0.0,0.0,1668050413.414804
241195670.0,0.0,57.5597038269043,57.5597038269043,nan,nan,nan,0.0,0.0,1668050413.5146909
241296072.0,0.0,57.57420349121094,57.57420349121094,nan,nan,nan,0.0,0.0,1668050413.615093
241395768.0,0.0,57.57758712768555,57.57758712768555,nan,nan,nan,0.0,0.0,1668050413.714789
241495673.0,0.0,57.566951751708984,57.566951751708984,nan,nan,nan,0.0,0.0,1668050413.814694
241595853.0,0.0,57.569854736328125,57.569854736328125,nan,nan,nan,0.0,0.0,1668050413.914874
241695661.0,0.0,57.56953048706055,57.56953048706055,nan,nan,nan,0.0,0.0,1668050414.014682
241795820.0,0.0,57.59305191040039,57.59305191040039,nan,nan,nan,0.0,0.0,1668050414.114841
241895643.0,0.0,57.588706970214844,57.588706970214844,nan,nan,nan,0.0,0.0,1668050414.214664
241995765.0,0.0,57.59160614013672,57.59160614013672,nan,nan,nan,0.0,0.0,1668050414.314786
242095752.0,0.0,57.588863372802734,57.588863372802734,nan,nan,nan,0.0,0.0,1668050414.414773
242195738.0,0.0,57.584354400634766,57.584354400634766,nan,nan,nan,0.0,0.0,1668050414.514759
242295744.0,0.0,57.588706970214844,57.588706970214844,nan,nan,nan,0.0,0.0,1668050414.614765
242395753.0,0.0,57.59208679199219,57.59208679199219,nan,nan,nan,0.0,0.0,1668050414.714774
242495720.0,0.0,57.5858039855957,57.5858039855957,nan,nan,nan,0.0,0.0,1668050414.814741
242595633.0,0.0,57.5858039855957,57.5858039855957,nan,nan,nan,0.0,0.0,1668050414.914654
242695758.0,0.0,57.59160614013672,57.59160614013672,nan,nan,nan,0.0,0.0,1668050415.014779
242796114.0,0.0,57.598533630371094,57.598533630371094,nan,nan,nan,0.0,0.0,1668050415.115135
242895773.0,0.0,57.59450912475586,57.59450912475586,nan,nan,nan,0.0,0.0,1668050415.214794
242995703.0,0.0,57.59450912475586,57.59450912475586,nan,nan,nan,0.0,0.0,1668050415.314724
243095758.0,0.0,57.58725357055664,57.58725357055664,nan,nan,nan,0.0,0.0,1668050415.414779
243195745.0,0.0,57.58725357055664,57.58725357055664,nan,nan,nan,0.0,0.0,1668050415.514766
243295699.0,0.0,57.59305191040039,57.59305191040039,nan,nan,nan,0.0,0.0,1668050415.6147199
243395812.0,0.0,57.59450912475586,57.59450912475586,nan,nan,nan,0.0,0.0,1668050415.714833
246495795.0,0.0,57.56792068481445,57.56792068481445,nan,nan,nan,0.0,0.0,1668050418.814816
246607622.0,0.0,57.56352233886719,57.56352233886719,nan,nan,nan,0.0,0.0,1668050418.926643
246707432.0,0.0,57.569854736328125,57.569854736328125,nan,nan,nan,0.0,0.0,1668050419.026453
246807652.0,0.0,57.588706970214844,57.588706970214844,nan,nan,nan,0.0,0.0,1668050419.126673
246907482.0,0.0,57.588863372802734,57.588863372802734,nan,nan,nan,0.0,0.0,1668050419.226503
247007652.0,0.0,57.59015655517578,57.59015655517578,nan,nan,nan,0.0,0.0,1668050419.326673
247107784.0,0.0,57.58725357055664,57.58725357055664,nan,nan,nan,0.0,0.0,1668050419.426805
247207482.0,0.0,57.588863372802734,57.588863372802734,nan,nan,nan,0.0,0.0,1668050419.526503
247307700.0,0.0,57.58725357055664,57.58725357055664,nan,nan,nan,0.0,0.0,1668050419.626721
247407478.0,0.0,57.58725357055664,57.58725357055664,nan,nan,nan,0.0,0.0,1668050419.726499
247507624.0,0.0,57.58725357055664,57.58725357055664,nan,nan,nan,0.0,0.0,1668050419.826645
247607629.0,0.0,57.588706970214844,57.588706970214844,nan,nan,nan,0.0,0.0,1668050419.92665
247707682.0,0.0,57.59015655517578,57.59015655517578,nan,nan,nan,0.0,0.0,1668050420.026703
247807526.0,0.0,57.588863372802734,57.588863372802734,nan,nan,nan,0.0,0.0,1668050420.126547
247907614.0,0.0,57.59015655517578,57.59015655517578,nan,nan,nan,0.0,0.0,1668050420.226635
248007620.0,0.0,57.58725357055664,57.58725357055664,nan,nan,nan,0.0,0.0,1668050420.326641
248107441.0,0.0,57.58725357055664,57.58725357055664,nan,nan,nan,0.0,0.0,1668050420.426462
248207620.0,0.0,57.58725357055664,57.58725357055664,nan,nan,nan,0.0,0.0,1668050420.526641
248307648.0,0.0,57.5858039855957,57.5858039855957,nan,nan,nan,0.0,0.0,1668050420.626669
248407658.0,0.0,57.58725357055664,57.58725357055664,nan,nan,nan,0.0,0.0,1668050420.726679
248507448.0,0.0,57.588863372802734,57.588863372802734,nan,nan,nan,0.0,0.0,1668050420.826469
248607615.0,0.0,57.59160614013672,57.59160614013672,nan,nan,nan,0.0,0.0,1668050420.926636
248707434.0,0.0,57.588706970214844,57.588706970214844,nan,nan,nan,0.0,0.0,1668050421.026455
248807595.0,0.0,57.595314025878906,57.595314025878906,nan,nan,nan,0.0,0.0,1668050421.126616
248907506.0,0.0,57.59160614013672,57.59160614013672,nan,nan,nan,0.0,0.0,1668050421.226527
249007465.0,0.0,57.58725357055664,57.58725357055664,nan,nan,nan,0.0,0.0,1668050421.3264859
249107620.0,0.0,57.58725357055664,57.58725357055664,nan,nan,nan,0.0,0.0,1668050421.426641
249207647.0,0.0,57.5858039855957,57.5858039855957,nan,nan,nan,0.0,0.0,1668050421.526668
249307618.0,0.0,57.58725357055664,57.58725357055664,nan,nan,nan,0.0,0.0,1668050421.626639
249407537.0,0.0,57.58725357055664,57.58725357055664,nan,nan,nan,0.0,0.0,1668050421.726558
249507642.0,0.0,57.58725357055664,57.58725357055664,nan,nan,nan,0.0,0.0,1668050421.826663
249607445.0,0.0,57.5858039855957,57.5858039855957,nan,nan,nan,0.0,0.0,1668050421.926466
249707598.0,0.0,57.58725357055664,57.58725357055664,nan,nan,nan,0.0,0.0,1668050422.026619
249807610.0,0.0,57.588863372802734,57.588863372802734,nan,nan,nan,0.0,0.0,1668050422.126631
252807511.0,0.0,57.56840133666992,57.56840133666992,nan,nan,nan,0.0,0.0,1668050425.126532
252919407.0,0.0,57.56220626831055,57.56220626831055,nan,nan,nan,0.0,0.0,1668050425.2384279
253019604.0,0.0,57.56840133666992,57.56840133666992,nan,nan,nan,0.0,0.0,1668050425.338625
253119551.0,0.0,57.56953048706055,57.56953048706055,nan,nan,nan,0.0,0.0,1668050425.438572
253219418.0,0.0,57.5858039855957,57.5858039855957,nan,nan,nan,0.0,0.0,1668050425.538439
253319571.0,0.0,57.581459045410156,57.581459045410156,nan,nan,nan,0.0,0.0,1668050425.638592
253419384.0,0.0,57.58403015136719,57.58403015136719,nan,nan,nan,0.0,0.0,1668050425.738405
253519468.0,0.0,57.584354400634766,57.584354400634766,nan,nan,nan,0.0,0.0,1668050425.838489
253619387.0,0.0,57.588706970214844,57.588706970214844,nan,nan,nan,0.0,0.0,1668050425.938408
253719562.0,0.0,57.58725357055664,57.58725357055664,nan,nan,nan,0.0,0.0,1668050426.038583
253819567.0,0.0,57.58725357055664,57.58725357055664,nan,nan,nan,0.0,0.0,1668050426.138588
253919620.0,0.0,57.59015655517578,57.59015655517578,nan,nan,nan,0.0,0.0,1668050426.238641
254019510.0,0.0,57.58725357055664,57.58725357055664,nan,nan,nan,0.0,0.0,1668050426.338531
254119428.0,0.0,57.58725357055664,57.58725357055664,nan,nan,nan,0.0,0.0,1668050426.438449
254219573.0,0.0,57.5858039855957,57.5858039855957,nan,nan,nan,0.0,0.0,1668050426.538594
254319465.0,0.0,57.58725357055664,57.58725357055664,nan,nan,nan,0.0,0.0,1668050426.638486
254419555.0,0.0,57.58242416381836,57.58242416381836,nan,nan,nan,0.0,0.0,1668050426.738576
254519444.0,0.0,57.58725357055664,57.58725357055664,nan,nan,nan,0.0,0.0,1668050426.838465
254619489.0,0.0,57.588706970214844,57.588706970214844,nan,nan,nan,0.0,0.0,1668050426.93851
254719655.0,0.0,57.58725357055664,57.58725357055664,nan,nan,nan,0.0,0.0,1668050427.038676
254819643.0,0.0,57.590476989746094,57.590476989746094,nan,nan,nan,0.0,0.0,1668050427.138664
254919513.0,0.0,57.58725357055664,57.58725357055664,nan,nan,nan,0.0,0.0,1668050427.238534
255019404.0,0.0,57.59015655517578,57.59015655517578,nan,nan,nan,0.0,0.0,1668050427.338425
255119570.0,0.0,57.58725357055664,57.58725357055664,nan,nan,nan,0.0,0.0,1668050427.438591
255219414.0,0.0,57.58725357055664,57.58725357055664,nan,nan,nan,0.0,0.0,1668050427.538435
255319512.0,0.0,57.58725357055664,57.58725357055664,nan,nan,nan,0.0,0.0,1668050427.6385329
255419442.0,0.0,57.58403015136719,57.58403015136719,nan,nan,nan,0.0,0.0,1668050427.738463
255519442.0,0.0,57.5858039855957,57.5858039855957,nan,nan,nan,0.0,0.0,1668050427.838463
258419617.0,0.0,57.55825424194336,57.55825424194336,nan,nan,nan,0.0,0.0,1668050430.738638
258531713.0,0.0,57.55825424194336,57.55825424194336,nan,nan,nan,0.0,0.0,1668050430.850734
258631701.0,0.0,57.57130432128906,57.57130432128906,nan,nan,nan,0.0,0.0,1668050430.950722
258731487.0,0.0,57.581459045410156,57.581459045410156,nan,nan,nan,0.0,0.0,1668050431.050508
258831714.0,0.0,57.588863372802734,57.588863372802734,nan,nan,nan,0.0,0.0,1668050431.150735
258931620.0,0.0,57.5858039855957,57.5858039855957,nan,nan,nan,0.0,0.0,1668050431.2506409
259031698.0,0.0,57.58725357055664,57.58725357055664,nan,nan,nan,0.0,0.0,1668050431.350719
259131555.0,0.0,57.58403015136719,57.58403015136719,nan,nan,nan,0.0,0.0,1668050431.450576
259231647.0,0.0,57.58725357055664,57.58725357055664,nan,nan,nan,0.0,0.0,1668050431.550668
259331599.0,0.0,57.5858039855957,57.5858039855957,nan,nan,nan,0.0,0.0,1668050431.65062
259431695.0,0.0,57.58725357055664,57.58725357055664,nan,nan,nan,0.0,0.0,1668050431.750716
259531669.0,0.0,57.5858039855957,57.5858039855957,nan,nan,nan,0.0,0.0,1668050431.85069
259631607.0,0.0,57.5858039855957,57.5858039855957,nan,nan,nan,0.0,0.0,1668050431.950628
259731746.0,0.0,57.59015655517578,57.59015655517578,nan,nan,nan,0.0,0.0,1668050432.050767
259831636.0,0.0,57.588863372802734,57.588863372802734,nan,nan,nan,0.0,0.0,1668050432.150657
259931686.0,0.0,57.58725357055664,57.58725357055664,nan,nan,nan,0.0,0.0,1668050432.250707
260031572.0,0.0,57.588706970214844,57.588706970214844,nan,nan,nan,0.0,0.0,1668050432.350593
260131687.0,0.0,57.58725357055664,57.58725357055664,nan,nan,nan,0.0,0.0,1668050432.450708
260231725.0,0.0,57.58725357055664,57.58725357055664,nan,nan,nan,0.0,0.0,1668050432.550746
260331721.0,0.0,57.584354400634766,57.584354400634766,nan,nan,nan,0.0,0.0,1668050432.650742
260431734.0,0.0,57.58725357055664,57.58725357055664,nan,nan,nan,0.0,0.0,1668050432.750755
260531532.0,0.0,57.5858039855957,57.5858039855957,nan,nan,nan,0.0,0.0,1668050432.850553
260631693.0,0.0,57.58725357055664,57.58725357055664,nan,nan,nan,0.0,0.0,1668050432.9507139
260731617.0,0.0,57.588706970214844,57.588706970214844,nan,nan,nan,0.0,0.0,1668050433.050638
260831721.0,0.0,57.588863372802734,57.588863372802734,nan,nan,nan,0.0,0.0,1668050433.150742
260931595.0,0.0,57.5858039855957,57.5858039855957,nan,nan,nan,0.0,0.0,1668050433.250616
261031668.0,0.0,57.588706970214844,57.588706970214844,nan,nan,nan,0.0,0.0,1668050433.350689
261131494.0,0.0,57.58725357055664,57.58725357055664,nan,nan,nan,0.0,0.0,1668050433.450515
261231683.0,0.0,57.584354400634766,57.584354400634766,nan,nan,nan,0.0,0.0,1668050433.550704
261331733.0,0.0,57.588706970214844,57.588706970214844,nan,nan,nan,0.0,0.0,1668050433.650754
261431581.0,0.0,57.588863372802734,57.588863372802734,nan,nan,nan,0.0,0.0,1668050433.750602
261531667.0,0.0,57.58725357055664,57.58725357055664,nan,nan,nan,0.0,0.0,1668050433.850688
261631543.0,0.0,57.588706970214844,57.588706970214844,nan,nan,nan,0.0,0.0,1668050433.950564
261731740.0,0.0,57.5858039855957,57.5858039855957,nan,nan,nan,0.0,0.0,1668050434.050761
261831593.0,0.0,57.59208679199219,57.59208679199219,nan,nan,nan,0.0,0.0,1668050434.150614
261931688.0,0.0,57.59015655517578,57.59015655517578,nan,nan,nan,0.0,0.0,1668050434.250709
262031630.0,0.0,57.59160614013672,57.59160614013672,nan,nan,nan,0.0,0.0,1668050434.350651
262131720.0,0.0,57.58564758300781,57.58564758300781,nan,nan,nan,0.0,0.0,1668050434.450741
262231693.0,0.0,57.58725357055664,57.58725357055664,nan,nan,nan,0.0,0.0,1668050434.550714
262331654.0,0.0,57.58725357055664,57.58725357055664,nan,nan,nan,0.0,0.0,1668050434.650675
262431694.0,0.0,57.58564758300781,57.58564758300781,nan,nan,nan,0.0,0.0,1668050434.750715
262531703.0,0.0,57.58725357055664,57.58725357055664,nan,nan,nan,0.0,0.0,1668050434.850724
262631711.0,0.0,57.59015655517578,57.59015655517578,nan,nan,nan,0.0,0.0,1668050434.950732
262731649.0,0.0,57.59305191040039,57.59305191040039,nan,nan,nan,0.0,0.0,1668050435.05067
262831634.0,0.0,57.590476989746094,57.590476989746094,nan,nan,nan,0.0,0.0,1668050435.150655
262931572.0,0.0,57.59305191040039,57.59305191040039,nan,nan,nan,0.0,0.0,1668050435.250593
263031817.0,0.0,57.59450912475586,57.59450912475586,nan,nan,nan,0.0,0.0,1668050435.350838
263131723.0,0.0,57.58403015136719,57.58403015136719,nan,nan,nan,0.0,0.0,1668050435.450744
263231662.0,0.0,57.58725357055664,57.58725357055664,nan,nan,nan,0.0,0.0,1668050435.550683
263331654.0,0.0,57.5858039855957,57.5858039855957,nan,nan,nan,0.0,0.0,1668050435.650675
263431670.0,0.0,57.588706970214844,57.588706970214844,nan,nan,nan,0.0,0.0,1668050435.750691
263531641.0,0.0,57.58725357055664,57.58725357055664,nan,nan,nan,0.0,0.0,1668050435.850662
263631628.0,0.0,57.59305191040039,57.59305191040039,nan,nan,nan,0.0,0.0,1668050435.950649
263731726.0,0.0,57.59015655517578,57.59015655517578,nan,nan,nan,0.0,0.0,1668050436.050747
263831628.0,0.0,57.595314025878906,57.595314025878906,nan,nan,nan,0.0,0.0,1668050436.150649
263931728.0,0.0,57.59740447998047,57.59740447998047,nan,nan,nan,0.0,0.0,1668050436.2507489
264031683.0,0.0,57.59305191040039,57.59305191040039,nan,nan,nan,0.0,0.0,1668050436.350704
264131631.0,0.0,57.590476989746094,57.590476989746094,nan,nan,nan,0.0,0.0,1668050436.450652
264231725.0,0.0,57.588706970214844,57.588706970214844,nan,nan,nan,0.0,0.0,1668050436.550746
264331596.0,0.0,57.58725357055664,57.58725357055664,nan,nan,nan,0.0,0.0,1668050436.650617
264431777.0,0.0,57.58725357055664,57.58725357055664,nan,nan,nan,0.0,0.0,1668050436.750798
264531562.0,0.0,57.58564758300781,57.58564758300781,nan,nan,nan,0.0,0.0,1668050436.850583
264631790.0,0.0,57.5959587097168,57.5959587097168,nan,nan,nan,0.0,0.0,1668050436.950811
264731656.0,0.0,57.59015655517578,57.59015655517578,nan,nan,nan,0.0,0.0,1668050437.050677
264831707.0,0.0,57.59370040893555,57.59370040893555,nan,nan,nan,0.0,0.0,1668050437.150728
264931659.0,0.0,57.59160614013672,57.59160614013672,nan,nan,nan,0.0,0.0,1668050437.25068
265031669.0,0.0,57.59160614013672,57.59160614013672,nan,nan,nan,0.0,0.0,1668050437.35069
265131747.0,0.0,57.58725357055664,57.58725357055664,nan,nan,nan,0.0,0.0,1668050437.450768
265231626.0,0.0,57.58403015136719,57.58403015136719,nan,nan,nan,0.0,0.0,1668050437.550647
265331655.0,0.0,57.58725357055664,57.58725357055664,nan,nan,nan,0.0,0.0,1668050437.650676
265431655.0,0.0,57.588706970214844,57.588706970214844,nan,nan,nan,0.0,0.0,1668050437.750676
265531752.0,0.0,57.588863372802734,57.588863372802734,nan,nan,nan,0.0,0.0,1668050437.850773
265631634.0,0.0,57.59015655517578,57.59015655517578,nan,nan,nan,0.0,0.0,1668050437.950655
265731753.0,0.0,57.59015655517578,57.59015655517578,nan,nan,nan,0.0,0.0,1668050438.050774
265831795.0,0.0,57.59450912475586,57.59450912475586,nan,nan,nan,0.0,0.0,1668050438.150816
265931517.0,0.0,57.59370040893555,57.59370040893555,nan,nan,nan,0.0,0.0,1668050438.2505379
266031714.0,0.0,57.588706970214844,57.588706970214844,nan,nan,nan,0.0,0.0,1668050438.350735
266131645.0,0.0,57.58725357055664,57.58725357055664,nan,nan,nan,0.0,0.0,1668050438.450666
266231736.0,0.0,57.58403015136719,57.58403015136719,nan,nan,nan,0.0,0.0,1668050438.550757
266331548.0,0.0,57.58725357055664,57.58725357055664,nan,nan,nan,0.0,0.0,1668050438.650569
266431645.0,0.0,57.5858039855957,57.5858039855957,nan,nan,nan,0.0,0.0,1668050438.750666
266531710.0,0.0,57.588863372802734,57.588863372802734,nan,nan,nan,0.0,0.0,1668050438.850731
266631711.0,0.0,57.59305191040039,57.59305191040039,nan,nan,nan,0.0,0.0,1668050438.950732
266731779.0,0.0,57.59305191040039,57.59305191040039,nan,nan,nan,0.0,0.0,1668050439.0508
266831535.0,0.0,57.598533630371094,57.598533630371094,nan,nan,nan,0.0,0.0,1668050439.150556
266931686.0,0.0,57.59160614013672,57.59160614013672,nan,nan,nan,0.0,0.0,1668050439.250707
267031590.0,0.0,57.59160614013672,57.59160614013672,nan,nan,nan,0.0,0.0,1668050439.350611
267131731.0,0.0,57.58725357055664,57.58725357055664,nan,nan,nan,0.0,0.0,1668050439.450752
267231617.0,0.0,57.58564758300781,57.58564758300781,nan,nan,nan,0.0,0.0,1668050439.550638
267331652.0,0.0,57.588706970214844,57.588706970214844,nan,nan,nan,0.0,0.0,1668050439.650673
267431597.0,0.0,57.584354400634766,57.584354400634766,nan,nan,nan,0.0,0.0,1668050439.750618
267531730.0,0.0,57.58725357055664,57.58725357055664,nan,nan,nan,0.0,0.0,1668050439.850751
267631726.0,0.0,57.588706970214844,57.588706970214844,nan,nan,nan,0.0,0.0,1668050439.950747
267731606.0,0.0,57.59160614013672,57.59160614013672,nan,nan,nan,0.0,0.0,1668050440.050627
267831763.0,0.0,57.590476989746094,57.590476989746094,nan,nan,nan,0.0,0.0,1668050440.150784
267931625.0,0.0,57.59160614013672,57.59160614013672,nan,nan,nan,0.0,0.0,1668050440.2506459
268031672.0,0.0,57.59160614013672,57.59160614013672,nan,nan,nan,0.0,0.0,1668050440.350693
268131591.0,0.0,57.5858039855957,57.5858039855957,nan,nan,nan,0.0,0.0,1668050440.450612
268231639.0,0.0,57.58725357055664,57.58725357055664,nan,nan,nan,0.0,0.0,1668050440.55066
268331572.0,0.0,57.58725357055664,57.58725357055664,nan,nan,nan,0.0,0.0,1668050440.650593
268431699.0,0.0,57.58290481567383,57.58290481567383,nan,nan,nan,0.0,0.0,1668050440.75072
268531724.0,0.0,57.58725357055664,57.58725357055664,nan,nan,nan,0.0,0.0,1668050440.850745
268631712.0,0.0,57.59015655517578,57.59015655517578,nan,nan,nan,0.0,0.0,1668050440.950733
268731669.0,0.0,57.588706970214844,57.588706970214844,nan,nan,nan,0.0,0.0,1668050441.05069
268831751.0,0.0,57.59015655517578,57.59015655517578,nan,nan,nan,0.0,0.0,1668050441.150772
268931684.0,0.0,57.595314025878906,57.595314025878906,nan,nan,nan,0.0,0.0,1668050441.250705
269031598.0,0.0,57.588706970214844,57.588706970214844,nan,nan,nan,0.0,0.0,1668050441.350619
269131717.0,0.0,57.584354400634766,57.584354400634766,nan,nan,nan,0.0,0.0,1668050441.450738
269231608.0,0.0,57.58725357055664,57.58725357055664,nan,nan,nan,0.0,0.0,1668050441.550629
269331736.0,0.0,57.584354400634766,57.584354400634766,nan,nan,nan,0.0,0.0,1668050441.650757
269431675.0,0.0,57.588706970214844,57.588706970214844,nan,nan,nan,0.0,0.0,1668050441.750696
269531606.0,0.0,57.58564758300781,57.58564758300781,nan,nan,nan,0.0,0.0,1668050441.850627
269631732.0,0.0,57.59160614013672,57.59160614013672,nan,nan,nan,0.0,0.0,1668050441.950753
269731599.0,0.0,57.59305191040039,57.59305191040039,nan,nan,nan,0.0,0.0,1668050442.05062
269831770.0,0.0,57.59305191040039,57.59305191040039,nan,nan,nan,0.0,0.0,1668050442.150791
269931585.0,0.0,57.59370040893555,57.59370040893555,nan,nan,nan,0.0,0.0,1668050442.250606
270031662.0,0.0,57.59160614013672,57.59160614013672,nan,nan,nan,0.0,0.0,1668050442.350683
270131565.0,0.0,57.5858039855957,57.5858039855957,nan,nan,nan,0.0,0.0,1668050442.450586
270231674.0,0.0,57.590476989746094,57.590476989746094,nan,nan,nan,0.0,0.0,1668050442.550695
270331634.0,0.0,57.5858039855957,57.5858039855957,nan,nan,nan,0.0,0.0,1668050442.650655
270431613.0,0.0,57.58725357055664,57.58725357055664,nan,nan,nan,0.0,0.0,1668050442.750634
270531731.0,0.0,57.588863372802734,57.588863372802734,nan,nan,nan,0.0,0.0,1668050442.8507519
270631593.0,0.0,57.59160614013672,57.59160614013672,nan,nan,nan,0.0,0.0,1668050442.950614
270731741.0,0.0,57.59305191040039,57.59305191040039,nan,nan,nan,0.0,0.0,1668050443.050762
270831586.0,0.0,57.596923828125,57.596923828125,nan,nan,nan,0.0,0.0,1668050443.1506069
270931783.0,0.0,57.59450912475586,57.59450912475586,nan,nan,nan,0.0,0.0,1668050443.250804
271031617.0,0.0,57.59160614013672,57.59160614013672,nan,nan,nan,0.0,0.0,1668050443.350638
271131757.0,0.0,57.58725357055664,57.58725357055664,nan,nan,nan,0.0,0.0,1668050443.450778
271231695.0,0.0,57.58725357055664,57.58725357055664,nan,nan,nan,0.0,0.0,1668050443.550716
271331661.0,0.0,57.5858039855957,57.5858039855957,nan,nan,nan,0.0,0.0,1668050443.650682
271431717.0,0.0,57.588706970214844,57.588706970214844,nan,nan,nan,0.0,0.0,1668050443.750738
271531629.0,0.0,57.588863372802734,57.588863372802734,nan,nan,nan,0.0,0.0,1668050443.85065
271631601.0,0.0,57.59305191040039,57.59305191040039,nan,nan,nan,0.0,0.0,1668050443.950622
271731558.0,0.0,57.59015655517578,57.59015655517578,nan,nan,nan,0.0,0.0,1668050444.050579
271831711.0,0.0,57.588863372802734,57.588863372802734,nan,nan,nan,0.0,0.0,1668050444.150732
271931621.0,0.0,57.59450912475586,57.59450912475586,nan,nan,nan,0.0,0.0,1668050444.250642
272031734.0,0.0,57.59015655517578,57.59015655517578,nan,nan,nan,0.0,0.0,1668050444.350755
272131693.0,0.0,57.58725357055664,57.58725357055664,nan,nan,nan,0.0,0.0,1668050444.4507139
272231637.0,0.0,57.58564758300781,57.58564758300781,nan,nan,nan,0.0,0.0,1668050444.550658
272331703.0,0.0,57.58725357055664,57.58725357055664,nan,nan,nan,0.0,0.0,1668050444.650724
272431609.0,0.0,57.58725357055664,57.58725357055664,nan,nan,nan,0.0,0.0,1668050444.75063
272531664.0,0.0,57.58725357055664,57.58725357055664,nan,nan,nan,0.0,0.0,1668050444.850685
272631613.0,0.0,57.59160614013672,57.59160614013672,nan,nan,nan,0.0,0.0,1668050444.950634
272731697.0,0.0,57.59305191040039,57.59305191040039,nan,nan,nan,0.0,0.0,1668050445.050718
272831730.0,0.0,57.59370040893555,57.59370040893555,nan,nan,nan,0.0,0.0,1668050445.1507509
272931746.0,0.0,57.59450912475586,57.59450912475586,nan,nan,nan,0.0,0.0,1668050445.250767
273031771.0,0.0,57.58725357055664,57.58725357055664,nan,nan,nan,0.0,0.0,1668050445.350792
273131657.0,0.0,57.58725357055664,57.58725357055664,nan,nan,nan,0.0,0.0,1668050445.4506779
273231721.0,0.0,57.58564758300781,57.58564758300781,nan,nan,nan,0.0,0.0,1668050445.550742
273331624.0,0.0,57.58725357055664,57.58725357055664,nan,nan,nan,0.0,0.0,1668050445.650645
274231662.0,0.0,57.564693450927734,57.564693450927734,nan,nan,nan,0.0,0.0,1668050446.550683
274331688.0,0.0,57.56840133666992,57.56840133666992,nan,nan,nan,0.0,0.0,1668050446.650709
274431641.0,0.0,57.56260299682617,57.56260299682617,nan,nan,nan,0.0,0.0,1668050446.750662
274531649.0,0.0,57.56792068481445,57.56792068481445,nan,nan,nan,0.0,0.0,1668050446.85067
274631647.0,0.0,57.56840133666992,57.56840133666992,nan,nan,nan,0.0,0.0,1668050446.950668
274731729.0,0.0,57.57130432128906,57.57130432128906,nan,nan,nan,0.0,0.0,1668050447.05075
274831652.0,0.0,57.56953048706055,57.56953048706055,nan,nan,nan,0.0,0.0,1668050447.150673
274931677.0,0.0,57.569854736328125,57.569854736328125,nan,nan,nan,0.0,0.0,1668050447.250698
275031709.0,0.0,57.57130432128906,57.57130432128906,nan,nan,nan,0.0,0.0,1668050447.35073
275131624.0,0.0,57.55986022949219,57.55986022949219,nan,nan,nan,0.0,0.0,1668050447.450645
275231682.0,0.0,57.56114959716797,57.56114959716797,nan,nan,nan,0.0,0.0,1668050447.550703
275331612.0,0.0,57.56114959716797,57.56114959716797,nan,nan,nan,0.0,0.0,1668050447.650633
275431713.0,0.0,57.56114959716797,57.56114959716797,nan,nan,nan,0.0,0.0,1668050447.750734
275531578.0,0.0,57.55986022949219,57.55986022949219,nan,nan,nan,0.0,0.0,1668050447.850599
275631716.0,0.0,57.569854736328125,57.569854736328125,nan,nan,nan,0.0,0.0,1668050447.950737
275731705.0,0.0,57.57130432128906,57.57130432128906,nan,nan,nan,0.0,0.0,1668050448.050726
275831637.0,0.0,57.56953048706055,57.56953048706055,nan,nan,nan,0.0,0.0,1668050448.150658
275931691.0,0.0,57.57130432128906,57.57130432128906,nan,nan,nan,0.0,0.0,1668050448.250712
276031600.0,0.0,57.566951751708984,57.566951751708984,nan,nan,nan,0.0,0.0,1668050448.350621
276131713.0,0.0,57.56147003173828,57.56147003173828,nan,nan,nan,0.0,0.0,1668050448.450734
276231655.0,0.0,57.56114959716797,57.56114959716797,nan,nan,nan,0.0,0.0,1668050448.5506759
276331707.0,0.0,57.564048767089844,57.564048767089844,nan,nan,nan,0.0,0.0,1668050448.650728
276431735.0,0.0,57.55986022949219,57.55986022949219,nan,nan,nan,0.0,0.0,1668050448.750756
276531713.0,0.0,57.56550216674805,57.56550216674805,nan,nan,nan,0.0,0.0,1668050448.850734
276631684.0,0.0,57.566951751708984,57.566951751708984,nan,nan,nan,0.0,0.0,1668050448.950705
276731665.0,0.0,57.55825424194336,57.55825424194336,nan,nan,nan,0.0,0.0,1668050449.050686
276831717.0,0.0,57.556640625,57.556640625,nan,nan,nan,0.0,0.0,1668050449.150738
276931622.0,0.0,57.55679702758789,57.55679702758789,nan,nan,nan,0.0,0.0,1668050449.250643
277031798.0,0.0,57.55535125732422,57.55535125732422,nan,nan,nan,0.0,0.0,1668050449.3508189
277131667.0,0.0,57.55986022949219,57.55986022949219,nan,nan,nan,0.0,0.0,1668050449.450688
277231704.0,0.0,57.57275390625,57.57275390625,nan,nan,nan,0.0,0.0,1668050449.550725
277331674.0,0.0,57.57130432128906,57.57130432128906,nan,nan,nan,0.0,0.0,1668050449.650695
277431734.0,0.0,57.57275390625,57.57275390625,nan,nan,nan,0.0,0.0,1668050449.750755
277531696.0,0.0,57.57130432128906,57.57130432128906,nan,nan,nan,0.0,0.0,1668050449.850717
277631635.0,0.0,57.57275390625,57.57275390625,nan,nan,nan,0.0,0.0,1668050449.950656
277731743.0,0.0,57.57758712768555,57.57758712768555,nan,nan,nan,0.0,0.0,1668050450.050764
277831660.0,0.0,57.57130432128906,57.57130432128906,nan,nan,nan,0.0,0.0,1668050450.150681
277931705.0,0.0,57.57420349121094,57.57420349121094,nan,nan,nan,0.0,0.0,1668050450.250726
278031576.0,0.0,57.57275390625,57.57275390625,nan,nan,nan,0.0,0.0,1668050450.350597
278131683.0,0.0,57.56792068481445,57.56792068481445,nan,nan,nan,0.0,0.0,1668050450.450704
278231609.0,0.0,57.55535125732422,57.55535125732422,nan,nan,nan,0.0,0.0,1668050450.55063
278331752.0,0.0,57.57275390625,57.57275390625,nan,nan,nan,0.0,0.0,1668050450.650773
278431671.0,0.0,57.57114028930664,57.57114028930664,nan,nan,nan,0.0,0.0,1668050450.750692
278531643.0,0.0,57.57130432128906,57.57130432128906,nan,nan,nan,0.0,0.0,1668050450.850664
278631677.0,0.0,57.55099868774414,57.55099868774414,nan,nan,nan,0.0,0.0,1668050450.950698
278731637.0,0.0,57.500244140625,57.500244140625,nan,nan,nan,0.0,0.0,1668050451.050658
278831703.0,0.0,57.4770393371582,57.4770393371582,nan,nan,nan,0.0,0.0,1668050451.150724
278931546.0,0.0,57.42918395996094,57.42918395996094,nan,nan,nan,0.0,0.0,1668050451.250567
279031682.0,0.0,57.35200119018555,57.35200119018555,nan,nan,nan,0.0,0.0,1668050451.350703
279131732.0,0.0,57.371177673339844,57.371177673339844,nan,nan,nan,0.0,0.0,1668050451.450753
279231735.0,0.0,57.43788528442383,57.43788528442383,nan,nan,nan,0.0,0.0,1668050451.550756
279331711.0,0.0,57.479942321777344,57.479942321777344,nan,nan,nan,0.0,0.0,1668050451.650732
279431635.0,0.0,57.45673751831055,57.45673751831055,nan,nan,nan,0.0,0.0,1668050451.750656
279531675.0,0.0,57.45238494873047,57.45238494873047,nan,nan,nan,0.0,0.0,1668050451.850696
279631595.0,0.0,57.45238494873047,57.45238494873047,nan,nan,nan,0.0,0.0,1668050451.950616
279731728.0,0.0,57.47123718261719,57.47123718261719,nan,nan,nan,0.0,0.0,1668050452.050749
279831592.0,0.0,57.47123718261719,57.47123718261719,nan,nan,nan,0.0,0.0,1668050452.150613
279931713.0,0.0,57.44513702392578,57.44513702392578,nan,nan,nan,0.0,0.0,1668050452.250734
280031576.0,0.0,57.45512771606445,57.45512771606445,nan,nan,nan,0.0,0.0,1668050452.350597
280131697.0,0.0,57.4509391784668,57.4509391784668,nan,nan,nan,0.0,0.0,1668050452.450718
280231697.0,0.0,57.455284118652344,57.455284118652344,nan,nan,nan,0.0,0.0,1668050452.550718
280331604.0,0.0,57.45963668823242,57.45963668823242,nan,nan,nan,0.0,0.0,1668050452.650625
280431778.0,0.0,57.43417739868164,57.43417739868164,nan,nan,nan,0.0,0.0,1668050452.750799
280531652.0,0.0,57.45383834838867,57.45383834838867,nan,nan,nan,0.0,0.0,1668050452.850673
280631678.0,0.0,57.46253967285156,57.46253967285156,nan,nan,nan,0.0,0.0,1668050452.950699
280731696.0,0.0,57.453514099121094,57.453514099121094,nan,nan,nan,0.0,0.0,1668050453.0507169
280831682.0,0.0,57.43788528442383,57.43788528442383,nan,nan,nan,0.0,0.0,1668050453.150703
280931635.0,0.0,57.43062973022461,57.43062973022461,nan,nan,nan,0.0,0.0,1668050453.250656
281031706.0,0.0,57.451904296875,57.451904296875,nan,nan,nan,0.0,0.0,1668050453.350727
281131732.0,0.0,57.45673751831055,57.45673751831055,nan,nan,nan,0.0,0.0,1668050453.450753
281231705.0,0.0,57.439334869384766,57.439334869384766,nan,nan,nan,0.0,0.0,1668050453.550726
281331692.0,0.0,57.42451095581055,57.42451095581055,nan,nan,nan,0.0,0.0,1668050453.650713
281431623.0,0.0,57.43208694458008,57.43208694458008,nan,nan,nan,0.0,0.0,1668050453.750644
281531741.0,0.0,57.45673751831055,57.45673751831055,nan,nan,nan,0.0,0.0,1668050453.850762
281631670.0,0.0,57.43062973022461,57.43062973022461,nan,nan,nan,0.0,0.0,1668050453.950691
281731692.0,0.0,57.44223403930664,57.44223403930664,nan,nan,nan,0.0,0.0,1668050454.050713
281831590.0,0.0,57.43353271484375,57.43353271484375,nan,nan,nan,0.0,0.0,1668050454.150611
281931789.0,0.0,57.42048263549805,57.42048263549805,nan,nan,nan,0.0,0.0,1668050454.25081
282031738.0,0.0,57.43095779418945,57.43095779418945,nan,nan,nan,0.0,0.0,1668050454.350759
282131649.0,0.0,57.44513702392578,57.44513702392578,nan,nan,nan,0.0,0.0,1668050454.45067
282231732.0,0.0,57.41758346557617,57.41758346557617,nan,nan,nan,0.0,0.0,1668050454.5507529
282331589.0,0.0,57.42290115356445,57.42290115356445,nan,nan,nan,0.0,0.0,1668050454.65061
282431678.0,0.0,57.4045295715332,57.4045295715332,nan,nan,nan,0.0,0.0,1668050454.750699
282531755.0,0.0,57.427734375,57.427734375,nan,nan,nan,0.0,0.0,1668050454.850776
282631721.0,0.0,57.44223403930664,57.44223403930664,nan,nan,nan,0.0,0.0,1668050454.950742
282731614.0,0.0,57.424835205078125,57.424835205078125,nan,nan,nan,0.0,0.0,1668050455.050635
282831728.0,0.0,57.4146842956543,57.4146842956543,nan,nan,nan,0.0,0.0,1668050455.150749
282931765.0,0.0,57.3955078125,57.3955078125,nan,nan,nan,0.0,0.0,1668050455.250786
283031613.0,0.0,57.436439514160156,57.436439514160156,nan,nan,nan,0.0,0.0,1668050455.350634
283131676.0,0.0,57.439334869384766,57.439334869384766,nan,nan,nan,0.0,0.0,1668050455.450697
283231653.0,0.0,57.387451171875,57.387451171875,nan,nan,nan,0.0,0.0,1668050455.550674
283331802.0,0.0,57.388580322265625,57.388580322265625,nan,nan,nan,0.0,0.0,1668050455.6508229
283431638.0,0.0,57.421932220458984,57.421932220458984,nan,nan,nan,0.0,0.0,1668050455.750659
283531755.0,0.0,57.41613006591797,57.41613006591797,nan,nan,nan,0.0,0.0,1668050455.850776
283631555.0,0.0,57.41806411743164,57.41806411743164,nan,nan,nan,0.0,0.0,1668050455.950576
283731741.0,0.0,57.407432556152344,57.407432556152344,nan,nan,nan,0.0,0.0,1668050456.050762
283831741.0,0.0,57.37407684326172,57.37407684326172,nan,nan,nan,0.0,0.0,1668050456.150762
283931731.0,0.0,57.41645050048828,57.41645050048828,nan,nan,nan,0.0,0.0,1668050456.250752
284031695.0,0.0,57.41758346557617,57.41758346557617,nan,nan,nan,0.0,0.0,1668050456.3507159
284131590.0,0.0,57.38422775268555,57.38422775268555,nan,nan,nan,0.0,0.0,1668050456.4506109
284231702.0,0.0,57.3955078125,57.3955078125,nan,nan,nan,0.0,0.0,1668050456.550723
284331609.0,0.0,57.37262725830078,57.37262725830078,nan,nan,nan,0.0,0.0,1668050456.65063
284431724.0,0.0,57.4146842956543,57.4146842956543,nan,nan,nan,0.0,0.0,1668050456.750745
284531596.0,0.0,57.37939453125,57.37939453125,nan,nan,nan,0.0,0.0,1668050456.850617
284631778.0,0.0,57.403079986572266,57.403079986572266,nan,nan,nan,0.0,0.0,1668050456.950799
284731730.0,0.0,57.37552261352539,57.37552261352539,nan,nan,nan,0.0,0.0,1668050457.050751
284831652.0,0.0,57.40034103393555,57.40034103393555,nan,nan,nan,0.0,0.0,1668050457.150673
284931667.0,0.0,57.38712692260742,57.38712692260742,nan,nan,nan,0.0,0.0,1668050457.250688
285031562.0,0.0,57.3421745300293,57.3421745300293,nan,nan,nan,0.0,0.0,1668050457.350583
285131678.0,0.0,57.389060974121094,57.389060974121094,nan,nan,nan,0.0,0.0,1668050457.450699
285231653.0,0.0,57.363929748535156,57.363929748535156,nan,nan,nan,0.0,0.0,1668050457.550674
285331743.0,0.0,57.39292907714844,57.39292907714844,nan,nan,nan,0.0,0.0,1668050457.650764
285431797.0,0.0,57.36102294921875,57.36102294921875,nan,nan,nan,0.0,0.0,1668050457.750818
285531746.0,0.0,57.35844802856445,57.35844802856445,nan,nan,nan,0.0,0.0,1668050457.850767
285631696.0,0.0,57.36247253417969,57.36247253417969,nan,nan,nan,0.0,0.0,1668050457.950717
285731575.0,0.0,57.37552261352539,57.37552261352539,nan,nan,nan,0.0,0.0,1668050458.050596
285831717.0,0.0,57.363285064697266,57.363285064697266,nan,nan,nan,0.0,0.0,1668050458.150738
285931685.0,0.0,57.32476806640625,57.32476806640625,nan,nan,nan,0.0,0.0,1668050458.250706
286031674.0,0.0,57.39437484741211,57.39437484741211,nan,nan,nan,0.0,0.0,1668050458.350695
286131620.0,0.0,57.332664489746094,57.332664489746094,nan,nan,nan,0.0,0.0,1668050458.450641
286231715.0,0.0,57.407432556152344,57.407432556152344,nan,nan,nan,0.0,0.0,1668050458.550736
286331643.0,0.0,57.294315338134766,57.294315338134766,nan,nan,nan,0.0,0.0,1668050458.650664
286431768.0,0.0,57.38261795043945,57.38261795043945,nan,nan,nan,0.0,0.0,1668050458.750789
286531749.0,0.0,57.3421745300293,57.3421745300293,nan,nan,nan,0.0,0.0,1668050458.85077
286631670.0,0.0,57.37697982788086,57.37697982788086,nan,nan,nan,0.0,0.0,1668050458.950691
286731808.0,0.0,57.31171798706055,57.31171798706055,nan,nan,nan,0.0,0.0,1668050459.050829
286831658.0,0.0,57.355224609375,57.355224609375,nan,nan,nan,0.0,0.0,1668050459.1506789
286931761.0,0.0,57.38132858276367,57.38132858276367,nan,nan,nan,0.0,0.0,1668050459.250782
287031621.0,0.0,57.32476806640625,57.32476806640625,nan,nan,nan,0.0,0.0,1668050459.350642
287131715.0,0.0,57.377784729003906,57.377784729003906,nan,nan,nan,0.0,0.0,1668050459.450736
287231651.0,0.0,57.28851318359375,57.28851318359375,nan,nan,nan,0.0,0.0,1668050459.550672
287331742.0,0.0,57.37697982788086,57.37697982788086,nan,nan,nan,0.0,0.0,1668050459.650763
287431715.0,0.0,57.31977844238281,57.31977844238281,nan,nan,nan,0.0,0.0,1668050459.750736
287531735.0,0.0,57.352325439453125,57.352325439453125,nan,nan,nan,0.0,0.0,1668050459.850756
287631776.0,0.0,57.32332229614258,57.32332229614258,nan,nan,nan,0.0,0.0,1668050459.950797
287731584.0,0.0,57.35361099243164,57.35361099243164,nan,nan,nan,0.0,0.0,1668050460.050605
287831687.0,0.0,57.330570220947266,57.330570220947266,nan,nan,nan,0.0,0.0,1668050460.150708
287931645.0,0.0,57.334922790527344,57.334922790527344,nan,nan,nan,0.0,0.0,1668050460.250666
288031742.0,0.0,57.3682746887207,57.3682746887207,nan,nan,nan,0.0,0.0,1668050460.350763
288131657.0,0.0,57.28915786743164,57.28915786743164,nan,nan,nan,0.0,0.0,1668050460.4506779
288231760.0,0.0,57.35957717895508,57.35957717895508,nan,nan,nan,0.0,0.0,1668050460.550781
288331736.0,0.0,57.31752014160156,57.31752014160156,nan,nan,nan,0.0,0.0,1668050460.650757
288431621.0,0.0,57.36650085449219,57.36650085449219,nan,nan,nan,0.0,0.0,1668050460.750642
288531720.0,0.0,57.327674865722656,57.327674865722656,nan,nan,nan,0.0,0.0,1668050460.850741
288631648.0,0.0,57.47414016723633,57.47414016723633,nan,nan,nan,0.0,0.0,1668050460.950669
288731711.0,0.0,57.155418395996094,57.155418395996094,nan,nan,nan,0.0,0.0,1668050461.050732
288831775.0,0.0,57.34797286987305,57.34797286987305,nan,nan,nan,0.0,0.0,1668050461.150796
288931730.0,0.0,57.636558532714844,57.636558532714844,nan,nan,nan,0.0,0.0,1668050461.250751
289031589.0,0.0,57.58403015136719,57.58403015136719,nan,nan,nan,0.0,0.0,1668050461.35061
289131765.0,0.0,57.500244140625,57.500244140625,nan,nan,nan,0.0,0.0,1668050461.4507859
289231715.0,0.0,57.458187103271484,57.458187103271484,nan,nan,nan,0.0,0.0,1668050461.550736
289331611.0,0.0,57.458351135253906,57.458351135253906,nan,nan,nan,0.0,0.0,1668050461.650632
289431690.0,0.0,57.45673751831055,57.45673751831055,nan,nan,nan,0.0,0.0,1668050461.750711
289531626.0,0.0,57.458187103271484,57.458187103271484,nan,nan,nan,0.0,0.0,1668050461.850647
289631907.0,0.0,57.46253967285156,57.46253967285156,nan,nan,nan,0.0,0.0,1668050461.950928
289731609.0,0.0,57.461570739746094,57.461570739746094,nan,nan,nan,0.0,0.0,1668050462.05063
289843318.0,0.0,57.48574447631836,57.48574447631836,nan,nan,nan,0.0,0.0,1668050462.162339
289943495.0,0.0,57.50169372558594,57.50169372558594,nan,nan,nan,0.0,0.0,1668050462.262516
290043326.0,0.0,57.50991439819336,57.50991439819336,nan,nan,nan,0.0,0.0,1668050462.362347
290143435.0,0.0,57.516197204589844,57.516197204589844,nan,nan,nan,0.0,0.0,1668050462.462456
290243416.0,0.0,57.52199935913086,57.52199935913086,nan,nan,nan,0.0,0.0,1668050462.562437
290343425.0,0.0,57.527793884277344,57.527793884277344,nan,nan,nan,0.0,0.0,1668050462.662446
290443474.0,0.0,57.52763748168945,57.52763748168945,nan,nan,nan,0.0,0.0,1668050462.762495
290543300.0,0.0,57.52634811401367,57.52634811401367,nan,nan,nan,0.0,0.0,1668050462.862321
290643407.0,0.0,57.52924728393555,57.52924728393555,nan,nan,nan,0.0,0.0,1668050462.962428
290743249.0,0.0,57.532470703125,57.532470703125,nan,nan,nan,0.0,0.0,1668050463.06227
290843337.0,0.0,57.52924728393555,57.52924728393555,nan,nan,nan,0.0,0.0,1668050463.162358
290943419.0,0.0,57.53504943847656,57.53504943847656,nan,nan,nan,0.0,0.0,1668050463.26244
291043303.0,0.0,57.53569030761719,57.53569030761719,nan,nan,nan,0.0,0.0,1668050463.362324
291143342.0,0.0,57.52924728393555,57.52924728393555,nan,nan,nan,0.0,0.0,1668050463.462363
291243277.0,0.0,57.53214645385742,57.53214645385742,nan,nan,nan,0.0,0.0,1668050463.562298
291343519.0,0.0,57.52924728393555,57.52924728393555,nan,nan,nan,0.0,0.0,1668050463.66254
291443313.0,0.0,57.534080505371094,57.534080505371094,nan,nan,nan,0.0,0.0,1668050463.7623339
291543403.0,0.0,57.53214645385742,57.53214645385742,nan,nan,nan,0.0,0.0,1668050463.862424
291643381.0,0.0,57.53939437866211,57.53939437866211,nan,nan,nan,0.0,0.0,1668050463.962402
291743530.0,0.0,57.54374694824219,57.54374694824219,nan,nan,nan,0.0,0.0,1668050464.062551
291843497.0,0.0,57.54085159301758,57.54085159301758,nan,nan,nan,0.0,0.0,1668050464.162518
291943274.0,0.0,57.54085159301758,57.54085159301758,nan,nan,nan,0.0,0.0,1668050464.262295
292043455.0,0.0,57.534080505371094,57.534080505371094,nan,nan,nan,0.0,0.0,1668050464.3624759
292143375.0,0.0,57.533599853515625,57.533599853515625,nan,nan,nan,0.0,0.0,1668050464.462396
292243419.0,0.0,57.533599853515625,57.533599853515625,nan,nan,nan,0.0,0.0,1668050464.56244
292343436.0,0.0,57.534080505371094,57.534080505371094,nan,nan,nan,0.0,0.0,1668050464.662457
292443421.0,0.0,57.53939437866211,57.53939437866211,nan,nan,nan,0.0,0.0,1668050464.7624419
292543357.0,0.0,57.53794860839844,57.53794860839844,nan,nan,nan,0.0,0.0,1668050464.862378
292643460.0,0.0,57.54374694824219,57.54374694824219,nan,nan,nan,0.0,0.0,1668050464.962481
292743392.0,0.0,57.54052734375,57.54052734375,nan,nan,nan,0.0,0.0,1668050465.062413
292843266.0,0.0,57.54374694824219,57.54374694824219,nan,nan,nan,0.0,0.0,1668050465.162287
292943376.0,0.0,57.54229736328125,57.54229736328125,nan,nan,nan,0.0,0.0,1668050465.262397
293043415.0,0.0,57.54052734375,57.54052734375,nan,nan,nan,0.0,0.0,1668050465.362436
293143376.0,0.0,57.53214645385742,57.53214645385742,nan,nan,nan,0.0,0.0,1668050465.462397
293243197.0,0.0,57.53939437866211,57.53939437866211,nan,nan,nan,0.0,0.0,1668050465.562218
293343505.0,0.0,57.53730773925781,57.53730773925781,nan,nan,nan,0.0,0.0,1668050465.662526
293443335.0,0.0,57.54085159301758,57.54085159301758,nan,nan,nan,0.0,0.0,1668050465.762356
293543548.0,0.0,57.54374694824219,57.54374694824219,nan,nan,nan,0.0,0.0,1668050465.862569
293643298.0,0.0,57.54374694824219,57.54374694824219,nan,nan,nan,0.0,0.0,1668050465.962319
293743325.0,0.0,57.54664993286133,57.54664993286133,nan,nan,nan,0.0,0.0,1668050466.062346
293843410.0,0.0,57.55535125732422,57.55535125732422,nan,nan,nan,0.0,0.0,1668050466.162431
293943467.0,0.0,57.55390167236328,57.55390167236328,nan,nan,nan,0.0,0.0,1668050466.262488
294043382.0,0.0,57.55341720581055,57.55341720581055,nan,nan,nan,0.0,0.0,1668050466.362403
294143369.0,0.0,57.54664993286133,57.54664993286133,nan,nan,nan,0.0,0.0,1668050466.46239
294243500.0,0.0,57.548099517822266,57.548099517822266,nan,nan,nan,0.0,0.0,1668050466.562521
294343424.0,0.0,57.555030822753906,57.555030822753906,nan,nan,nan,0.0,0.0,1668050466.662445
294443319.0,0.0,57.55099868774414,57.55099868774414,nan,nan,nan,0.0,0.0,1668050466.76234
294543540.0,0.0,57.55099868774414,57.55099868774414,nan,nan,nan,0.0,0.0,1668050466.862561
294643377.0,0.0,57.55679702758789,57.55679702758789,nan,nan,nan,0.0,0.0,1668050466.962398
294743464.0,0.0,57.555030822753906,57.555030822753906,nan,nan,nan,0.0,0.0,1668050467.062485
294843356.0,0.0,57.55825424194336,57.55825424194336,nan,nan,nan,0.0,0.0,1668050467.1623769
294943395.0,0.0,57.55679702758789,57.55679702758789,nan,nan,nan,0.0,0.0,1668050467.262416
295043354.0,0.0,57.556640625,57.556640625,nan,nan,nan,0.0,0.0,1668050467.362375
295143417.0,0.0,57.530696868896484,57.530696868896484,nan,nan,nan,0.0,0.0,1668050467.4624379
295243286.0,0.0,57.52924728393555,57.52924728393555,nan,nan,nan,0.0,0.0,1668050467.562307
295343428.0,0.0,57.52924728393555,57.52924728393555,nan,nan,nan,0.0,0.0,1668050467.662449
295443432.0,0.0,57.53214645385742,57.53214645385742,nan,nan,nan,0.0,0.0,1668050467.762453
295543350.0,0.0,57.5364990234375,57.5364990234375,nan,nan,nan,0.0,0.0,1668050467.862371
295643407.0,0.0,57.534080505371094,57.534080505371094,nan,nan,nan,0.0,0.0,1668050467.962428
295743366.0,0.0,57.53504943847656,57.53504943847656,nan,nan,nan,0.0,0.0,1668050468.062387
295843476.0,0.0,57.53214645385742,57.53214645385742,nan,nan,nan,0.0,0.0,1668050468.162497
295943276.0,0.0,57.53214645385742,57.53214645385742,nan,nan,nan,0.0,0.0,1668050468.262297
296043435.0,0.0,57.532470703125,57.532470703125,nan,nan,nan,0.0,0.0,1668050468.362456
296143288.0,0.0,57.530696868896484,57.530696868896484,nan,nan,nan,0.0,0.0,1668050468.462309
296243467.0,0.0,57.52924728393555,57.52924728393555,nan,nan,nan,0.0,0.0,1668050468.562488
296343430.0,0.0,57.52924728393555,57.52924728393555,nan,nan,nan,0.0,0.0,1668050468.662451
296443444.0,0.0,57.52924728393555,57.52924728393555,nan,nan,nan,0.0,0.0,1668050468.762465
296543463.0,0.0,57.533599853515625,57.533599853515625,nan,nan,nan,0.0,0.0,1668050468.862484
296643403.0,0.0,57.53569030761719,57.53569030761719,nan,nan,nan,0.0,0.0,1668050468.962424
296743432.0,0.0,57.53794860839844,57.53794860839844,nan,nan,nan,0.0,0.0,1668050469.062453
296843362.0,0.0,57.533599853515625,57.533599853515625,nan,nan,nan,0.0,0.0,1668050469.162383
296943388.0,0.0,57.53730773925781,57.53730773925781,nan,nan,nan,0.0,0.0,1668050469.262409
297043363.0,0.0,57.5364990234375,57.5364990234375,nan,nan,nan,0.0,0.0,1668050469.362384
297143531.0,0.0,57.53214645385742,57.53214645385742,nan,nan,nan,0.0,0.0,1668050469.462552
297243455.0,0.0,57.530860900878906,57.530860900878906,nan,nan,nan,0.0,0.0,1668050469.562476
297343390.0,0.0,57.53214645385742,57.53214645385742,nan,nan,nan,0.0,0.0,1668050469.662411
297443457.0,0.0,57.530696868896484,57.530696868896484,nan,nan,nan,0.0,0.0,1668050469.7624779
297543473.0,0.0,57.527793884277344,57.527793884277344,nan,nan,nan,0.0,0.0,1668050469.862494
297643422.0,0.0,57.530860900878906,57.530860900878906,nan,nan,nan,0.0,0.0,1668050469.9624429
297743240.0,0.0,57.52924728393555,57.52924728393555,nan,nan,nan,0.0,0.0,1668050470.062261
297843416.0,0.0,57.52489471435547,57.52489471435547,nan,nan,nan,0.0,0.0,1668050470.162437
297943406.0,0.0,57.52763748168945,57.52763748168945,nan,nan,nan,0.0,0.0,1668050470.262427
298043478.0,0.0,57.5364990234375,57.5364990234375,nan,nan,nan,0.0,0.0,1668050470.362499
298143425.0,0.0,57.54229736328125,57.54229736328125,nan,nan,nan,0.0,0.0,1668050470.462446
298243380.0,0.0,57.53891372680664,57.53891372680664,nan,nan,nan,0.0,0.0,1668050470.562401
298343429.0,0.0,57.54374694824219,57.54374694824219,nan,nan,nan,0.0,0.0,1668050470.66245
298443285.0,0.0,57.54229736328125,57.54229736328125,nan,nan,nan,0.0,0.0,1668050470.762306
298543532.0,0.0,57.54052734375,57.54052734375,nan,nan,nan,0.0,0.0,1668050470.862553
298643382.0,0.0,57.53504943847656,57.53504943847656,nan,nan,nan,0.0,0.0,1668050470.962403
298743435.0,0.0,57.545204162597656,57.545204162597656,nan,nan,nan,0.0,0.0,1668050471.062456
298843440.0,0.0,57.54536056518555,57.54536056518555,nan,nan,nan,0.0,0.0,1668050471.162461
298943477.0,0.0,57.54229736328125,57.54229736328125,nan,nan,nan,0.0,0.0,1668050471.262498
299043514.0,0.0,57.545204162597656,57.545204162597656,nan,nan,nan,0.0,0.0,1668050471.362535
299143384.0,0.0,57.53730773925781,57.53730773925781,nan,nan,nan,0.0,0.0,1668050471.462405
299243528.0,0.0,57.53794860839844,57.53794860839844,nan,nan,nan,0.0,0.0,1668050471.5625489
299343363.0,0.0,57.54374694824219,57.54374694824219,nan,nan,nan,0.0,0.0,1668050471.662384
299443412.0,0.0,57.53569030761719,57.53569030761719,nan,nan,nan,0.0,0.0,1668050471.762433
299543390.0,0.0,57.52054214477539,57.52054214477539,nan,nan,nan,0.0,0.0,1668050471.862411
299643430.0,0.0,57.479942321777344,57.479942321777344,nan,nan,nan,0.0,0.0,1668050471.962451
299743356.0,0.0,57.43095779418945,57.43095779418945,nan,nan,nan,0.0,0.0,1668050472.062377
299843464.0,0.0,57.403079986572266,57.403079986572266,nan,nan,nan,0.0,0.0,1668050472.162485
299943464.0,0.0,57.35377502441406,57.35377502441406,nan,nan,nan,0.0,0.0,1668050472.262485
300043371.0,0.0,57.330570220947266,57.330570220947266,nan,nan,nan,0.0,0.0,1668050472.362392
300143476.0,0.0,57.397117614746094,57.397117614746094,nan,nan,nan,0.0,0.0,1668050472.462497
300243379.0,0.0,57.44658660888672,57.44658660888672,nan,nan,nan,0.0,0.0,1668050472.5624
300343360.0,0.0,57.41323471069336,57.41323471069336,nan,nan,nan,0.0,0.0,1668050472.662381
300443271.0,0.0,57.43417739868164,57.43417739868164,nan,nan,nan,0.0,0.0,1668050472.762292
300543497.0,0.0,57.43208694458008,57.43208694458008,nan,nan,nan,0.0,0.0,1668050472.862518
300643446.0,0.0,57.419029235839844,57.419029235839844,nan,nan,nan,0.0,0.0,1668050472.962467
300743462.0,0.0,57.43256759643555,57.43256759643555,nan,nan,nan,0.0,0.0,1668050473.062483
300843511.0,0.0,57.41323471069336,57.41323471069336,nan,nan,nan,0.0,0.0,1668050473.162532
300943338.0,0.0,57.427734375,57.427734375,nan,nan,nan,0.0,0.0,1668050473.262359
301043543.0,0.0,57.43095779418945,57.43095779418945,nan,nan,nan,0.0,0.0,1668050473.362564
301143394.0,0.0,57.41177749633789,57.41177749633789,nan,nan,nan,0.0,0.0,1668050473.462415
301243370.0,0.0,57.41177749633789,57.41177749633789,nan,nan,nan,0.0,0.0,1668050473.562391
301343573.0,0.0,57.421287536621094,57.421287536621094,nan,nan,nan,0.0,0.0,1668050473.662594
301443520.0,0.0,57.41758346557617,57.41758346557617,nan,nan,nan,0.0,0.0,1668050473.762541
301543442.0,0.0,57.43062973022461,57.43062973022461,nan,nan,nan,0.0,0.0,1668050473.862463
301643497.0,0.0,57.41177749633789,57.41177749633789,nan,nan,nan,0.0,0.0,1668050473.962518
301743356.0,0.0,57.39389419555664,57.39389419555664,nan,nan,nan,0.0,0.0,1668050474.062377
301843330.0,0.0,57.4146842956543,57.4146842956543,nan,nan,nan,0.0,0.0,1668050474.162351
301943418.0,0.0,57.43208694458008,57.43208694458008,nan,nan,nan,0.0,0.0,1668050474.262439
302043278.0,0.0,57.42290115356445,57.42290115356445,nan,nan,nan,0.0,0.0,1668050474.362299
302143429.0,0.0,57.39583206176758,57.39583206176758,nan,nan,nan,0.0,0.0,1668050474.46245
302243382.0,0.0,57.38712692260742,57.38712692260742,nan,nan,nan,0.0,0.0,1668050474.562403
302343497.0,0.0,57.37455749511719,57.37455749511719,nan,nan,nan,0.0,0.0,1668050474.662518
302443263.0,0.0,57.4146842956543,57.4146842956543,nan,nan,nan,0.0,0.0,1668050474.762284
302543469.0,0.0,57.39727783203125,57.39727783203125,nan,nan,nan,0.0,0.0,1668050474.86249
302643514.0,0.0,57.387451171875,57.387451171875,nan,nan,nan,0.0,0.0,1668050474.962535
302743444.0,0.0,57.38422775268555,57.38422775268555,nan,nan,nan,0.0,0.0,1668050475.062465
302843400.0,0.0,57.36537551879883,57.36537551879883,nan,nan,nan,0.0,0.0,1668050475.162421
302943379.0,0.0,57.41162109375,57.41162109375,nan,nan,nan,0.0,0.0,1668050475.2624
303043537.0,0.0,57.37262725830078,57.37262725830078,nan,nan,nan,0.0,0.0,1668050475.362558
303143371.0,0.0,57.3421745300293,57.3421745300293,nan,nan,nan,0.0,0.0,1668050475.462392
303243465.0,0.0,57.377784729003906,57.377784729003906,nan,nan,nan,0.0,0.0,1668050475.562486
303343412.0,0.0,57.34072494506836,57.34072494506836,nan,nan,nan,0.0,0.0,1668050475.662433
303443494.0,0.0,57.37987518310547,57.37987518310547,nan,nan,nan,0.0,0.0,1668050475.762515
303543363.0,0.0,57.31494140625,57.31494140625,nan,nan,nan,0.0,0.0,1668050475.862384
303643370.0,0.0,57.37407684326172,57.37407684326172,nan,nan,nan,0.0,0.0,1668050475.962391
303743411.0,0.0,57.34507369995117,57.34507369995117,nan,nan,nan,0.0,0.0,1668050476.062432
303843409.0,0.0,57.33637237548828,57.33637237548828,nan,nan,nan,0.0,0.0,1668050476.16243
303943400.0,0.0,57.35039138793945,57.35039138793945,nan,nan,nan,0.0,0.0,1668050476.262421
304043279.0,0.0,57.30301284790039,57.30301284790039,nan,nan,nan,0.0,0.0,1668050476.3623
304143506.0,0.0,57.37987518310547,57.37987518310547,nan,nan,nan,0.0,0.0,1668050476.462527
304243408.0,0.0,57.290775299072266,57.290775299072266,nan,nan,nan,0.0,0.0,1668050476.562429
304343569.0,0.0,57.366825103759766,57.366825103759766,nan,nan,nan,0.0,0.0,1668050476.66259
304443402.0,0.0,57.262413024902344,57.262413024902344,nan,nan,nan,0.0,0.0,1668050476.762423
304543433.0,0.0,57.3955078125,57.3955078125,nan,nan,nan,0.0,0.0,1668050476.862454
304643317.0,0.0,57.291419982910156,57.291419982910156,nan,nan,nan,0.0,0.0,1668050476.962338
304743418.0,0.0,57.36102294921875,57.36102294921875,nan,nan,nan,0.0,0.0,1668050477.062439
304843520.0,0.0,57.2666015625,57.2666015625,nan,nan,nan,0.0,0.0,1668050477.162541
304943380.0,0.0,57.36537551879883,57.36537551879883,nan,nan,nan,0.0,0.0,1668050477.262401
305043492.0,0.0,57.30881881713867,57.30881881713867,nan,nan,nan,0.0,0.0,1668050477.362513
305143359.0,0.0,57.356834411621094,57.356834411621094,nan,nan,nan,0.0,0.0,1668050477.46238
305243558.0,0.0,57.2696647644043,57.2696647644043,nan,nan,nan,0.0,0.0,1668050477.562579
305343457.0,0.0,57.33926773071289,57.33926773071289,nan,nan,nan,0.0,0.0,1668050477.662478
