TimeUS,RMSRollP,RMSRollD,RMSPitchP,RMSPitchD,RMSYaw,timestamp
221062004.0,0.0058931391686201096,3.591544373193756e-05,0.0030445470474660397,0.001291185850277543,0.004683630540966988,1668050393.381025
221161613.0,0.005870665889233351,3.224191095796414e-05,0.0031044031493365765,0.0011434905463829637,0.004090478643774986,1668050393.480634
221261655.0,0.005867320578545332,2.7178024538443424e-05,0.002975198905915022,0.0010233016218990088,0.0033709234558045864,1668050393.580676
221361418.0,0.005894779227674007,2.3651593437534757e-05,0.0026882924139499664,0.0009026913321577013,0.002787928096950054,1668050393.680439
221461411.0,0.005862592253834009,2.0624996977858245e-05,0.0028626564890146255,0.0008358550840057433,0.002389084082096815,1668050393.780432
221561475.0,0.005770527757704258,2.2420104869524948e-05,0.002954955445602536,0.0007021243218332529,0.00198413641192019,1668050393.880496
221661407.0,0.005751770921051502,2.0797206161660142e-05,0.0027796116191893816,0.0006144134094938636,0.0016446078661829233,1668050393.980428
221761443.0,0.005692274775356054,3.5045857657678425e-05,0.003033113433048129,0.0006237624329514802,0.0015537416329607368,1668050394.080464
221861359.0,0.005710907746106386,4.8274247092194855e-05,0.0031560896895825863,0.0005429024458862841,0.0013248075265437365,1668050394.1803799
221961759.0,0.0055857691913843155,5.102951399749145e-05,0.003021733835339546,0.0004909314448013902,0.0011471015168353915,1668050394.28078
222061535.0,0.005647149868309498,4.763531615026295e-05,0.0032320229802280664,0.0004943132516928017,0.0010997061617672443,1668050394.3805559
222161496.0,0.005521209444850683,4.658948819269426e-05,0.0032289146911352873,0.0004530957667157054,0.000980768003500998,1668050394.480517
222261417.0,0.00561400456354022,4.3681626266334206e-05,0.003191881813108921,0.00041339077870361507,0.0008102735155262053,1668050394.580438
222361590.0,0.005495874211192131,4.1016457544174045e-05,0.003291563829407096,0.00035032001323997974,0.0010472711874172091,1668050394.680611
222461605.0,0.005601388402283192,4.296019324101508e-05,0.0032227765768766403,0.0003130410623271018,0.0009823361178860068,1668050394.780626
222561473.0,0.005509192124009132,4.504997923504561e-05,0.0032026427797973156,0.00026111354236491024,0.0008891114848665893,1668050394.8804939
222661589.0,0.005540539510548115,4.4427040847949684e-05,0.00320397294126451,0.00022730995260644704,0.001245057792402804,1668050394.98061
222761454.0,0.0056012943387031555,4.2802930693142116e-05,0.0031724011059850454,0.00019730890926439315,0.0010969467693939805,1668050395.080475
222861580.0,0.005502575077116489,4.10245920647867e-05,0.003199840895831585,0.00016758241690695286,0.0009447823977097869,1668050395.180601
222961540.0,0.005619954317808151,3.928136720787734e-05,0.00319069717079401,0.00016181287355720997,0.0012101928004994988,1668050395.280561
223061824.0,0.005541655700653791,3.670363003038801e-05,0.00312051922082901,0.0001474236196372658,0.0011119729606434703,1668050395.380845
223161802.0,0.005603486206382513,3.3494292438263074e-05,0.003157657338306308,0.00015011000505182892,0.0009526315261609852,1668050395.480823
223261608.0,0.005562617909163237,3.077677320106886e-05,0.003123294562101364,0.00015333261399064213,0.0011578386183828115,1668050395.5806289
223361715.0,0.005597033072263002,2.7995914933853783e-05,0.003059737617149949,0.0001531948655610904,0.0010929438285529613,1668050395.680736
223461504.0,0.005585521459579468,2.5260211259592324e-05,0.0031068548560142517,0.00015359703684225678,0.0009204173111356795,1668050395.780525
223561459.0,0.005579594988375902,2.384537765465211e-05,0.003083017421886325,0.00014326734526548535,0.0010404550703242421,1668050395.88048
223661564.0,0.005606784485280514,2.195477281929925e-05,0.003079475136473775,0.00013488656259141862,0.0009569672984071076,1668050395.980585
223761602.0,0.005556734278798103,2.0429122741916217e-05,0.0031088341493159533,0.00012212332512717694,0.0007921549258753657,1668050396.080623
223861468.0,0.005597373470664024,1.8535598428570665e-05,0.003064540447667241,0.00012136611621826887,0.0009369566687382758,1668050396.180489
223961476.0,0.005580014083534479,1.6021485862438567e-05,0.00307298032566905,0.00010945070971501991,0.0009223061497323215,1668050396.280497
224061843.0,0.005608057603240013,1.4309735888673458e-05,0.0030996762216091156,0.00010170980385737494,0.0007592575857415795,1668050396.380864
224161551.0,0.005588018801063299,1.313231678068405e-05,0.0031092679128050804,8.828884165268391e-05,0.0008784719393588603,1668050396.480572
224261475.0,0.0055761984549462795,1.1055647519242484e-05,0.0031378776766359806,8.228563092416152e-05,0.0008950224728323519,1668050396.580496
227273664.0,0.005586155224591494,4.107454515178688e-05,0.002801385475322604,0.000525150797329843,0.00509054958820343,1668050399.592685
227373476.0,0.0057888878509402275,4.4194395741214976e-05,0.0026737721636891365,0.0004685200401581824,0.004225021228194237,1668050399.692497
227473540.0,0.005798142869025469,3.867555278702639e-05,0.002592818345874548,0.00045292641152627766,0.00399165041744709,1668050399.792561
227573570.0,0.005800937302410603,3.331312473164871e-05,0.0027311136946082115,0.0004394948482513428,0.003360897535458207,1668050399.892591
227673413.0,0.005783035885542631,2.9755856303381734e-05,0.0027996583376079798,0.00038649950874969363,0.002844893140718341,1668050399.992434
227773454.0,0.005743806716054678,2.595306796138175e-05,0.002837711712345481,0.00036505662137642503,0.0027684560045599937,1668050400.092475
227873508.0,0.005696373991668224,2.4906352336984128e-05,0.002983869519084692,0.00033340067602694035,0.0023532183840870857,1668050400.192529
227973384.0,0.005620498210191727,2.250001853099093e-05,0.003034196561202407,0.0002921207051258534,0.0020090152975171804,1668050400.292405
228073566.0,0.005642376374453306,1.990981945709791e-05,0.003061961382627487,0.0002612867101561278,0.0020526491571217775,1668050400.392587
228173656.0,0.005551259033381939,2.1043417291366495e-05,0.0031725980807095766,0.00023457480710931122,0.0017724359640851617,1668050400.492677
228273357.0,0.00555488420650363,2.0401927031343803e-05,0.003229997120797634,0.00021364232816267759,0.0015148752136155963,1668050400.592378
228373444.0,0.00555393984541297,1.718708881526254e-05,0.003201853483915329,0.00019760358554776758,0.0016544711543247104,1668050400.692465
228473549.0,0.005535443313419819,1.4889162230247166e-05,0.0032591691706329584,0.00018113369878847152,0.00147344043944031,1668050400.7925699
228573552.0,0.00551645876839757,1.2845174751419108e-05,0.0032732500694692135,0.00017415428010281175,0.0012643557274714112,1668050400.8925729
228673684.0,0.00551179051399231,1.2560169125208631e-05,0.003227140288800001,0.0001629716280149296,0.0014215410919860005,1668050400.9927049
228773623.0,0.005512016359716654,1.0841065886779688e-05,0.003245375584810972,0.0001420232729287818,0.0012901142472401261,1668050401.092644
228873462.0,0.005502376705408096,9.271399903809652e-06,0.0032458649948239326,0.00017003486573230475,0.0010819659801200032,1668050401.192483
228973444.0,0.005535183474421501,9.787167073227465e-06,0.003197168232873082,0.000151144849951379,0.0012190407142043114,1668050401.292465
229073583.0,0.005490385461598635,1.3116487025399692e-05,0.003227127017453313,0.00014412729069590569,0.0011347999097779393,1668050401.3926039
229173453.0,0.005496214143931866,1.3959707757749129e-05,0.00321145704947412,0.00012885488104075193,0.0009424892487004399,1668050401.492474
229273471.0,0.0055153863504529,1.2253801287442911e-05,0.0031895239371806383,0.000132648172439076,0.0010779452277347445,1668050401.592492
229373430.0,0.005500731989741325,1.0644761459843721e-05,0.00319139426574111,0.00011468947195680812,0.0010500383796170354,1668050401.692451
229473505.0,0.00550888990983367,9.260730621463154e-06,0.0031971323769539595,9.964201308321208e-05,0.0008689910173416138,1668050401.792526
229573503.0,0.005511882249265909,7.76300294091925e-06,0.0031729722395539284,0.00011040612298529595,0.0009692999301478267,1668050401.892524
229673520.0,0.0055160257034003735,6.566290721821133e-06,0.0031750539783388376,9.467122436035424e-05,0.0009526476496830583,1668050401.992541
229773487.0,0.005512463394552469,6.7913915700046346e-06,0.003150423290207982,9.483965550316498e-05,0.0007832493865862489,1668050402.092508
229873319.0,0.005540080368518829,7.147061751311412e-06,0.003131006145849824,8.979038830148056e-05,0.0008932860800996423,1668050402.19234
229973419.0,0.00552871311083436,7.422669114021119e-06,0.00312381936237216,8.291877747979015e-05,0.000896545359864831,1668050402.29244
230073570.0,0.005502528976649046,6.937793386896374e-06,0.0031139617785811424,8.357649494428188e-05,0.0007372496766038239,1668050402.392591
233087142.0,0.005768215749412775,5.532928116736002e-05,0.0021669017150998116,0.0006694936309941113,0.004878147970885038,1668050405.406163
233186892.0,0.005803470034152269,4.838997847400606e-05,0.0022303201258182526,0.0006822419818490744,0.004151210654526949,1668050405.505913
233286787.0,0.0058062197640538216,4.0628903661854565e-05,0.0021897233091294765,0.00060654227854684,0.0034462502226233482,1668050405.605808
233387142.0,0.005847368389368057,3.4447362850187346e-05,0.0023092012852430344,0.0005867732688784599,0.0029036318883299828,1668050405.706163
233486958.0,0.005773722194135189,3.087140430579893e-05,0.0025031401310116053,0.0005426876014098525,0.002417532727122307,1668050405.805979
233586941.0,0.0057647377252578735,3.1374365789815784e-05,0.0025152028538286686,0.00047110626474022865,0.0019996624905616045,1668050405.905962
233686902.0,0.005773470737040043,4.2209616367472336e-05,0.002627453999593854,0.0004263960290700197,0.0018282248638570309,1668050406.005923
233786898.0,0.00573491957038641,7.855377771193162e-05,0.00274304929189384,0.000490558217279613,0.0016016344306990504,1668050406.105919
233886763.0,0.005614143330603838,9.414373926119879e-05,0.0028595554176717997,0.0006290453020483255,0.0014209424844011664,1668050406.205784
233986782.0,0.0055552879348397255,9.719878289615735e-05,0.003025520360097289,0.0006146363448351622,0.001246486441232264,1668050406.305803
234086876.0,0.005613663699477911,8.443742990493774e-05,0.003058933885768056,0.0005979250418022275,0.0011854832991957664,1668050406.405897
234186796.0,0.005476029589772224,7.398788875434548e-05,0.0030468583572655916,0.0005428129807114601,0.0010578751098364592,1668050406.505817
234286795.0,0.005585283041000366,7.395533611997962e-05,0.003082297509536147,0.00046391275827772915,0.0011007199063897133,1668050406.605816
234387332.0,0.0055069588124752045,6.664744432782754e-05,0.0030649735126644373,0.0004191313055343926,0.0009255615877918899,1668050406.706353
234486811.0,0.005608560051769018,6.10640345257707e-05,0.0031391282100230455,0.0003884543548338115,0.0008402037783525884,1668050406.805832
234586995.0,0.005507039371877909,6.011390723870136e-05,0.0031080562621355057,0.0003612716100178659,0.0007566063432022929,1668050406.9060159
234686850.0,0.005663279909640551,5.386080010794103e-05,0.00310761877335608,0.00030672765569761395,0.0010156306670978665,1668050407.005871
234786811.0,0.005457665305584669,6.05220120633021e-05,0.0031882943585515022,0.00032101041870191693,0.0009098266600631177,1668050407.105832
234886855.0,0.005646437872201204,6.52411617920734e-05,0.003035973524674773,0.00031233500340022147,0.0010080129140987992,1668050407.2058759
234986781.0,0.005554502829909325,7.04452904756181e-05,0.00314847263507545,0.0003736384096555412,0.0012978824088349938,1668050407.3058019
235086902.0,0.005512117873877287,6.448420754168183e-05,0.0032082945108413696,0.00033719121711328626,0.001298330957069993,1668050407.405923
235186943.0,0.005648632999509573,5.9747384511865675e-05,0.003006855957210064,0.00035911123268306255,0.0014199011493474245,1668050407.505964
235287092.0,0.005533637013286352,5.415481064119376e-05,0.0031050413381308317,0.00037226034328341484,0.001887441729195416,1668050407.606113
235387234.0,0.005614405497908592,4.7881603677524254e-05,0.003184604924172163,0.00034460017923265696,0.0018748652655631304,1668050407.706255
235486929.0,0.005569433327764273,4.10616303270217e-05,0.0030504707247018814,0.0003241735394112766,0.0017952759517356753,1668050407.80595
235586811.0,0.005629280582070351,3.5089728044113144e-05,0.0031156872864812613,0.00031527792452834547,0.00212807091884315,1668050407.905832
235686840.0,0.005580446217209101,3.16435398417525e-05,0.003128766780719161,0.0002782811061479151,0.0018645571544766426,1668050408.005861
238399179.0,0.00596177764236927,3.6298210034146905e-05,0.002161857672035694,0.0005123090813867748,0.004296472296118736,1668050410.7182
238499537.0,0.005952140782028437,3.317168011562899e-05,0.0021844739094376564,0.0004490384308155626,0.003675587009638548,1668050410.818558
238598880.0,0.005938120186328888,3.360533810337074e-05,0.0021049019414931536,0.00041183785651810467,0.003084176452830434,1668050410.917901
238699071.0,0.00587454903870821,3.949106394429691e-05,0.0022545335814356804,0.0003759837709367275,0.002547730691730976,1668050411.018092
238799013.0,0.005847444757819176,3.7952238926663995e-05,0.002232033060863614,0.0003426645998843014,0.002097833203151822,1668050411.118034
238899097.0,0.0058449325151741505,3.2507890864508227e-05,0.002337659941986203,0.0003274361661169678,0.0017893054755404592,1668050411.218118
238999009.0,0.0057428753934800625,3.44074796885252e-05,0.0026630619540810585,0.0004640044062398374,0.0015038225101307034,1668050411.3180299
239098922.0,0.005695145111531019,4.286034163669683e-05,0.00265103904530406,0.0004360374587122351,0.0012633916921913624,1668050411.417943
239198974.0,0.005792833399027586,5.162770321476273e-05,0.002716328715905547,0.00037546895327977836,0.0012018895940855145,1668050411.5179949
239298965.0,0.005600338336080313,6.309426680672914e-05,0.002945644548162818,0.0003595753514673561,0.0010301460279151797,1668050411.617986
239398998.0,0.005729660391807556,6.29036221653223e-05,0.002835017628967762,0.00046477047726511955,0.0009290444431826472,1668050411.718019
239499065.0,0.005562081467360258,6.335101352306083e-05,0.0029085364658385515,0.000563624722417444,0.0007971440209075809,1668050411.818086
239599066.0,0.0056931800208985806,6.071034658816643e-05,0.0031180980149656534,0.0005179161089472473,0.0009313618065789342,1668050411.918087
239699141.0,0.005534309893846512,5.736909224651754e-05,0.002910987939685583,0.0005888401065021753,0.0008807574631646276,1668050412.018162
239799031.0,0.005716939456760883,5.875616625417024e-05,0.003036310663446784,0.0005504981963895261,0.0007990070153027773,1668050412.118052
239898896.0,0.005540750455111265,6.533322448376566e-05,0.0030076554976403713,0.000541774439625442,0.001371858175843954,1668050412.217917
239999068.0,0.005627210717648268,6.75202754791826e-05,0.00291960290633142,0.0004669515765272081,0.0013435990549623966,1668050412.318089
240099010.0,0.0056274025700986385,6.34933530818671e-05,0.003075825981795788,0.0005048810853622854,0.0014043350238353014,1668050412.418031
240198909.0,0.005572498310357332,5.827435961691663e-05,0.0029860741924494505,0.0004461420467123389,0.0020108616445213556,1668050412.51793
240298899.0,0.00566241517663002,5.50392251170706e-05,0.002945607528090477,0.0004642017593141645,0.0019155925838276744,1668050412.61792
240399111.0,0.0055267782881855965,5.2881416195305064e-05,0.0030711411964148283,0.00039744091918691993,0.0017476760549470782,1668050412.718132
240499099.0,0.0056787533685564995,5.055421206634492e-05,0.0029498194344341755,0.00040385787724517286,0.0020550047047436237,1668050412.81812
240599226.0,0.0055923317559063435,4.677538890973665e-05,0.002902602544054389,0.0003482182219158858,0.0017736736917868257,1668050412.918247
240699064.0,0.005621914751827717,4.212951535009779e-05,0.0029864057432860136,0.0003367215394973755,0.0015386850573122501,1668050413.018085
240799205.0,0.005648295860737562,3.663051393232308e-05,0.0028753106016665697,0.00031932094134390354,0.0017154671950265765,1668050413.118226
240898983.0,0.005599788390100002,3.1095089070731774e-05,0.0028813013341277838,0.00032871015719138086,0.0014865477569401264,1668050413.218004
240999053.0,0.005618833936750889,2.5951434508897364e-05,0.002985517494380474,0.0002876262878999114,0.0013039449695497751,1668050413.318074
241099055.0,0.005597600247710943,2.174038854718674e-05,0.002871268428862095,0.00029714012634940445,0.001526283915154636,1668050413.418076
241199029.0,0.005612257402390242,1.8269740394316614e-05,0.002879287349060178,0.0002761673822533339,0.0013232878409326077,1668050413.51805
241299090.0,0.005576152354478836,1.6312960724462755e-05,0.002918520476669073,0.0002452041080687195,0.0011358512565493584,1668050413.618111
241399123.0,0.005614295601844788,1.6077205145847984e-05,0.0028359636198729277,0.00021835188090335578,0.001293990877456963,1668050413.718144
241499370.0,0.005593510810285807,1.7067462977138348e-05,0.0028769532218575478,0.0002106805914081633,0.0011228839866816998,1668050413.818391
241599003.0,0.005569211672991514,1.812918890209403e-05,0.0029239009600132704,0.00019693416834343225,0.0009442625450901687,1668050413.918024
241698893.0,0.0056295194663107395,1.9364448235137388e-05,0.0028441715985536575,0.00020042748656123877,0.0011126911267638206,1668050414.017914
241798908.0,0.0055813235230743885,1.8341979739489034e-05,0.002886942122131586,0.00019480063929222524,0.0010203372221440077,1668050414.117929
241898899.0,0.005611262749880552,1.64940174727235e-05,0.0028991454746574163,0.00017384879174642265,0.0008495466317981482,1668050414.21792
241999165.0,0.005587110761553049,1.4836404261586722e-05,0.002871874952688813,0.00014921461115591228,0.0009924694895744324,1668050414.318186
242099132.0,0.005595936439931393,1.2785915714630391e-05,0.002900667255744338,0.00013539924111682922,0.0009207511902786791,1668050414.418153
242199077.0,0.005570536013692617,1.1846072084154002e-05,0.0029111849144101143,0.00012571191473398358,0.0007647878956049681,1668050414.5180979
242298940.0,0.005604396108537912,1.1526524758664891e-05,0.002875343896448612,0.00012081457680324093,0.0008994151139631867,1668050414.617961
242399194.0,0.005594425834715366,1.1999348316749092e-05,0.002880015643313527,0.00012068856449332088,0.0008526691235601902,1668050414.718215
242499250.0,0.005594701040536165,1.1872080904140603e-05,0.00291805318556726,0.00011443543917266652,0.0007014904404059052,1668050414.818271
242598853.0,0.0056293136440217495,1.0712489711295348e-05,0.0028942301869392395,0.00010288792691426352,0.0008259023306891322,1668050414.917874
242699122.0,0.005620240233838558,9.711471648188308e-06,0.0029223139863461256,0.00011252747935941443,0.0008150771027430892,1668050415.018143
242799123.0,0.005608059000223875,8.223517397709657e-06,0.00295153702609241,9.79628021013923e-05,0.0006855608080513775,1668050415.118144
242899200.0,0.005603769328445196,7.290832400030922e-06,0.002938303630799055,9.132898412644863e-05,0.0008188034989871085,1668050415.218221
242999195.0,0.005603364203125238,6.167301307868911e-06,0.0029555861838161945,0.00010174626368097961,0.0008191041415557265,1668050415.318216
243099089.0,0.0056086573749780655,5.707450782210799e-06,0.0029585633892565966,9.592401329427958e-05,0.000679779623169452,1668050415.41811
243198923.0,0.0056174262426793575,5.6047683756332844e-06,0.0029202764853835106,9.275082993553951e-05,0.0007543096435256302,1668050415.517944
243299127.0,0.005603475961834192,5.557118129217997e-06,0.0029440559446811676,9.00028899195604e-05,0.000755234737880528,1668050415.618148
243398967.0,0.005607172381132841,5.0824664867832325e-06,0.002957956399768591,7.55610890337266e-05,0.0006280158995650709,1668050415.717988
246511216.0,0.006076987832784653,2.204864904342685e-05,0.0018523669568821788,0.0004345767665654421,0.0046095107682049274,1668050418.830237
246610973.0,0.006098115351051092,2.271989251312334e-05,0.0019184446427971125,0.00047925059334374964,0.003905485849827528,1668050418.9299939
246711028.0,0.006052726414054632,1.9738658011192456e-05,0.0019179288065060973,0.0004880210035480559,0.0032907421700656414,1668050419.030049
246810804.0,0.0060431985184550285,1.9101758880424313e-05,0.0020565118174999952,0.0005222985055297613,0.0026996906381100416,1668050419.1298249
246910897.0,0.005976703017950058,1.8682108930079266e-05,0.00230358331464231,0.0005308506079018116,0.0022914365399628878,1668050419.229918
247010788.0,0.005970414262264967,2.3143604266806506e-05,0.0022210050374269485,0.0005769290728494525,0.00193455396220088,1668050419.329809
247110843.0,0.00584145775064826,3.151338387397118e-05,0.002372753107920289,0.000519455992616713,0.001623464748263359,1668050419.429864
247210999.0,0.005847931373864412,3.31597329932265e-05,0.0025924702640622854,0.000504065421409905,0.0013747850898653269,1668050419.53002
247310899.0,0.005763762164860964,3.149994518025778e-05,0.0025579307693988085,0.0004393605631776154,0.0012457224074751139,1668050419.62992
247410734.0,0.005757720209658146,2.8553069569170475e-05,0.0027200928889214993,0.0004562836838886142,0.0010329564101994038,1668050419.729755
247510752.0,0.00566148804500699,2.9651791919604875e-05,0.002882234752178192,0.00039116997504606843,0.001042760326527059,1668050419.829773
247610781.0,0.005715973675251007,3.100083631579764e-05,0.0027061812579631805,0.0004523490206338465,0.000873694836627692,1668050419.929802
247710972.0,0.005668137222528458,3.262913742219098e-05,0.002900734543800354,0.00045973117812536657,0.0009422485600225627,1668050420.029993
247810807.0,0.005663665942847729,3.381091664778069e-05,0.0029331299010664225,0.00045361029333435,0.0008737265598028898,1668050420.129828
247910864.0,0.005732031539082527,3.568618558347225e-05,0.0027940443251281977,0.000417609786381945,0.0007947299745865166,1668050420.229885
248010817.0,0.005644204095005989,3.5336179280420765e-05,0.0030144392512738705,0.00043252340401522815,0.0011054683709517121,1668050420.329838
248110935.0,0.005714060738682747,3.175751044182107e-05,0.002930024638772011,0.0004439848707988858,0.0009715658379718661,1668050420.429956
248211181.0,0.005663026124238968,2.8461341571528465e-05,0.0027999638114124537,0.0004313323588576168,0.0009117163135670125,1668050420.530202
248310766.0,0.005703060422092676,2.4781769752735272e-05,0.002974670147523284,0.0004160538373980671,0.0012500478187575936,1668050420.629787
248410957.0,0.0056640650145709515,2.2254154828260653e-05,0.0028407147619873285,0.0004273263330105692,0.0010650258045643568,1668050420.729978
248510833.0,0.005711430683732033,2.2489961338578723e-05,0.002767990343272686,0.00039366635610349476,0.0009242371888831258,1668050420.829854
248610811.0,0.005693407729268074,2.0998893887735903e-05,0.0028952453285455704,0.0003606244281399995,0.0011574384989216924,1668050420.929832
248711006.0,0.00569568295031786,1.8992821424035355e-05,0.0027711065486073494,0.00034939401666633785,0.0009987899102270603,1668050421.030027
248810806.0,0.005723410286009312,1.7635367839829996e-05,0.002758946968242526,0.00031434083939529955,0.0008794404566287994,1668050421.129827
248910778.0,0.005674724001437426,1.6453499483759515e-05,0.002867150818929076,0.000287618167931214,0.001134073711000383,1668050421.229799
249011023.0,0.005728870164602995,1.765697197697591e-05,0.002750442363321781,0.0002898736856877804,0.0009719118825159967,1668050421.330044
249110865.0,0.005701540969312191,1.6086700270534493e-05,0.002762406598776579,0.0002955558302346617,0.0008668955997563899,1668050421.429886
249210848.0,0.00572910625487566,1.4349328012031037e-05,0.002867012284696102,0.0002530252968426794,0.0010771327652037144,1668050421.529869
249310915.0,0.005714247934520245,1.2528302249847911e-05,0.0027835811488330364,0.0002601220621727407,0.0009251462179236114,1668050421.629936
249410904.0,0.005737560335546732,1.1788585652539041e-05,0.002756251022219658,0.00023325729125645012,0.0007989380392245948,1668050421.729925
249510756.0,0.005715605802834034,1.0715815733419731e-05,0.002861542161554098,0.00025162467500194907,0.0009963297052308917,1668050421.829777
249610842.0,0.005710381083190441,9.079275514523033e-06,0.002772107720375061,0.0002449495659675449,0.0008641775348223746,1668050421.929863
249710858.0,0.005721884313970804,9.507290087640285e-06,0.002788643352687359,0.00024281615333165973,0.0007526823901571333,1668050422.029879
249810919.0,0.00569156464189291,8.879363122105133e-06,0.0028803593013435602,0.00021893216762691736,0.0009103552438318729,1668050422.12994
252823060.0,0.006300047505646944,1.5898629499133676e-05,0.0018815557705238461,0.0004780336166732013,0.004715151619166136,1668050425.142081
252922772.0,0.006280470639467239,1.4697604456159752e-05,0.0020003237295895815,0.0005080318078398705,0.004428431857377291,1668050425.241793
253022768.0,0.006230328232049942,1.3278179721964989e-05,0.0019298236584290862,0.000541951390914619,0.003707132302224636,1668050425.341789
253122779.0,0.006190178915858269,1.197689834953053e-05,0.0019196306820958853,0.0005412228056229651,0.0030442068818956614,1668050425.4417999
253222910.0,0.006127674598246813,1.3321139704203233e-05,0.0021719299256801605,0.0004988561267964542,0.0026314330752938986,1668050425.541931
253322782.0,0.0060604168102145195,1.578035698912572e-05,0.002165836514905095,0.0004490437568165362,0.0021987820509821177,1668050425.641803
253422758.0,0.005983299575746059,1.7794372979551554e-05,0.002288909861817956,0.0004468641709536314,0.0018023032462224364,1668050425.741779
253522763.0,0.005891700740903616,1.5497367712669075e-05,0.0025821803137660027,0.00043477959115989506,0.0016877427697181702,1668050425.841784
253622767.0,0.005876259412616491,1.6025926015572622e-05,0.0025321950670331717,0.0004245474992785603,0.0014289175160229206,1668050425.941788
253722978.0,0.005810100585222244,1.5640296624042094e-05,0.0026584300212562084,0.00041600054828450084,0.0011783515801653266,1668050426.041999
253822737.0,0.005773215554654598,1.3313072486198507e-05,0.0028361952863633633,0.0003533405251801014,0.0012041510781273246,1668050426.141758
253922782.0,0.005800633691251278,1.3779553228232544e-05,0.00272163818590343,0.00036658349563367665,0.0010557667119428515,1668050426.241803
254022841.0,0.005747042130678892,1.4573817679774947e-05,0.0028042756021022797,0.0003660859656520188,0.0008959019905887544,1668050426.341862
254122943.0,0.005753959994763136,1.2833284017688129e-05,0.002867473755031824,0.00033443461870774627,0.0009571717237122357,1668050426.441964
254222679.0,0.005734981037676334,1.2150880138506182e-05,0.0027414511423557997,0.0003184496599715203,0.0008257139706984162,1668050426.5417
254322738.0,0.005767440423369408,1.1746374184440356e-05,0.0028421899769455194,0.000309287803247571,0.000737151363864541,1668050426.641759
254422798.0,0.005760199390351772,1.3216937986726407e-05,0.0028279409743845463,0.0003070332750212401,0.0007476258906535804,1668050426.741819
254522734.0,0.005791568197309971,1.2666764632740524e-05,0.002763818483799696,0.0002796198823489249,0.0006839872221462429,1668050426.841755
254622773.0,0.005770918447524309,1.5637968317605555e-05,0.002880216110497713,0.00026579073164612055,0.0006669196882285178,1668050426.941794
254722744.0,0.0057766009122133255,1.6659834727761336e-05,0.002826327458024025,0.0002732079883571714,0.0006263326504267752,1668050427.041765
254822681.0,0.00581722054630518,1.5027611880213954e-05,0.002774849534034729,0.0002698489697650075,0.0005589159554801881,1668050427.141702
254922818.0,0.00577701348811388,1.483830146753462e-05,0.002906050533056259,0.00025677820667624474,0.0006657111225649714,1668050427.241839
255022883.0,0.005834116600453854,1.555166090838611e-05,0.0028017405420541763,0.0002899840474128723,0.000621534651145339,1668050427.341904
255122778.0,0.005815885495394468,1.47897108035977e-05,0.002798603381961584,0.00028818799182772636,0.0005993928061798215,1668050427.441799
255222681.0,0.005813326220959425,1.428096857125638e-05,0.002918022219091654,0.000268998701358214,0.0006948832306079566,1668050427.541702
255322740.0,0.005837724078446627,1.3071803550701588e-05,0.0027973726391792297,0.0002894467324949801,0.0006160429329611361,1668050427.641761
255422775.0,0.005828127730637789,1.1665933016047347e-05,0.002840296132490039,0.0002957490214612335,0.0005786687834188342,1668050427.741796
255522784.0,0.00582512840628624,9.933464752975851e-06,0.002916724653914571,0.0002800077199935913,0.0006289347657002509,1668050427.841805
258434944.0,0.006285692099481821,3.026485319423955e-05,0.002075829077512026,0.00020668443175964057,0.004557065200060606,1668050430.753965
258534908.0,0.006364607717841864,2.8981159630347975e-05,0.002097733784466982,0.00019476130546536297,0.0040250420570373535,1668050430.853929
258634877.0,0.0063046966679394245,2.98661325359717e-05,0.002042730338871479,0.00020866097474936396,0.003325540805235505,1668050430.953898
258735117.0,0.006310256663709879,2.772651714622043e-05,0.0020538049284368753,0.0001949384022736922,0.0027719864156097174,1668050431.054138
258834850.0,0.006275956053286791,2.4768407456576824e-05,0.002235991880297661,0.0002299060724908486,0.002296319231390953,1668050431.153871
258934908.0,0.006130511872470379,3.641184594016522e-05,0.0023132716305553913,0.00020484156266320497,0.0019018006278201938,1668050431.253929
259034800.0,0.006089536938816309,5.063094067736529e-05,0.002447875216603279,0.00020818367192987353,0.0016256151720881462,1668050431.353821
259134806.0,0.006072876509279013,4.7122040996327996e-05,0.00260184146463871,0.00020371768914628774,0.0014079308602958918,1668050431.453827
259234949.0,0.005944619420915842,4.4448566768551245e-05,0.002697358839213848,0.00020284538913983852,0.0011872121831402183,1668050431.55397
259334819.0,0.005983918439596891,4.426484520081431e-05,0.002766804303973913,0.00019339147547725588,0.0009984197095036507,1668050431.65384
259434991.0,0.005848103202879429,4.177482696832158e-05,0.0028809774667024612,0.0001687960175331682,0.0010017147287726402,1668050431.7540119
259534859.0,0.005944041535258293,4.057581099914387e-05,0.002886577043682337,0.00015824000001884997,0.000865513808093965,1668050431.85388
259635040.0,0.0058169555850327015,4.152389374212362e-05,0.002970093162730336,0.00014840057701803744,0.0008273388957604766,1668050431.954061
259734852.0,0.005930101964622736,4.8958263505483046e-05,0.0029562877025455236,0.0001627948076929897,0.000999865005724132,1668050432.053873
259834855.0,0.0058790273033082485,5.200461600907147e-05,0.0029624339658766985,0.00014365350943990052,0.0008333579753525555,1668050432.153876
259934812.0,0.00583052821457386,5.037452865508385e-05,0.0030478353146463633,0.0001480330538470298,0.0008556035463698208,1668050432.253833
260034844.0,0.005932346452027559,4.754730616696179e-05,0.0029580160044133663,0.00018560924218036234,0.0010186794679611921,1668050432.353865
260134930.0,0.005828717723488808,4.3067720980616286e-05,0.002950371475890279,0.000194300664588809,0.0008583327871747315,1668050432.453951
260234808.0,0.005922613199800253,3.983873102697544e-05,0.00302451616153121,0.00020299365860410035,0.0007844328065402806,1668050432.553829
260334797.0,0.0058663575910031796,3.597608156269416e-05,0.002921563107520342,0.0002124350576195866,0.0010814962442964315,1668050432.653818
260434890.0,0.005909624043852091,3.1850955565460026e-05,0.0029530292376875877,0.00020757204038091004,0.0009276110213249922,1668050432.753911
260535008.0,0.005894065368920565,2.85711394099053e-05,0.0029715346172451973,0.000188077159691602,0.0008356833131983876,1668050432.854029
260634817.0,0.00589635269716382,2.5839717636699788e-05,0.0029004784300923347,0.00017588889750186354,0.001079099252820015,1668050432.9538379
260734888.0,0.005922853015363216,2.318844235560391e-05,0.002937614219263196,0.00016530649736523628,0.0009110808605328202,1668050433.053909
260834815.0,0.005894058849662542,2.2069407350500114e-05,0.0029074298217892647,0.00016596227942500263,0.0007820302853360772,1668050433.153836
260934802.0,0.005956535693258047,2.015416612266563e-05,0.0028454868588596582,0.0001539242366561666,0.0008929326431825757,1668050433.253823
261034820.0,0.0058969310484826565,2.0799248886760324e-05,0.0029252024833112955,0.00016359046276193112,0.0007946713594719768,1668050433.353841
261134963.0,0.005937478970736265,1.989643533306662e-05,0.0028922157362103462,0.00016112334560602903,0.0006805937155149877,1668050433.453984
261234795.0,0.005921515636146069,1.8613138308865018e-05,0.0028504871297627687,0.0001477906625950709,0.0008271188125945628,1668050433.553816
261334970.0,0.005918603390455246,1.7247368305106647e-05,0.0029116736259311438,0.00016122237138915807,0.0007664287113584578,1668050433.653991
261434954.0,0.005932308267802,1.561243880132679e-05,0.002847955096513033,0.00015900448488537222,0.000667612359393388,1668050433.753975
261534994.0,0.005912235006690025,1.5299672668334097e-05,0.0028362704906612635,0.00014397611084859818,0.0008201533346436918,1668050433.8540149
261634788.0,0.005934365559369326,1.4629496035922784e-05,0.0028809772338718176,0.0001294752728426829,0.0007563550607301295,1668050433.953809
261734842.0,0.005928006488829851,1.3840459359926172e-05,0.0028230028692632914,0.00013352073437999934,0.0006423878367058933,1668050434.053863
261834919.0,0.005948010366410017,1.1758635082514957e-05,0.0028375922702252865,0.00013055710587650537,0.0007410034304484725,1668050434.15394
261934814.0,0.005917559377849102,1.2115890058339573e-05,0.002862886991351843,0.00013069405395071954,0.0007089097634889185,1668050434.253835
262034884.0,0.005954788997769356,1.1701271432684734e-05,0.0028233721386641264,0.00012060896551702172,0.0006038289866410196,1668050434.353905
262134840.0,0.00593268359079957,1.1928546882700175e-05,0.0028598790522664785,0.0001250722270924598,0.0007249018526636064,1668050434.453861
262234825.0,0.005928975064307451,1.0090661817230284e-05,0.0028672737535089254,0.0001145861970144324,0.0007084014359861612,1668050434.553846
262334990.0,0.005916861817240715,9.162776223092806e-06,0.002829211065545678,0.00010703202860895544,0.0006062983884476125,1668050434.654011
262434909.0,0.005911205429583788,8.9005843619816e-06,0.0028669366147369146,0.00010847225348697975,0.0007322822930291295,1668050434.75393
262534818.0,0.005918977316468954,7.67863093642518e-06,0.0028642453253269196,0.00011799774802057073,0.0007134480401873589,1668050434.853839
262634843.0,0.0059160105884075165,7.272512903000461e-06,0.0028530729468911886,0.00011268672096775845,0.0006341520347632468,1668050434.953864
262734852.0,0.005918868351727724,6.115423275332432e-06,0.0028860107995569706,9.908946958603337e-05,0.0007222951971925795,1668050435.053873
262834932.0,0.005915401969105005,5.486718237079913e-06,0.002886080415919423,8.850476297084242e-05,0.0006945974309928715,1668050435.153953
262934820.0,0.005911234766244888,5.598937150352867e-06,0.0028831753879785538,8.588020136812702e-05,0.000608061149250716,1668050435.253841
263034875.0,0.00589395547285676,5.695834261132404e-06,0.002890749601647258,7.224700675578788e-05,0.0006769668543711305,1668050435.353896
263134828.0,0.005924084223806858,6.9451157287403475e-06,0.002866503782570362,6.77898497087881e-05,0.0006610618438571692,1668050435.453849
263234967.0,0.005933369044214487,6.1457985793822445e-06,0.002881463384255767,6.846318865427747e-05,0.0005842351820319891,1668050435.553988
263334852.0,0.0059317066334187984,6.038479568815092e-06,0.00290859118103981,6.938158912817016e-05,0.0006807835306972265,1668050435.653873
263435003.0,0.005928685888648033,5.914292160014156e-06,0.0028889367822557688,7.234681834233925e-05,0.0006434976821765304,1668050435.754024
263535061.0,0.005931145511567593,5.1424021876300685e-06,0.0029039219953119755,7.515092875109985e-05,0.0005690320977009833,1668050435.8540819
263634916.0,0.005929877050220966,4.8834185690793674e-06,0.0029151118360459805,6.756225775461644e-05,0.0006546190707013011,1668050435.953937
263734832.0,0.005940083414316177,4.6580389607697725e-06,0.0028850773815065622,6.867825868539512e-05,0.0006441348232328892,1668050436.053853
263834838.0,0.0059389378875494,4.2856163418036886e-06,0.0028978821355849504,6.52632224955596e-05,0.0006153492722660303,1668050436.153859
263934839.0,0.005938311107456684,3.796986902671051e-06,0.0028772451914846897,7.82712158979848e-05,0.0006736869690939784,1668050436.25386
264034889.0,0.005927298218011856,3.960531557822833e-06,0.0028690930921584368,7.069628190947697e-05,0.0006688330904580653,1668050436.35391
264134963.0,0.0059137712232768536,4.20692458646954e-06,0.002913814503699541,7.59827162255533e-05,0.000634805706795305,1668050436.453984
264234772.0,0.005913476459681988,3.7082552353240317e-06,0.0028865959029644728,8.214888657676056e-05,0.0007015169830992818,1668050436.553793
264334789.0,0.00591121893376112,3.5437094538792735e-06,0.0028978853952139616,7.569228910142556e-05,0.0006967212539166212,1668050436.65381
264434856.0,0.005917651578783989,3.70890597878315e-06,0.0029480494558811188,7.918682240415365e-05,0.0006642272928729653,1668050436.753877
264534872.0,0.005931810941547155,5.045633315603482e-06,0.0029317173175513744,8.151042129611596e-05,0.000709610350895673,1668050436.853893
264634819.0,0.005910488311201334,7.1311910687654745e-06,0.002934162737801671,7.14663474354893e-05,0.0007232414791360497,1668050436.95384
264734859.0,0.005909708794206381,6.10787083132891e-06,0.0029687436763197184,7.850487600080669e-05,0.0006540247704833746,1668050437.05388
264834787.0,0.005902430973947048,5.63745879844646e-06,0.0029169099871069193,9.366067388327792e-05,0.0006286759744398296,1668050437.1538079
264934769.0,0.005881722085177898,5.288352440402377e-06,0.002912805648520589,8.950725896283984e-05,0.0006327920709736645,1668050437.25379
265034968.0,0.005884779151529074,6.446579845942324e-06,0.0029487204737961292,9.613407746655867e-05,0.000595712277572602,1668050437.353989
265134839.0,0.005897168070077896,5.547917680814862e-06,0.002908123191446066,0.00010007222590502352,0.0005945486482232809,1668050437.45386
265234843.0,0.00589790241792798,4.866034032602329e-06,0.0029287466313689947,9.671607404015958e-05,0.0006019813008606434,1668050437.553864
265334847.0,0.005910953506827354,4.827505108551122e-06,0.0029288497753441334,8.298888133140281e-05,0.0005976028623990715,1668050437.653868
265434786.0,0.005933898501098156,4.590381649904884e-06,0.0028933819849044085,7.694881787756458e-05,0.0006148849497549236,1668050437.753807
265535010.0,0.005920566152781248,5.18328306498006e-06,0.002920173341408372,8.124208397930488e-05,0.0006378430989570916,1668050437.854031
265634823.0,0.00591455539688468,4.567435553326504e-06,0.0029182652942836285,8.913551573641598e-05,0.0006329151801764965,1668050437.953844
265735006.0,0.005921260453760624,4.321998858358711e-06,0.002907656831666827,7.50356339267455e-05,0.0006286093848757446,1668050438.054027
265834902.0,0.005910801701247692,4.438594260136597e-06,0.0029287843499332666,8.799867646303028e-05,0.0006511725950986147,1668050438.153923
265934942.0,0.005938577000051737,6.024901722412324e-06,0.0029146152082830667,8.087791502475739e-05,0.000628150999546051,1668050438.253963
266034840.0,0.005942469462752342,5.605937076325063e-06,0.0029089637100696564,7.305228791665286e-05,0.0006007656920701265,1668050438.353861
266134877.0,0.005932829808443785,7.449666554748546e-06,0.002900016261264682,6.132255657576025e-05,0.0006196351605467498,1668050438.453898
266234947.0,0.005920229479670525,7.327532330236863e-06,0.0028861796017736197,5.35566323378589e-05,0.0005963033763691783,1668050438.553968
266334823.0,0.00591574190184474,7.012588412180776e-06,0.002896578051149845,5.695760773960501e-05,0.0006142681813798845,1668050438.6538439
266434829.0,0.005913460161536932,6.7928499447589274e-06,0.0029108303133398294,5.057917223894037e-05,0.0006414407980628312,1668050438.75385
266534831.0,0.005926898680627346,7.641802767466288e-06,0.0029261671006679535,5.411171878222376e-05,0.0006151062552817166,1668050438.853852
266634797.0,0.005934031214565039,6.762442808394553e-06,0.002944668522104621,6.536537694046274e-05,0.0006012858939357102,1668050438.953818
266734914.0,0.005922503769397736,6.282217327679973e-06,0.002915362361818552,6.529175152536482e-05,0.0006200443604029715,1668050439.053935
266835008.0,0.005924039985984564,6.077544639992993e-06,0.002918198937550187,7.316364644793794e-05,0.0006207997794263065,1668050439.154029
266934836.0,0.005925988778471947,5.462466560857138e-06,0.002914152108132839,6.678373028989881e-05,0.0006064209737814963,1668050439.253857
267034799.0,0.005941464100033045,5.425356903288048e-06,0.002887257607653737,6.531411781907082e-05,0.0006297266227193177,1668050439.35382
267134837.0,0.0059316023252904415,5.733392754336819e-06,0.0029050414450466633,6.657907215412706e-05,0.0006452169036492705,1668050439.453858
267234906.0,0.00593125494197011,5.291196885082172e-06,0.002902236068621278,7.469359843526036e-05,0.0006644098903052509,1668050439.553927
267334764.0,0.0059270174242556095,5.4509041547134984e-06,0.002894742414355278,6.47951164864935e-05,0.0006449614884331822,1668050439.653785
267434790.0,0.005916587542742491,5.2648210839834064e-06,0.002919016871601343,6.811239290982485e-05,0.0006332831690087914,1668050439.753811
267534908.0,0.005917211528867483,5.253532435745001e-06,0.0029113064520061016,7.058493793010712e-05,0.000632873794529587,1668050439.853929
267634960.0,0.005916975438594818,5.594436061073793e-06,0.002913427073508501,9.233209857484326e-05,0.0006252037710510194,1668050439.953981
267735040.0,0.00591880502179265,8.331890967383515e-06,0.0029578034300357103,9.641767246648669e-05,0.000640613550785929,1668050440.054061
267834905.0,0.005933307111263275,7.79183756094426e-06,0.002874729922041297,0.00012875911488663405,0.0006187342805787921,1668050440.153926
267934859.0,0.005933726672083139,7.87432691140566e-06,0.0029123914428055286,0.00015913268725853413,0.0006421408033929765,1668050440.25388
268034886.0,0.0059095933102071285,7.495008958358085e-06,0.0029528711456805468,0.00015338257071562111,0.0006312539917416871,1668050440.3539069
268134819.0,0.005941970739513636,9.28125882637687e-06,0.002857958897948265,0.00016784733452368528,0.0006101466715335846,1668050440.45384
268234859.0,0.00592922093346715,8.437760698143393e-06,0.002935732016339898,0.00020142900757491589,0.0006948071531951427,1668050440.55388
268334762.0,0.005929568782448769,7.955873115861323e-06,0.0029220255091786385,0.0002171885862480849,0.0006865356699563563,1668050440.653783
268434812.0,0.005923728924244642,6.92141156832804e-06,0.0028353468514978886,0.00019453906861599535,0.0006133554852567613,1668050440.753833
268534962.0,0.00591686088591814,6.343330824165605e-06,0.0029604893643409014,0.00023179716663435102,0.0006462333840318024,1668050440.853983
268635002.0,0.0059067076072096825,6.06557478022296e-06,0.0029204015154391527,0.00023359383339993656,0.0006325056892819703,1668050440.954023
268734839.0,0.005933131091296673,6.707426109642256e-06,0.0028606324922293425,0.00025156306219287217,0.0006118350429460406,1668050441.05386
268834891.0,0.0059120142832398415,7.613673915329855e-06,0.003043406642973423,0.00027388904709368944,0.0007297444972209632,1668050441.153912
268934834.0,0.00593199348077178,9.23316565604182e-06,0.0029520844109356403,0.000315219396725297,0.0006978115998208523,1668050441.253855
269034877.0,0.005935562774538994,9.981903531297576e-06,0.0028794605750590563,0.0002744653611443937,0.000670340028591454,1668050441.353898
269134908.0,0.005921432748436928,8.785723366599996e-06,0.0030271816067397594,0.0003038202121388167,0.0007581067620776594,1668050441.453929
269234827.0,0.005923041608184576,8.084954970399849e-06,0.0029168345499783754,0.0003064126940444112,0.0006678825593553483,1668050441.553848
269334799.0,0.0059111835435032845,7.165404895204119e-06,0.002890163566917181,0.0002658875018823892,0.0006349156028591096,1668050441.65382
269434841.0,0.005901822354644537,8.788490049482789e-06,0.002932526171207428,0.0002314001612830907,0.0007320485892705619,1668050441.753862
269535138.0,0.0059187510050833225,9.43398572417209e-06,0.0028388656210154295,0.00022588169667869806,0.000639047531876713,1668050441.8541589
269634840.0,0.005908411927521229,8.926557711674832e-06,0.0028789211064577103,0.00020923305419273674,0.0006213593878783286,1668050441.953861
269734901.0,0.005904892459511757,7.685530363232829e-06,0.0029184066224843264,0.00021126301726326346,0.000686007144395262,1668050442.053922
269834917.0,0.005928312428295612,8.70027724886313e-06,0.002846142277121544,0.00018956536951009184,0.0006072511896491051,1668050442.153938
269934982.0,0.00591253349557519,9.18008663575165e-06,0.002933855401352048,0.00021884305169805884,0.0006035714177414775,1668050442.254003
270034862.0,0.005919659975916147,7.805055247445125e-06,0.002930000424385071,0.0002094865485560149,0.0006433281814679503,1668050442.353883
270134867.0,0.005909477360546589,7.268715307873208e-06,0.0028286464512348175,0.00019833643455058336,0.0005992274382151663,1668050442.453888
270234818.0,0.005903236102312803,8.889556738722604e-06,0.0028646201826632023,0.00020119636610615999,0.0006125859217718244,1668050442.553839
270334799.0,0.005890291184186935,8.735810297366697e-06,0.0028938287869095802,0.00018364698917139322,0.0006460574804805219,1668050442.65382
270435080.0,0.005914248526096344,9.758665328263305e-06,0.0028427457436919212,0.00017382868099957705,0.0005885853315703571,1668050442.754101
270534847.0,0.005897751078009605,8.711930604476947e-06,0.0029136515222489834,0.00017342536011710763,0.0006146654486656189,1668050442.853868
270634823.0,0.005910240113735199,8.851499842421617e-06,0.0029274174012243748,0.00018420981359668076,0.0006408984772861004,1668050442.953844
270734878.0,0.005871433299034834,9.610305824026e-06,0.0029131295159459114,0.00016034064174164087,0.000591024465393275,1668050443.053899
270834799.0,0.005899753421545029,1.0300386747985613e-05,0.0029539577662944794,0.00014045009447727352,0.0006236551562324166,1668050443.15382
270934784.0,0.00586528517305851,1.0648831448634155e-05,0.002932180417701602,0.0001288799539906904,0.0006960302707739174,1668050443.253805
271034855.0,0.005918101407587528,1.5039297068142332e-05,0.0028925586957484484,0.0001711600343696773,0.0006502725882455707,1668050443.3538759
271134839.0,0.0058634961023926735,1.6766065527917817e-05,0.002979979384690523,0.0001665755989961326,0.0007274574018083513,1668050443.45386
271234787.0,0.005918822716921568,1.7055923308362253e-05,0.0029047487769275904,0.000205847856705077,0.0007175689679570496,1668050443.553808
271334855.0,0.00590469129383564,1.583614357514307e-05,0.002921074628829956,0.00019368098583072424,0.0006504125194624066,1668050443.653876
271434892.0,0.005928154103457928,1.4024742995388806e-05,0.0030077535193413496,0.00018577130686026067,0.0006599274929612875,1668050443.753913
271534979.0,0.0059327553026378155,1.2220465578138828e-05,0.002904933411628008,0.00021055724937468767,0.000632639043033123,1668050443.854
271634898.0,0.005937339272350073,1.072561281034723e-05,0.002924104919657111,0.0002554728416725993,0.0005937186069786549,1668050443.953919
271734804.0,0.0059046316891908646,1.0218936040473636e-05,0.0030148227233439684,0.00022512825671583414,0.0006245467811822891,1668050444.053825
271834959.0,0.005928774829953909,1.0579886293271556e-05,0.0028860887978225946,0.0002574112731963396,0.0005791606963612139,1668050444.15398
271934836.0,0.005923603195697069,1.1935724614886567e-05,0.0029491668101400137,0.00028433321858756244,0.0005902459961362183,1668050444.253857
272035011.0,0.0059167128056287766,1.0495248716324568e-05,0.003030279418453574,0.00026188025367446244,0.0006344110588543117,1668050444.354032
272134904.0,0.005946823861449957,9.801522537600249e-06,0.0029073834884911776,0.00026046502171084285,0.0005952627398073673,1668050444.453925
272234903.0,0.005928450264036655,9.337945812148973e-06,0.0029952211771160364,0.0002922752173617482,0.0006315126665867865,1668050444.553924
272334824.0,0.005926941055804491,7.973967512953095e-06,0.003036591922864318,0.00027219171170145273,0.000657197437249124,1668050444.653845
272434784.0,0.005934311076998711,7.830924914742354e-06,0.002915724413469434,0.00025871058460325,0.0005873330519534647,1668050444.753805
272534968.0,0.005925506819039583,7.235260000015842e-06,0.003015005961060524,0.0002783538948278874,0.0006364756845869124,1668050444.853989
272634838.0,0.005911069456487894,6.864356237201719e-06,0.0030335134360939264,0.00026433702441863716,0.0016749700298532844,1668050444.953859
272734841.0,0.005918486043810844,7.719038876530249e-06,0.0029820173513144255,0.00024846135056577623,0.007364974822849035,1668050445.053862
272834793.0,0.005883842706680298,7.875854862504639e-06,0.0031836009584367275,0.0002865938295144588,0.01902041584253311,1668050445.153814
272934794.0,0.005859785247594118,6.844094968982972e-06,0.0032898515928536654,0.00024886970641091466,0.032244276255369186,1668050445.253815
273034917.0,0.005847294814884663,5.932475687586702e-06,0.003337186761200428,0.00021532064420171082,0.045936450362205505,1668050445.353938
273134945.0,0.0058288672007620335,5.199535280553391e-06,0.003577236318960786,0.00025171705055981874,0.059009697288274765,1668050445.453966
273234826.0,0.005807694513350725,5.5737586990289856e-06,0.0036078861448913813,0.0002487526217009872,0.06856115907430649,1668050445.553847
273334789.0,0.00581790367141366,6.308344836725155e-06,0.003628575475886464,0.0002420507516944781,0.07273747771978378,1668050445.65381
274134945.0,0.0054769511334598064,7.3330911618540995e-06,0.005249393172562122,0.000267389346845448,0.23706254363059998,1668050446.453966
274234774.0,0.005476841703057289,7.309420652745757e-06,0.005265035200864077,0.0002618966391310096,0.24723149836063385,1668050446.553795
274334803.0,0.005509236361831427,8.122448889480438e-06,0.0053362054750323296,0.00029369789990596473,0.27288827300071716,1668050446.653824
274434698.0,0.005565129220485687,7.954832653922495e-06,0.00537176663056016,0.00030061695724725723,0.3148113787174225,1668050446.753719
274534791.0,0.005654587410390377,9.829415830608923e-06,0.005424788221716881,0.00033310125581920147,0.365301251411438,1668050446.853812
274634745.0,0.0057578724808990955,9.677978596300818e-06,0.005465709138661623,0.00034570659045130014,0.4165407419204712,1668050446.9537659
274734759.0,0.005873843561857939,9.979692549677566e-06,0.005466596223413944,0.0003563142381608486,0.4647924602031708,1668050447.05378
274834753.0,0.005991591606289148,1.0537416528677568e-05,0.005467206239700317,0.0003550405672285706,0.5069903135299683,1668050447.153774
274934905.0,0.0061268857680261135,1.3457133718475234e-05,0.0053779627196490765,0.00038721002056263387,0.5380019545555115,1668050447.253926
275034798.0,0.006254969630390406,1.3285773093230091e-05,0.005325403064489365,0.0003716285864356905,0.5590131282806396,1668050447.353819
275134796.0,0.00640358030796051,1.3595745258498937e-05,0.0053132143802940845,0.0004005902446806431,0.5730252861976624,1668050447.453817
275234829.0,0.006548512261360884,1.2525363672466483e-05,0.0052877566777169704,0.00041417020838707685,0.5823553800582886,1668050447.55385
275334789.0,0.00669448496773839,1.2179002624179702e-05,0.005179996602237225,0.0004011448472738266,0.5884826183319092,1668050447.65381
275434750.0,0.006804245058447123,1.1405482837290037e-05,0.005148311145603657,0.0004613382916431874,0.59259033203125,1668050447.753771
275534825.0,0.006875746883451939,1.0858479072339833e-05,0.005148107185959816,0.00041897999471984804,0.5954042673110962,1668050447.853846
275634761.0,0.006937074009329081,9.512074939266313e-06,0.004949304275214672,0.0004748791689053178,0.5972059369087219,1668050447.953782
275734784.0,0.00697936350479722,8.114454431051854e-06,0.004949867259711027,0.00043040807940997183,0.5984519124031067,1668050448.0538049
275834890.0,0.006994922179728746,7.682185241719708e-06,0.004981294274330139,0.0004997347132302821,0.5992963910102844,1668050448.1539109
275934774.0,0.007071675732731819,1.0533777640375774e-05,0.004776439163833857,0.00044676533434540033,0.5997751951217651,1668050448.253795
276034878.0,0.007082057651132345,1.2857211913797073e-05,0.004867136012762785,0.0005046653095632792,0.6001564860343933,1668050448.353899
276134788.0,0.007105639670044184,1.3892118658986874e-05,0.004855096805840731,0.0004355690616648644,0.6004210710525513,1668050448.453809
276234790.0,0.006864562164992094,4.213634747429751e-05,0.00468849902972579,0.0004741225275211036,0.5563369989395142,1668050448.553811
276334842.0,0.006550032179802656,3.8462705560959876e-05,0.004874115344136953,0.0004544990079011768,0.48918455839157104,1668050448.653863
276434812.0,0.006344399880617857,3.165608359267935e-05,0.004818675573915243,0.0005094942753203213,0.4293023347854614,1668050448.753833
276534768.0,0.006220152601599693,2.611682066344656e-05,0.004691821523010731,0.0004296682891435921,0.38131317496299744,1668050448.853789
276634794.0,0.006133026443421841,2.2194475604919717e-05,0.004882152192294598,0.0004382698389235884,0.34477195143699646,1668050448.953815
276735017.0,0.006082059815526009,2.061855047941208e-05,0.004773800261318684,0.00042758986819535494,0.31763434410095215,1668050449.054038
276834827.0,0.006107197608798742,1.8254131646244787e-05,0.004677130375057459,0.00042711381684057415,0.2979869842529297,1668050449.153848
276934816.0,0.006032714154571295,1.924598473124206e-05,0.004858336411416531,0.0003975314612034708,0.28418320417404175,1668050449.2538369
277034853.0,0.006047731731086969,1.7230177036253735e-05,0.0046770889312028885,0.00046168570406734943,0.2743017077445984,1668050449.353874
277134819.0,0.006078907288610935,1.6677122403052635e-05,0.00465310737490654,0.0004560318193398416,0.2679797410964966,1668050449.45384
277234862.0,0.006089495494961739,1.6726184185245074e-05,0.004877595230937004,0.00046288425801321864,0.2633226811885834,1668050449.553883
277334832.0,0.006077858619391918,1.80161623575259e-05,0.004607449285686016,0.000551745411939919,0.2599532902240753,1668050449.653853
277434840.0,0.006190718151628971,1.9981749574071728e-05,0.004527141340076923,0.0005274249706417322,0.2582746744155884,1668050449.753861
277534794.0,0.006130560766905546,2.3115497242542915e-05,0.0047334348782896996,0.0004987918073311448,0.2566172182559967,1668050449.853815
277634882.0,0.006208714097738266,2.816649794112891e-05,0.004534040577709675,0.0005123252049088478,0.25523149967193604,1668050449.953903
277734787.0,0.006250305101275444,2.571499499026686e-05,0.004465564154088497,0.00044882114161737263,0.2552102506160736,1668050450.053808
277834771.0,0.006213909946382046,2.2597438146476634e-05,0.004522401373833418,0.0004350866947788745,0.2523336708545685,1668050450.153792
277934760.0,0.006321361754089594,2.3917340513435192e-05,0.004132655914872885,0.000558497675228864,0.2368628978729248,1668050450.253781
278034768.0,0.006381602492183447,1.9865299691446126e-05,0.0037216220516711473,0.0004811490362044424,0.20697711408138275,1668050450.353789
278134890.0,0.006447341293096542,1.6930605852394365e-05,0.0033226688392460346,0.0004522584786172956,0.17154870927333832,1668050450.453911
278234782.0,0.006512877997010946,1.4800746612309013e-05,0.0028241213876754045,0.0004643471329472959,0.1405119150876999,1668050450.553803
278334745.0,0.006572005804628134,1.8187656678492203e-05,0.0025157572235912085,0.00041275096009485424,0.11497686803340912,1668050450.653766
278434831.0,0.006602331530302763,1.880107811302878e-05,0.002258431166410446,0.000359429424861446,0.09407395124435425,1668050450.753852
278534928.0,0.0066381655633449554,1.7628030036576092e-05,0.0020370539277791977,0.0003159160551149398,0.0769471600651741,1668050450.853949
278634774.0,0.006655567325651646,1.6459112885058858e-05,0.002001587301492691,0.0002853018813766539,0.06294682621955872,1668050450.953795
278734829.0,0.006678292062133551,1.681195317360107e-05,0.0017934374045580626,0.0003661140217445791,0.051501691341400146,1668050451.05385
278834782.0,0.00657742191106081,2.864981615857687e-05,0.001683585112914443,0.0004146085702814162,0.0421333946287632,1668050451.1538029
278934776.0,0.006670594681054354,4.240180351189338e-05,0.001783302053809166,0.0004185039142612368,0.034468427300453186,1668050451.253797
279034763.0,0.006565030664205551,5.858114309376106e-05,0.0015512251993641257,0.0005003782571293414,0.02826421894133091,1668050451.353784
279134788.0,0.006625084672123194,5.324170342646539e-05,0.0016069835983216763,0.0005908009479753673,0.023151464760303497,1668050451.453809
279234821.0,0.0065424139611423016,6.124182255007327e-05,0.001676776446402073,0.0007098681526258588,0.01906466856598854,1668050451.553842
279334773.0,0.006593700964003801,6.967141962377355e-05,0.0016331067308783531,0.0008116210228763521,0.015670545399188995,1668050451.653794
279435204.0,0.006574560422450304,8.47425326355733e-05,0.0016586707206442952,0.0009029002976603806,0.013014725409448147,1668050451.754225
279534847.0,0.00667636888101697,8.38051491882652e-05,0.0016029959078878164,0.0007875466835685074,0.010781415738165379,1668050451.853868
279634873.0,0.0067467112094163895,8.243935735663399e-05,0.0014826353872194886,0.0009044521139003336,0.009040760807693005,1668050451.953894
279734767.0,0.006733119487762451,9.055201371666044e-05,0.0015630216803401709,0.0010946461698040366,0.007652973290532827,1668050452.053788
279834788.0,0.006732760462909937,9.2001908342354e-05,0.0015588883543387055,0.001015524729155004,0.006745222490280867,1668050452.153809
279934781.0,0.006761934142559767,9.868045890470967e-05,0.0015595649601891637,0.0009700953378342092,0.00611836975440383,1668050452.253802
280034824.0,0.006802305579185486,9.733583283377811e-05,0.0015106878709048033,0.0008933019125834107,0.005515121854841709,1668050452.353845
280134827.0,0.006849037948995829,8.523711585439742e-05,0.0014245579950511456,0.0008478460949845612,0.004943117965012789,1668050452.453848
280234850.0,0.006803316064178944,8.377612539334223e-05,0.0013950233114883304,0.0008443553233519197,0.0047380561009049416,1668050452.553871
280334855.0,0.006818336900323629,9.105125354835764e-05,0.0014416781486943364,0.0008186419727280736,0.004749555140733719,1668050452.653876
280434741.0,0.006842177361249924,8.153582894010469e-05,0.0013893150025978684,0.0008301450870931149,0.004830853547900915,1668050452.753762
280534776.0,0.006861797533929348,7.605496648466215e-05,0.0013584590051323175,0.0009073562687262893,0.004669897258281708,1668050452.853797
280634748.0,0.0068335444666445255,6.495037087006494e-05,0.001332182320766151,0.0008609534124843776,0.004693233408033848,1668050452.953769
280734804.0,0.006855553016066551,6.106301589170471e-05,0.0013279328122735023,0.0007731298683211207,0.004927243106067181,1668050453.053825
280834781.0,0.006875361315906048,5.528745168703608e-05,0.0012682012747973204,0.000804769981186837,0.005132313817739487,1668050453.153802
280934765.0,0.006896928884088993,5.139823770150542e-05,0.001227030181325972,0.0008401777595281601,0.005259152501821518,1668050453.253786
281034797.0,0.006913891527801752,6.523119373014197e-05,0.0012989058159291744,0.0010240495903417468,0.005306468345224857,1668050453.353818
281134853.0,0.006924516521394253,6.826697062933818e-05,0.0013608277076855302,0.000979520962573588,0.005556186661124229,1668050453.4538739
281234911.0,0.006912869401276112,6.101381950429641e-05,0.0015779383247718215,0.00121677340939641,0.005612076260149479,1668050453.553932
281334732.0,0.006952598690986633,6.907898932695389e-05,0.0014831917360424995,0.0011296719312667847,0.0056285434402525425,1668050453.653753
281434766.0,0.007009538821876049,7.639503019163385e-05,0.0013838900486007333,0.0011083580320701003,0.005684342235326767,1668050453.753787
281534932.0,0.006959571503102779,8.48413837957196e-05,0.0013682449935004115,0.0010023670038208365,0.005803616251796484,1668050453.853953
281634838.0,0.006929725408554077,7.94712541392073e-05,0.0015336371725425124,0.0012352810008451343,0.006054839584976435,1668050453.953859
281734791.0,0.006939372513443232,7.522186206188053e-05,0.0016128617571666837,0.001331057515926659,0.006154992617666721,1668050454.053812
281834828.0,0.006958681624382734,6.991589907556772e-05,0.0017147298203781247,0.0015609873225912452,0.006322908215224743,1668050454.153849
281934781.0,0.006968500092625618,6.590309931198135e-05,0.0015821998240426183,0.0015189375262707472,0.006640336010605097,1668050454.253802
282034897.0,0.00700360769405961,6.931988900760189e-05,0.0015932184178382158,0.00158257270231843,0.006709677167236805,1668050454.353918
