TimeUS,ThI,ABst,ThO,ThH,DAlt,Alt,BAlt,DSAlt,SAlt,TAlt,DCRt,CRt,timestamp
221041208.0,-0.006051093339920044,-1.400243490934372e-06,0.0,0.1599999964237213,0.16911710798740387,0.16911710798740387,0.26,nan,0.20999999344348907,nan,0.0,44.0,1668050393.360229
221158847.0,0.0040371716022491455,9.289942681789398e-07,0.0,0.1599999964237213,0.22429808974266052,0.22429808974266052,0.37,nan,0.23999999463558197,nan,0.0,44.0,1668050393.477868
221258873.0,-0.0030457526445388794,-6.854534149169922e-07,0.0,0.1599999964237213,0.27137890458106995,0.27137890458106995,0.28,nan,0.20999999344348907,nan,0.0,44.0,1668050393.577894
221358848.0,0.0051255375146865845,1.133885234594345e-06,0.0,0.1599999964237213,0.32051223516464233,0.32051223516464233,0.31,nan,0.20999999344348907,nan,0.0,44.0,1668050393.677869
221458925.0,-0.004150524735450745,-9.052455425262451e-07,0.0,0.1599999964237213,0.3690893054008484,0.3690893054008484,0.18,nan,0.20999999344348907,nan,0.0,44.0,1668050393.777946
221559178.0,0.002564951777458191,5.478505045175552e-07,0.0,0.1599999964237213,0.4172326624393463,0.4172326624393463,0.21,nan,0.20999999344348907,nan,0.0,44.0,1668050393.878199
221658802.0,-0.0010507851839065552,-2.2118911147117615e-07,0.0,0.1599999964237213,0.46350133419036865,0.46350133419036865,0.19,nan,0.20999999344348907,nan,0.0,44.0,1668050393.977823
221758942.0,0.0017078667879104614,3.5366974771022797e-07,0.0,0.1599999964237213,0.5078368186950684,0.5078368186950684,0.33,nan,0.20999999344348907,nan,0.0,44.0,1668050394.0779629
221859249.0,-0.001507878303527832,-3.1723175197839737e-07,0.0,0.1599999964237213,0.5500567555427551,0.5500567555427551,0.27,nan,0.20999999344348907,nan,0.0,44.0,1668050394.17827
221959023.0,0.0010823309421539307,2.2258609533309937e-07,0.0,0.1599999964237213,0.5915161371231079,0.5915161371231079,0.32,nan,0.20999999344348907,nan,0.0,44.0,1668050394.278044
222059080.0,-6.57886266708374e-05,-1.3686076272279024e-08,0.0,0.1599999964237213,0.6320236325263977,0.6320236325263977,0.43,nan,0.20999999344348907,nan,0.0,44.0,1668050394.3781009
222159028.0,-0.001268342137336731,-2.612359821796417e-07,0.0,0.1599999964237213,0.6714146137237549,0.6714146137237549,0.08,nan,0.20999999344348907,nan,0.0,44.0,1668050394.478049
222259240.0,0.0010825693607330322,2.2549647837877274e-07,0.0,0.1599999964237213,0.7105115652084351,0.7105115652084351,0.27,nan,0.20999999344348907,nan,0.0,44.0,1668050394.578261
222358889.0,-0.0018891990184783936,-3.882450982928276e-07,0.0,0.1599999964237213,0.7487571239471436,0.7487571239471436,0.27,nan,0.20999999344348907,nan,0.0,44.0,1668050394.67791
222459199.0,0.001347467303276062,2.8335489332675934e-07,0.0,0.1599999964237213,0.7842721343040466,0.7842721343040466,0.26,nan,0.23999999463558197,nan,0.0,44.0,1668050394.77822
222558891.0,-0.0003247261047363281,-6.685149855911732e-08,0.0,0.1599999964237213,0.8186522126197815,0.8186522126197815,0.34,nan,0.23999999463558197,nan,0.0,44.0,1668050394.877912
222659041.0,0.0008583813905715942,1.7957063391804695e-07,0.0,0.1599999964237213,0.8521060943603516,0.8521060943603516,0.0,nan,0.20999999344348907,nan,0.0,44.0,1668050394.978062
222758983.0,-0.0006414204835891724,-1.3405224308371544e-07,0.0,0.1599999964237213,0.8844870924949646,0.8844870924949646,0.35000000000000003,nan,0.20999999344348907,nan,0.0,44.0,1668050395.078004
222858781.0,0.00025109946727752686,5.2212271839380264e-08,0.0,0.1599999964237213,0.9162675738334656,0.9162675738334656,0.26,nan,0.20999999344348907,nan,0.0,43.0,1668050395.177802
222959259.0,-0.00040969252586364746,-8.64383764564991e-08,0.0,0.1599999964237213,0.9446942806243896,0.9446942806243896,0.26,nan,0.20999999344348907,nan,0.0,43.0,1668050395.27828
223059174.0,0.0008011460304260254,1.6676494851708412e-07,0.0,0.1599999964237213,0.9734169244766235,0.9734169244766235,0.18,nan,0.20999999344348907,nan,0.0,43.0,1668050395.378195
223159162.0,0.0003546029329299927,7.482594810426235e-08,0.0,0.1599999964237213,1.0013116598129272,1.0013116598129272,0.16,nan,0.20999999344348907,nan,0.0,43.0,1668050395.478183
223259314.0,-0.0005314946174621582,-1.1082738637924194e-07,0.0,0.1599999964237213,1.0282180309295654,1.0282180309295654,0.11,nan,0.28999999165534973,nan,0.0,43.0,1668050395.578335
223358881.0,-0.0007145553827285767,-1.5023397281765938e-07,0.0,0.1599999964237213,1.0536171197891235,1.0536171197891235,0.18,nan,0.3100000023841858,nan,0.0,43.0,1668050395.677902
223459065.0,0.0006704628467559814,1.4033867046236992e-07,0.0,0.1599999964237213,1.0776056051254272,1.0776056051254272,0.21,nan,0.28999999165534973,nan,0.0,42.0,1668050395.778086
223559157.0,0.0002326369285583496,4.8836227506399155e-08,0.0,0.1599999964237213,1.100421667098999,1.100421667098999,0.32,nan,0.23999999463558197,nan,0.0,42.0,1668050395.878178
223659087.0,0.0006439238786697388,1.3533281162381172e-07,0.0,0.1599999964237213,1.1222273111343384,1.1222273111343384,0.34,nan,0.20999999344348907,nan,0.0,42.0,1668050395.978108
223758828.0,0.00012700259685516357,2.6542693376541138e-08,0.0,0.1599999964237213,1.1436902284622192,1.1436902284622192,0.2,nan,0.1899999976158142,nan,0.0,42.0,1668050396.077849
223859113.0,-0.0007333606481552124,-1.5401747077703476e-07,0.0,0.1599999964237213,1.1655070781707764,1.1655070781707764,0.21,nan,0.1899999976158142,nan,0.0,42.0,1668050396.178134
223958876.0,0.0006126612424850464,1.282314769923687e-07,0.0,0.1599999964237213,1.187284231185913,1.187284231185913,0.21,nan,0.1899999976158142,nan,0.0,41.0,1668050396.277897
224059121.0,-0.0002012401819229126,-4.2462488636374474e-08,0.0,0.1599999964237213,1.207797884941101,1.207797884941101,0.25,nan,0.1899999976158142,nan,0.0,41.0,1668050396.3781419
224159109.0,0.0004495084285736084,9.426730684936047e-08,0.0,0.1599999964237213,1.2275440692901611,1.2275440692901611,0.36,nan,0.1899999976158142,nan,0.0,41.0,1668050396.47813
224259157.0,-0.0008879750967025757,-1.864391379058361e-07,0.0,0.1599999964237213,1.2468856573104858,1.2468856573104858,0.24,nan,0.20999999344348907,nan,0.0,41.0,1668050396.578178
224359052.0,0.0002980530261993408,6.228219717741013e-08,0.0,0.1599999964237213,1.2652820348739624,1.2652820348739624,0.22,nan,0.20999999344348907,nan,0.0,41.0,1668050396.678073
227258877.0,-0.003724619746208191,-7.902272045612335e-07,0.0,0.1599999964237213,2.0889177322387695,2.0889177322387695,0.36,nan,0.20999999344348907,nan,0.0,37.0,1668050399.577898
227371039.0,0.0001188516616821289,2.5727786123752594e-08,0.0,0.1599999964237213,2.098968744277954,2.098968744277954,0.25,nan,0.23999999463558197,nan,0.0,36.0,1668050399.69006
227471036.0,0.0012058913707733154,2.5669578462839127e-07,0.0,0.1599999964237213,2.0957789421081543,2.0957789421081543,0.26,nan,0.23999999463558197,nan,0.0,36.0,1668050399.790057
227571412.0,-0.0014236271381378174,-3.043096512556076e-07,0.0,0.1599999964237213,2.0867652893066406,2.0867652893066406,0.31,nan,0.23999999463558197,nan,0.0,36.0,1668050399.890433
227670778.0,0.0013807862997055054,2.87545844912529e-07,0.0,0.1599999964237213,2.0731301307678223,2.0731301307678223,0.12,nan,0.23999999463558197,nan,0.0,35.0,1668050399.989799
227770892.0,0.0013647377490997314,2.8207432478666306e-07,0.0,0.1599999964237213,2.056871175765991,2.056871175765991,0.21,nan,0.23999999463558197,nan,0.0,35.0,1668050400.089913
227870740.0,0.0005563944578170776,1.1443626135587692e-07,0.0,0.1599999964237213,2.0389461517333984,2.0389461517333984,0.18,nan,0.23999999463558197,nan,0.0,34.0,1668050400.189761
227970832.0,0.00046694278717041016,9.569339454174042e-08,0.0,0.1599999964237213,2.0187017917633057,2.0187017917633057,0.31,nan,0.23999999463558197,nan,0.0,34.0,1668050400.289853
228071087.0,-0.0008877366781234741,-1.8224818632006645e-07,0.0,0.1599999964237213,1.9977291822433472,1.9977291822433472,0.35000000000000003,nan,0.23999999463558197,nan,0.0,33.0,1668050400.3901079
228170788.0,0.0004296600818634033,8.707866072654724e-08,0.0,0.1599999964237213,1.9766335487365723,1.9766335487365723,0.25,nan,0.23999999463558197,nan,0.0,33.0,1668050400.489809
228270798.0,-0.0003740936517715454,-7.680500857532024e-08,0.0,0.1599999964237213,1.957036018371582,1.957036018371582,0.25,nan,0.20999999344348907,nan,0.0,32.0,1668050400.589819
228370991.0,0.0006631612777709961,1.359148882329464e-07,0.0,0.1599999964237213,1.9382458925247192,1.9382458925247192,0.24,nan,0.20999999344348907,nan,0.0,32.0,1668050400.690012
228471126.0,-0.00014112889766693115,-2.9103830456733704e-08,0.0,0.1599999964237213,1.9197437763214111,1.9197437763214111,0.33,nan,0.20999999344348907,nan,0.0,31.0,1668050400.790147
228571212.0,0.0002527385950088501,5.195033736526966e-08,0.0,0.1599999964237213,1.9015707969665527,1.9015707969665527,0.22,nan,0.20999999344348907,nan,0.0,31.0,1668050400.890233
228671270.0,-0.0005150288343429565,-1.0622898116707802e-07,0.0,0.1599999964237213,1.8838775157928467,1.8838775157928467,0.24,nan,0.20999999344348907,nan,0.0,30.0,1668050400.9902909
228771113.0,-0.0001764148473739624,-3.637978807091713e-08,0.0,0.1599999964237213,1.867152452468872,1.867152452468872,0.16,nan,0.20999999344348907,nan,0.0,30.0,1668050401.090134
228870788.0,0.0007652342319488525,1.5791738405823708e-07,0.0,0.1599999964237213,1.8504512310028076,1.8504512310028076,0.43,nan,0.20999999344348907,nan,0.0,29.0,1668050401.189809
228971168.0,-4.725158214569092e-05,-9.800714906305075e-09,0.0,0.1599999964237213,1.8338466882705688,1.8338466882705688,0.15,nan,0.20999999344348907,nan,0.0,29.0,1668050401.290189
229071183.0,-0.00015687942504882812,-3.227614797651768e-08,0.0,0.1599999964237213,1.8177709579467773,1.8177709579467773,0.34,nan,0.20999999344348907,nan,0.0,28.0,1668050401.390204
229171249.0,-0.00027988851070404053,-5.7800207287073135e-08,0.0,0.1599999964237213,1.8030489683151245,1.8030489683151245,0.26,nan,0.23999999463558197,nan,0.0,28.0,1668050401.49027
229271000.0,-0.0008586794137954712,-1.7700949683785439e-07,0.0,0.1599999964237213,1.7879807949066162,1.7879807949066162,0.28,nan,0.23999999463558197,nan,0.0,27.0,1668050401.590021
229371111.0,0.0002961158752441406,6.111804395914078e-08,0.0,0.1599999964237213,1.7803122997283936,1.7803122997283936,0.3,nan,0.20999999344348907,nan,0.0,27.0,1668050401.690132
229470679.0,0.00026519596576690674,5.471520125865936e-08,0.0,0.1599999964237213,1.7803122997283936,1.7803122997283936,0.27,nan,0.20999999344348907,nan,0.0,27.0,1668050401.7897
229571132.0,0.0003259927034378052,6.725895218551159e-08,0.0,0.1599999964237213,1.7803122997283936,1.7803122997283936,0.04,nan,0.1899999976158142,nan,0.0,26.0,1668050401.890153
229671219.0,-0.00014853477478027344,-3.063178155571222e-08,0.0,0.1599999964237213,1.7803122997283936,1.7803122997283936,0.29,nan,0.1599999964237213,nan,0.0,26.0,1668050401.99024
229770963.0,-6.715953350067139e-05,-1.3853423297405243e-08,0.0,0.1599999964237213,1.7803122997283936,1.7803122997283936,0.19,nan,0.1899999976158142,nan,0.0,25.0,1668050402.089984
229870906.0,0.0002517104148864746,5.1979441195726395e-08,0.0,0.1599999964237213,1.7803122997283936,1.7803122997283936,0.15,nan,0.1899999976158142,nan,0.0,25.0,1668050402.189927
229971006.0,0.0005703866481781006,1.176958903670311e-07,0.0,0.1599999964237213,1.7803122997283936,1.7803122997283936,0.19,nan,0.23999999463558197,nan,0.0,25.0,1668050402.290027
230071166.0,8.644163608551025e-05,1.7680577002465725e-08,0.0,0.1599999964237213,1.7803122997283936,1.7803122997283936,0.2,nan,0.23999999463558197,nan,0.0,24.0,1668050402.390187
233071128.0,0.003221660852432251,6.901100277900696e-07,0.0,0.1599999964237213,1.9610005617141724,1.9610005617141724,0.25,nan,0.25999999046325684,nan,0.0,19.0,1668050405.3901489
233184225.0,0.0005042701959609985,1.0756775736808777e-07,0.0,0.1599999964237213,1.9528194665908813,1.9528194665908813,0.39,nan,0.25999999046325684,nan,0.0,19.0,1668050405.503246
233284332.0,-0.0007714033126831055,-1.6385456547141075e-07,0.0,0.1599999964237213,1.932582139968872,1.932582139968872,0.29,nan,0.25999999046325684,nan,0.0,19.0,1668050405.603353
233384540.0,0.003327086567878723,7.029157131910324e-07,0.0,0.1599999964237213,1.9072575569152832,1.9072575569152832,0.4,nan,0.28999999165534973,nan,0.0,18.0,1668050405.703561
233484269.0,0.00565589964389801,1.1655502021312714e-06,0.0,0.1599999964237213,1.8794955015182495,1.8794955015182495,0.28,nan,0.23999999463558197,nan,0.0,17.0,1668050405.80329
233584372.0,0.0016295015811920166,3.320164978504181e-07,0.0,0.1599999964237213,1.8498756885528564,1.8498756885528564,0.33,nan,0.20999999344348907,nan,0.0,17.0,1668050405.903393
233684482.0,0.00026166439056396484,5.314359441399574e-08,0.0,0.1599999964237213,1.8201769590377808,1.8201769590377808,0.22,nan,0.20999999344348907,nan,0.0,17.0,1668050406.003503
233784198.0,-0.00043013691902160645,-8.905772119760513e-08,0.0,0.1599999964237213,1.7896543741226196,1.7896543741226196,0.24,nan,0.20999999344348907,nan,0.0,17.0,1668050406.103219
233884214.0,-0.0026748627424240112,-5.490146577358246e-07,0.0,0.1599999964237213,1.7589536905288696,1.7589536905288696,0.19,nan,0.20999999344348907,nan,0.0,16.0,1668050406.203235
233984382.0,-3.981590270996094e-05,-8.018105290830135e-09,0.0,0.1599999964237213,1.727715253829956,1.727715253829956,0.28,nan,0.20999999344348907,nan,0.0,15.0,1668050406.303403
234084422.0,0.00010664761066436768,2.185697667300701e-08,0.0,0.1599999964237213,1.6968069076538086,1.6968069076538086,0.27,nan,0.20999999344348907,nan,0.0,15.0,1668050406.403443
234184484.0,0.0003486424684524536,7.03730620443821e-08,0.0,0.1599999964237213,1.6656934022903442,1.6656934022903442,0.23,nan,0.20999999344348907,nan,0.0,14.0,1668050406.503505
234284304.0,0.0010076463222503662,2.0489096641540527e-07,0.0,0.1599999964237213,1.635857343673706,1.635857343673706,0.21,nan,0.20999999344348907,nan,0.0,14.0,1668050406.603325
234384278.0,0.0004456639289855957,9.112409316003323e-08,0.0,0.1599999964237213,1.6068730354309082,1.6068730354309082,0.28,nan,0.20999999344348907,nan,0.0,14.0,1668050406.703299
234484283.0,-0.0002629309892654419,-5.422043614089489e-08,0.0,0.1599999964237213,1.5786278247833252,1.5786278247833252,0.26,nan,0.20999999344348907,nan,0.0,13.0,1668050406.803304
234584405.0,-0.0005391985177993774,-1.1106021702289581e-07,0.0,0.1599999964237213,1.5508252382278442,1.5508252382278442,0.31,nan,0.20999999344348907,nan,0.0,13.0,1668050406.903426
234684430.0,-0.0007462501525878906,-1.5721889212727547e-07,0.0,0.1599999964237213,1.524320363998413,1.524320363998413,0.22,nan,0.20999999344348907,nan,0.0,12.0,1668050407.0034509
234784519.0,0.0009831786155700684,2.009328454732895e-07,0.0,0.1599999964237213,1.4986530542373657,1.4986530542373657,0.25,nan,0.20999999344348907,nan,0.0,12.0,1668050407.10354
234884293.0,0.0006011128425598145,1.2712553143501282e-07,0.0,0.1599999964237213,1.4741413593292236,1.4741413593292236,0.35000000000000003,nan,0.20999999344348907,nan,0.0,11.0,1668050407.203314
234984246.0,0.0006032288074493408,1.2444797903299332e-07,0.0,0.1599999964237213,1.4501594305038452,1.4501594305038452,0.33,nan,0.20999999344348907,nan,0.0,11.0,1668050407.303267
235084586.0,0.00012852251529693604,2.6775524020195007e-08,0.0,0.1599999964237213,1.427007794380188,1.427007794380188,0.31,nan,0.20999999344348907,nan,0.0,11.0,1668050407.403607
235184592.0,-0.00026673078536987305,-5.573383532464504e-08,0.0,0.1599999964237213,1.4053103923797607,1.4053103923797607,0.44,nan,0.20999999344348907,nan,0.0,11.0,1668050407.503613
235284493.0,0.00015138089656829834,3.149034455418587e-08,0.0,0.1599999964237213,1.3847237825393677,1.3847237825393677,0.36,nan,0.20999999344348907,nan,0.0,10.0,1668050407.603514
235384612.0,0.0006913691759109497,1.4557735994458199e-07,0.0,0.1599999964237213,1.3650224208831787,1.3650224208831787,0.31,nan,0.20999999344348907,nan,0.0,10.0,1668050407.703633
235484405.0,-0.0003414750099182129,-7.130438461899757e-08,0.0,0.1599999964237213,1.3468822240829468,1.3468822240829468,0.19,nan,0.20999999344348907,nan,0.0,10.0,1668050407.803426
235584299.0,-0.0005757808685302734,-1.2206146493554115e-07,0.0,0.1599999964237213,1.3295170068740845,1.3295170068740845,0.17,nan,0.20999999344348907,nan,0.0,10.0,1668050407.90332
235684487.0,-4.291534423828125e-06,-8.999450074043125e-10,0.0,0.1599999964237213,1.3121247291564941,1.3121247291564941,0.34,nan,0.20999999344348907,nan,0.0,9.0,1668050408.003508
238384057.0,-0.0010294318199157715,-2.367887645959854e-07,0.0,0.1599999964237213,1.3161873817443848,1.3161873817443848,0.29,nan,0.20999999344348907,nan,0.0,7.0,1668050410.703078
238495935.0,-0.0005728453397750854,-1.3026874512434006e-07,0.0,0.1599999964237213,1.3063044548034668,1.3063044548034668,0.36,nan,0.20999999344348907,nan,0.0,5.0,1668050410.814956
238596290.0,-0.002044498920440674,-4.605390131473541e-07,0.0,0.1599999964237213,1.2902617454528809,1.2902617454528809,0.3,nan,0.20999999344348907,nan,0.0,6.0,1668050410.915311
238696070.0,0.0007254928350448608,1.587904989719391e-07,0.0,0.1599999964237213,1.2709603309631348,1.2709603309631348,0.18,nan,0.23999999463558197,nan,0.0,5.0,1668050411.015091
238796236.0,-0.0029412806034088135,-6.307382136583328e-07,0.0,0.1599999964237213,1.249631643295288,1.249631643295288,0.29,nan,0.23999999463558197,nan,0.0,6.0,1668050411.115257
238896074.0,0.0004996955394744873,1.0617077350616455e-07,0.0,0.1599999964237213,1.2271065711975098,1.2271065711975098,0.21,nan,0.23999999463558197,nan,0.0,5.0,1668050411.215095
238996051.0,-0.0033644288778305054,-7.103662937879562e-07,0.0,0.1599999964237213,1.2024954557418823,1.2024954557418823,0.28,nan,0.20999999344348907,nan,0.0,5.0,1668050411.315072
239096300.0,0.0038388818502426147,7.91158527135849e-07,0.0,0.1599999964237213,1.1782034635543823,1.1782034635543823,0.38,nan,0.23999999463558197,nan,0.0,4.0,1668050411.4153209
239196023.0,-0.0027701854705810547,-5.811452865600586e-07,0.0,0.1599999964237213,1.1530627012252808,1.1530627012252808,0.24,nan,0.23999999463558197,nan,0.0,4.0,1668050411.515044
239296208.0,0.0019600391387939453,4.079192876815796e-07,0.0,0.1599999964237213,1.1291621923446655,1.1291621923446655,0.22,nan,0.23999999463558197,nan,0.0,4.0,1668050411.615229
239396038.0,-0.002702370285987854,-5.618203431367874e-07,0.0,0.1599999964237213,1.1062766313552856,1.1062766313552856,0.33,nan,0.23999999463558197,nan,0.0,4.0,1668050411.715059
239496397.0,0.005597889423370361,1.1599622666835785e-06,0.0,0.1599999964237213,1.083788514137268,1.083788514137268,0.17,nan,0.23999999463558197,nan,0.0,3.0,1668050411.815418
239596097.0,-0.00011949241161346436,-2.5182089302688837e-08,0.0,0.1599999964237213,1.0609265565872192,1.0609265565872192,0.32,nan,0.23999999463558197,nan,0.0,3.0,1668050411.915118
239696400.0,0.004405125975608826,9.052455425262451e-07,0.0,0.1599999964237213,1.0398404598236084,1.0398404598236084,0.29,nan,0.23999999463558197,nan,0.0,3.0,1668050412.015421
239796178.0,-0.0030691921710968018,-6.570480763912201e-07,0.0,0.1599999964237213,1.0177795886993408,1.0177795886993408,0.21,nan,0.23999999463558197,nan,0.0,3.0,1668050412.115199
239895992.0,-1.5944242477416992e-06,-3.276454663136974e-10,0.0,0.1599999964237213,0.9976676106452942,0.9976676106452942,0.18,nan,0.23999999463558197,nan,0.0,3.0,1668050412.215013
239996092.0,-0.0025703758001327515,-5.431938916444778e-07,0.0,0.1599999964237213,0.977790355682373,0.977790355682373,0.35000000000000003,nan,0.23999999463558197,nan,0.0,2.0,1668050412.315113
240096009.0,4.9486756324768066e-05,1.0346411727368832e-08,0.0,0.1599999964237213,0.9582889080047607,0.9582889080047607,0.3,nan,0.20999999344348907,nan,0.0,2.0,1668050412.41503
240196046.0,-0.0011032819747924805,-2.310844138264656e-07,0.0,0.1599999964237213,0.9385995268821716,0.9385995268821716,0.33,nan,0.20999999344348907,nan,0.0,1.0,1668050412.515067
240296152.0,0.0014426857233047485,3.033783286809921e-07,0.0,0.1599999964237213,0.9207906126976013,0.9207906126976013,0.18,nan,0.20999999344348907,nan,0.0,2.0,1668050412.615173
240396122.0,0.0009557455778121948,1.994776539504528e-07,0.0,0.1599999964237213,0.9037014842033386,0.9037014842033386,0.23,nan,0.20999999344348907,nan,0.0,1.0,1668050412.715143
240496072.0,0.0006200522184371948,1.3154931366443634e-07,0.0,0.1599999964237213,0.8875139355659485,0.8875139355659485,0.22,nan,0.20999999344348907,nan,0.0,1.0,1668050412.815093
240595975.0,0.00034071505069732666,7.09842424839735e-08,0.0,0.1599999964237213,0.8707416653633118,0.8707416653633118,0.25,nan,0.20999999344348907,nan,0.0,1.0,1668050412.914996
240695983.0,-0.0003146529197692871,-6.658956408500671e-08,0.0,0.1599999964237213,0.8543058633804321,0.8543058633804321,0.21,nan,0.20999999344348907,nan,0.0,1.0,1668050413.015004
240796299.0,-0.00036992132663726807,-7.761991582810879e-08,0.0,0.1599999964237213,0.8378742337226868,0.8378742337226868,0.14,nan,0.23999999463558197,nan,0.0,0.0,1668050413.11532
240896189.0,-0.0009005516767501831,-1.8870923668146133e-07,0.0,0.1599999964237213,0.8221242427825928,0.8221242427825928,0.19,nan,0.20999999344348907,nan,0.0,1.0,1668050413.21521
240996095.0,0.0014685839414596558,3.0884984880685806e-07,0.0,0.1599999964237213,0.8063633441925049,0.8063633441925049,0.19,nan,0.20999999344348907,nan,0.0,0.0,1668050413.315116
241096178.0,-0.0007020682096481323,-1.46450474858284e-07,0.0,0.1599999964237213,0.7901851534843445,0.7901851534843445,0.32,nan,0.20999999344348907,nan,0.0,0.0,1668050413.415199
241196009.0,0.0015822052955627441,3.3120159059762955e-07,0.0,0.1599999964237213,0.7744938135147095,0.7744938135147095,0.23,nan,0.20999999344348907,nan,0.0,0.0,1668050413.51503
241296532.0,-0.0014821887016296387,-3.079185262322426e-07,0.0,0.1599999964237213,0.7590433359146118,0.7590433359146118,0.31,nan,0.20999999344348907,nan,0.0,0.0,1668050413.615553
241396058.0,0.0004772096872329712,9.976793080568314e-08,0.0,0.1599999964237213,0.745067834854126,0.745067834854126,0.07,nan,0.20999999344348907,nan,0.0,0.0,1668050413.715079
241496013.0,-0.0009421855211257935,-1.9551953300833702e-07,0.0,0.1599999964237213,0.7313058972358704,0.7313058972358704,0.17,nan,0.20999999344348907,nan,0.0,0.0,1668050413.815034
241596295.0,0.00148695707321167,3.096647560596466e-07,0.0,0.1599999964237213,0.7183389067649841,0.7183389067649841,0.34,nan,0.20999999344348907,nan,0.0,0.0,1668050413.915316
241695999.0,-0.0006665885448455811,-1.3888347893953323e-07,0.0,0.1599999964237213,0.7041442394256592,0.7041442394256592,0.29,nan,0.20999999344348907,nan,0.0,0.0,1668050414.01502
241796278.0,0.0005651414394378662,1.1757947504520416e-07,0.0,0.1599999964237213,0.6903594732284546,0.6903594732284546,0.3,nan,0.20999999344348907,nan,0.0,0.0,1668050414.115299
241895979.0,-0.001719549298286438,-3.5855919122695923e-07,0.0,0.1599999964237213,0.6778238415718079,0.6778238415718079,0.09,nan,0.20999999344348907,nan,0.0,0.0,1668050414.215
241996114.0,0.0005379766225814819,1.1164229363203049e-07,0.0,0.1599999964237213,0.6662660837173462,0.6662660837173462,0.13,nan,0.20999999344348907,nan,0.0,0.0,1668050414.315135
242096170.0,-0.0002923011779785156,-6.076879799365997e-08,0.0,0.1599999964237213,0.6549531817436218,0.6549531817436218,0.28,nan,0.23999999463558197,nan,0.0,-1.0,1668050414.415191
242196063.0,0.0013570636510849,2.814922481775284e-07,0.0,0.1599999964237213,0.6427531242370605,0.6427531242370605,0.23,nan,0.23999999463558197,nan,0.0,-1.0,1668050414.515084
242296044.0,-0.0006724298000335693,-1.4004763215780258e-07,0.0,0.1599999964237213,0.6301314830780029,0.6301314830780029,0.23,nan,0.23999999463558197,nan,0.0,-1.0,1668050414.615065
242396156.0,0.0004712343215942383,9.778887033462524e-08,0.0,0.1599999964237213,0.618620753288269,0.618620753288269,0.25,nan,0.23999999463558197,nan,0.0,-1.0,1668050414.715177
242496042.0,-0.0011413097381591797,-2.3795291781425476e-07,0.0,0.1599999964237213,0.6072179675102234,0.6072179675102234,0.28,nan,0.20999999344348907,nan,0.0,-1.0,1668050414.815063
242595987.0,0.0006620734930038452,1.384178176522255e-07,0.0,0.1599999964237213,0.5963053703308105,0.5963053703308105,0.25,nan,0.20999999344348907,nan,0.0,-1.0,1668050414.915008
242696205.0,-0.000254705548286438,-5.3318217396736145e-08,0.0,0.1599999964237213,0.5857078433036804,0.5857078433036804,0.28,nan,0.20999999344348907,nan,0.0,-1.0,1668050415.015226
242796536.0,0.0009470283985137939,1.9778963178396225e-07,0.0,0.1599999964237213,0.5758668780326843,0.5758668780326843,0.36,nan,0.20999999344348907,nan,0.0,-1.0,1668050415.115557
242896179.0,-0.00016680359840393066,-3.485183697193861e-08,0.0,0.1599999964237213,0.566019594669342,0.566019594669342,0.17,nan,0.20999999344348907,nan,0.0,-2.0,1668050415.2152
242996042.0,3.229081630706787e-05,6.752088665962219e-09,0.0,0.1599999964237213,0.5567824840545654,0.5567824840545654,0.18,nan,0.20999999344348907,nan,0.0,-2.0,1668050415.315063
243096124.0,-0.00037530064582824707,-7.87549652159214e-08,0.0,0.1599999964237213,0.5481365323066711,0.5481365323066711,0.36,nan,0.23999999463558197,nan,0.0,-2.0,1668050415.415145
243196077.0,-0.00014473497867584229,-3.031163942068815e-08,0.0,0.1599999964237213,0.5387392640113831,0.5387392640113831,0.22,nan,0.23999999463558197,nan,0.0,-2.0,1668050415.515098
243296054.0,0.0005226284265518188,1.0954681783914566e-07,0.0,0.1599999964237213,0.5291199088096619,0.5291199088096619,0.06,nan,0.25999999046325684,nan,0.0,-2.0,1668050415.6150749
243396323.0,4.3720006942749023e-05,9.164068615064025e-09,0.0,0.1599999964237213,0.5205414295196533,0.5205414295196533,0.17,nan,0.28999999165534973,nan,0.0,-2.0,1668050415.715344
246496097.0,0.0007321536540985107,1.7334241420030594e-07,0.0,0.1599999964237213,0.38507696986198425,0.38507696986198425,0.21,nan,0.20999999344348907,nan,0.0,-4.0,1668050418.815118
246607993.0,-0.0034783482551574707,-8.151400834321976e-07,0.0,0.1599999964237213,0.38061264157295227,0.38061264157295227,0.25,nan,0.20999999344348907,nan,0.0,-3.0,1668050418.9270139
246707863.0,0.002859547734260559,6.558839231729507e-07,0.0,0.1599999964237213,0.376224547624588,0.376224547624588,0.23,nan,0.20999999344348907,nan,0.0,-4.0,1668050419.026884
246807925.0,-0.0038009583950042725,-8.582137525081635e-07,0.0,0.1599999964237213,0.369686096906662,0.369686096906662,0.29,nan,0.20999999344348907,nan,0.0,-4.0,1668050419.126946
246907869.0,0.00362984836101532,8.060596883296967e-07,0.0,0.1599999964237213,0.363420307636261,0.363420307636261,0.16,nan,0.20999999344348907,nan,0.0,-4.0,1668050419.22689
247008016.0,-0.001547098159790039,-3.4086406230926514e-07,0.0,0.1599999964237213,0.35576316714286804,0.35576316714286804,0.18,nan,0.20999999344348907,nan,0.0,-4.0,1668050419.327037
247108065.0,0.00028608739376068115,6.126356311142445e-08,0.0,0.1599999964237213,0.34874993562698364,0.34874993562698364,0.25,nan,0.20999999344348907,nan,0.0,-3.0,1668050419.4270859
247207877.0,-0.0009779781103134155,-2.1117739379405975e-07,0.0,0.1599999964237213,0.3403864800930023,0.3403864800930023,0.25,nan,0.20999999344348907,nan,0.0,-4.0,1668050419.526898
247308040.0,-0.0007787644863128662,-1.646694727241993e-07,0.0,0.1599999964237213,0.3318141996860504,0.3318141996860504,0.3,nan,0.20999999344348907,nan,0.0,-4.0,1668050419.627061
247407886.0,9.196996688842773e-05,1.9681465346366167e-08,0.0,0.1599999964237213,0.3236161172389984,0.3236161172389984,0.3,nan,0.20999999344348907,nan,0.0,-4.0,1668050419.726907
247507914.0,-0.0004490017890930176,-9.47329681366682e-08,0.0,0.1599999964237213,0.31589585542678833,0.31589585542678833,0.21,nan,0.20999999344348907,nan,0.0,-4.0,1668050419.826935
247607925.0,0.0011367201805114746,2.421438694000244e-07,0.0,0.1599999964237213,0.3089006543159485,0.3089006543159485,0.29,nan,0.20999999344348907,nan,0.0,-5.0,1668050419.926946
247708081.0,-0.0011978596448898315,-2.5390181690454483e-07,0.0,0.1599999964237213,0.3023034334182739,0.3023034334182739,0.31,nan,0.20999999344348907,nan,0.0,-4.0,1668050420.027102
247807848.0,0.0019401013851165771,4.149042069911957e-07,0.0,0.1599999964237213,0.2956790030002594,0.2956790030002594,0.22,nan,0.20999999344348907,nan,0.0,-5.0,1668050420.126869
247907939.0,-0.001584365963935852,-3.3888500183820724e-07,0.0,0.1599999964237213,0.28926730155944824,0.28926730155944824,0.24,nan,0.20999999344348907,nan,0.0,-4.0,1668050420.22696
248007982.0,0.0010089576244354248,2.1618325263261795e-07,0.0,0.1599999964237213,0.28375354409217834,0.28375354409217834,0.43,nan,0.20999999344348907,nan,0.0,-4.0,1668050420.327003
248107847.0,-0.0005018115043640137,-1.0797521099448204e-07,0.0,0.1599999964237213,0.27761751413345337,0.27761751413345337,0.3,nan,0.20999999344348907,nan,0.0,-5.0,1668050420.426868
248207958.0,0.000948682427406311,2.026790753006935e-07,0.0,0.1599999964237213,0.2718227803707123,0.2718227803707123,0.22,nan,0.20999999344348907,nan,0.0,-5.0,1668050420.526979
248307997.0,-0.00014983117580413818,-3.2421667128801346e-08,0.0,0.1599999964237213,0.26737478375434875,0.26737478375434875,0.27,nan,0.20999999344348907,nan,0.0,-5.0,1668050420.627018
248408060.0,0.0008991211652755737,1.916196197271347e-07,0.0,0.1599999964237213,0.2630820572376251,0.2630820572376251,0.3,nan,0.20999999344348907,nan,0.0,-5.0,1668050420.727081
248507844.0,-0.000565841794013977,-1.2188684195280075e-07,0.0,0.1599999964237213,0.25797608494758606,0.25797608494758606,0.29,nan,0.20999999344348907,nan,0.0,-5.0,1668050420.826865
248607993.0,0.00021941959857940674,4.713365342468023e-08,0.0,0.1599999964237213,0.2530725300312042,0.2530725300312042,0.31,nan,0.20999999344348907,nan,0.0,-5.0,1668050420.9270139
248707835.0,-0.0005056709051132202,-1.0855728760361671e-07,0.0,0.1599999964237213,0.24824585020542145,0.24824585020542145,0.27,nan,0.20999999344348907,nan,0.0,-5.0,1668050421.026856
248807943.0,-0.0004124194383621216,-8.86793714016676e-08,0.0,0.1599999964237213,0.24374666810035706,0.24374666810035706,0.24,nan,0.20999999344348907,nan,0.0,-5.0,1668050421.126964
248907940.0,0.00011363625526428223,2.4367182049900293e-08,0.0,0.1599999964237213,0.23948508501052856,0.23948508501052856,0.4,nan,0.20999999344348907,nan,0.0,-5.0,1668050421.226961
249007819.0,0.0004672110080718994,1.0046642273664474e-07,0.0,0.1599999964237213,0.2351388782262802,0.2351388782262802,0.36,nan,0.20999999344348907,nan,0.0,-5.0,1668050421.32684
249107986.0,0.0013099610805511475,2.812594175338745e-07,0.0,0.1599999964237213,0.2306029349565506,0.2306029349565506,0.3,nan,0.20999999344348907,nan,0.0,-5.0,1668050421.427007
249207998.0,-0.0003637969493865967,-7.87549652159214e-08,0.0,0.1599999964237213,0.22710895538330078,0.22710895538330078,0.39,nan,0.20999999344348907,nan,0.0,-5.0,1668050421.527019
249307958.0,0.0001332610845565796,2.8623617254197598e-08,0.0,0.1599999964237213,0.22418616712093353,0.22418616712093353,0.35000000000000003,nan,0.20999999344348907,nan,0.0,-5.0,1668050421.6269789
249407987.0,-0.001266762614250183,-2.738088369369507e-07,0.0,0.1599999964237213,0.22095276415348053,0.22095276415348053,0.28,nan,0.20999999344348907,nan,0.0,-5.0,1668050421.727008
249507919.0,-0.00031828880310058594,-6.868503987789154e-08,0.0,0.1599999964237213,0.21853290498256683,0.21853290498256683,0.31,nan,0.20999999344348907,nan,0.0,-5.0,1668050421.82694
249607850.0,0.0005958378314971924,1.2799864634871483e-07,0.0,0.1599999964237213,0.21618585288524628,0.21618585288524628,0.31,nan,0.20999999344348907,nan,0.0,-5.0,1668050421.926871
249708042.0,-2.3812055587768555e-05,-5.120455170981586e-09,0.0,0.1599999964237213,0.2133100926876068,0.2133100926876068,0.43,nan,0.20999999344348907,nan,0.0,-5.0,1668050422.027063
249807889.0,-0.00034821033477783203,-7.476774044334888e-08,0.0,0.1599999964237213,0.21039685606956482,0.21039685606956482,0.38,nan,0.20999999344348907,nan,0.0,-5.0,1668050422.12691
252807875.0,-0.004800647497177124,-1.2097880244255066e-06,0.0,0.1599999964237213,0.07941770553588867,0.07941770553588867,0.22,nan,0.20999999344348907,nan,0.0,-6.0,1668050425.126896
252919849.0,-0.0010759681463241577,-2.684537321329117e-07,0.0,0.1599999964237213,0.07545575499534607,0.07545575499534607,0.28,nan,0.20999999344348907,nan,0.0,-6.0,1668050425.23887
253019953.0,0.0023680031299591064,5.725305527448654e-07,0.0,0.1599999964237213,0.07382728159427643,0.07382728159427643,0.32,nan,0.20999999344348907,nan,0.0,-6.0,1668050425.338974
253119898.0,0.002210676670074463,5.217734724283218e-07,0.0,0.1599999964237213,0.07231207937002182,0.07231207937002182,0.22,nan,0.20999999344348907,nan,0.0,-6.0,1668050425.438919
253219857.0,0.0011004507541656494,2.5460030883550644e-07,0.0,0.1599999964237213,0.07171453535556793,0.07171453535556793,0.49,nan,0.20999999344348907,nan,0.0,-6.0,1668050425.538878
253319937.0,0.0004748702049255371,1.0756775736808777e-07,0.0,0.1599999964237213,0.07182719558477402,0.07182719558477402,0.28,nan,0.20999999344348907,nan,0.0,-6.0,1668050425.638958
253419868.0,-0.002247914671897888,-4.994217306375504e-07,0.0,0.1599999964237213,0.07171226292848587,0.07171226292848587,0.28,nan,0.20999999344348907,nan,0.0,-6.0,1668050425.738889
253519867.0,0.000570937991142273,1.253793016076088e-07,0.0,0.1599999964237213,0.07400798052549362,0.07400798052549362,0.29,nan,0.23999999463558197,nan,0.0,-6.0,1668050425.838888
253619839.0,0.0007713288068771362,1.6827834770083427e-07,0.0,0.1599999964237213,0.07554087042808533,0.07554087042808533,0.24,nan,0.23999999463558197,nan,0.0,-6.0,1668050425.93886
253719826.0,0.0008269846439361572,1.8009450286626816e-07,0.0,0.1599999964237213,0.07667159289121628,0.07667159289121628,0.33,nan,0.23999999463558197,nan,0.0,-6.0,1668050426.038847
253819929.0,0.0007896274328231812,1.720036379992962e-07,0.0,0.1599999964237213,0.07752139121294022,0.07752139121294022,0.31,nan,0.23999999463558197,nan,0.0,-6.0,1668050426.1389499
253919947.0,-0.0004958063364028931,-1.078587956726551e-07,0.0,0.1599999964237213,0.07774390280246735,0.07774390280246735,0.39,nan,0.23999999463558197,nan,0.0,-6.0,1668050426.238968
254019901.0,-0.0008554905652999878,-1.8620630726218224e-07,0.0,0.1599999964237213,0.0784182921051979,0.0784182921051979,0.17,nan,0.23999999463558197,nan,0.0,-6.0,1668050426.338922
254119808.0,0.00036218762397766113,7.904600352048874e-08,0.0,0.1599999964237213,0.07919877022504807,0.07919877022504807,0.34,nan,0.23999999463558197,nan,0.0,-6.0,1668050426.438829
254219839.0,-0.00034803152084350586,-7.57281668484211e-08,0.0,0.1599999964237213,0.08044440299272537,0.08044440299272537,0.1,nan,0.20999999344348907,nan,0.0,-6.0,1668050426.53886
254319817.0,0.0006495565176010132,1.4319084584712982e-07,0.0,0.1599999964237213,0.08040480315685272,0.08040480315685272,0.21,nan,0.20999999344348907,nan,0.0,-6.0,1668050426.638838
254419895.0,0.00038032233715057373,8.33242665976286e-08,0.0,0.1599999964237213,0.0805049017071724,0.0805049017071724,0.12,nan,0.20999999344348907,nan,0.0,-6.0,1668050426.738916
254519824.0,0.00011073052883148193,2.4498149286955595e-08,0.0,0.1599999964237213,0.07878366857767105,0.07878366857767105,0.37,nan,0.20999999344348907,nan,0.0,-6.0,1668050426.838845
254619951.0,-0.0005689561367034912,-1.2526288628578186e-07,0.0,0.1599999964237213,0.07664185762405396,0.07664185762405396,0.26,nan,0.20999999344348907,nan,0.0,-6.0,1668050426.938972
254720012.0,0.00043192505836486816,9.557697921991348e-08,0.0,0.1599999964237213,0.07383859902620316,0.07383859902620316,0.25,nan,0.20999999344348907,nan,0.0,-6.0,1668050427.039033
254819982.0,7.300078868865967e-05,1.6196281649172306e-08,0.0,0.1599999964237213,0.07234808057546616,0.07234808057546616,0.25,nan,0.20999999344348907,nan,0.0,-6.0,1668050427.139003
254919876.0,9.611248970031738e-05,2.1354935597628355e-08,0.0,0.1599999964237213,0.07107184082269669,0.07107184082269669,0.25,nan,0.20999999344348907,nan,0.0,-5.0,1668050427.238897
255019796.0,0.0009532123804092407,2.125161699950695e-07,0.0,0.1599999964237213,0.06972619891166687,0.06972619891166687,0.26,nan,0.20999999344348907,nan,0.0,-6.0,1668050427.338817
255119837.0,-0.0011470764875411987,-2.5529880076646805e-07,0.0,0.1599999964237213,0.06827529519796371,0.06827529519796371,0.23,nan,0.20999999344348907,nan,0.0,-6.0,1668050427.438858
255219833.0,0.0011762529611587524,2.632150426506996e-07,0.0,0.1599999964237213,0.06708800047636032,0.06708800047636032,0.3,nan,0.20999999344348907,nan,0.0,-6.0,1668050427.538854
255319875.0,-0.0008233189582824707,-1.8370337784290314e-07,0.0,0.1599999964237213,0.06560861319303513,0.06560861319303513,0.15,nan,0.20999999344348907,nan,0.0,-6.0,1668050427.638896
255419890.0,0.0004668235778808594,1.047446858137846e-07,0.0,0.1599999964237213,0.06419051438570023,0.06419051438570023,0.3,nan,0.20999999344348907,nan,0.0,-6.0,1668050427.738911
255519836.0,0.0003354102373123169,7.505877874791622e-08,0.0,0.1599999964237213,0.06295109540224075,0.06295109540224075,0.09,nan,0.20999999344348907,nan,0.0,-6.0,1668050427.838857
258419991.0,0.002141520380973816,5.434267222881317e-07,0.0,0.1599999964237213,-0.06400952488183975,-0.06400952488183975,0.29,nan,0.23999999463558197,nan,0.0,-7.0,1668050430.739012
258532086.0,0.0013305246829986572,3.391178324818611e-07,0.0,0.1599999964237213,-0.06411322951316833,-0.06411322951316833,0.33,nan,0.23999999463558197,nan,0.0,-7.0,1668050430.851107
258632114.0,3.6969780921936035e-05,9.105860954150558e-09,0.0,0.1599999964237213,-0.06217602640390396,-0.06217602640390396,0.22,nan,0.23999999463558197,nan,0.0,-6.0,1668050430.951135
258731862.0,0.0003776252269744873,9.164796210825443e-08,0.0,0.1599999964237213,-0.059185754507780075,-0.059185754507780075,0.27,nan,0.23999999463558197,nan,0.0,-6.0,1668050431.050883
258832031.0,0.0008855909109115601,2.1082814782857895e-07,0.0,0.1599999964237213,-0.055002111941576004,-0.055002111941576004,0.28,nan,0.23999999463558197,nan,0.0,-6.0,1668050431.151052
258931976.0,0.0004003196954727173,9.362702257931232e-08,0.0,0.1599999964237213,-0.05148300528526306,-0.05148300528526306,0.24,nan,0.23999999463558197,nan,0.0,-6.0,1668050431.250997
259032114.0,-0.0003566741943359375,-8.09086486697197e-08,0.0,0.1599999964237213,-0.04774119332432747,-0.04774119332432747,0.15,nan,0.23999999463558197,nan,0.0,-6.0,1668050431.351135
259131877.0,0.0006950646638870239,1.5873229131102562e-07,0.0,0.1599999964237213,-0.04401209205389023,-0.04401209205389023,0.38,nan,0.20999999344348907,nan,0.0,-6.0,1668050431.450898
259231917.0,0.0001455545425415039,3.277091309428215e-08,0.0,0.1599999964237213,-0.04076070711016655,-0.04076070711016655,0.36,nan,0.20999999344348907,nan,0.0,-6.0,1668050431.550938
259331950.0,0.001063615083694458,2.400483936071396e-07,0.0,0.1599999964237213,-0.038426537066698074,-0.038426537066698074,0.13,nan,0.20999999344348907,nan,0.0,-6.0,1668050431.650971
259432033.0,7.672607898712158e-05,1.71203282661736e-08,0.0,0.1599999964237213,-0.03486710041761398,-0.03486710041761398,0.33,nan,0.20999999344348907,nan,0.0,-6.0,1668050431.751054
259532059.0,0.00010605156421661377,2.414890332147479e-08,0.0,0.1599999964237213,-0.030902791768312454,-0.030902791768312454,0.36,nan,0.20999999344348907,nan,0.0,-6.0,1668050431.85108
259631939.0,9.515881538391113e-05,2.123852027580142e-08,0.0,0.1599999964237213,-0.0285263080149889,-0.0285263080149889,0.33,nan,0.20999999344348907,nan,0.0,-6.0,1668050431.95096
259732135.0,5.507469177246094e-05,1.267835614271462e-08,0.0,0.1599999964237213,-0.025570793077349663,-0.025570793077349663,0.44,nan,0.20999999344348907,nan,0.0,-6.0,1668050432.051156
259831959.0,0.0002655982971191406,5.995389074087143e-08,0.0,0.1599999964237213,-0.02186763286590576,-0.02186763286590576,0.33,nan,0.23999999463558197,nan,0.0,-6.0,1668050432.15098
259932107.0,0.0003274083137512207,7.470953278243542e-08,0.0,0.1599999964237213,-0.017948273569345474,-0.017948273569345474,0.39,nan,0.23999999463558197,nan,0.0,-6.0,1668050432.251128
260031962.0,0.0003865063190460205,8.85920599102974e-08,0.0,0.1599999964237213,-0.013176321983337402,-0.013176321983337402,0.3,nan,0.23999999463558197,nan,0.0,-6.0,1668050432.350983
260132106.0,-0.0008279681205749512,-1.882435753941536e-07,0.0,0.1599999964237213,-0.008812288753688335,-0.008812288753688335,0.38,nan,0.23999999463558197,nan,0.0,-6.0,1668050432.451127
260232068.0,0.0005683451890945435,1.3154931366443634e-07,0.0,0.1599999964237213,-0.0041807545349001884,-0.0041807545349001884,0.21,nan,0.23999999463558197,nan,0.0,-6.0,1668050432.551089
260332071.0,-0.0004613548517227173,-1.0521034710109234e-07,0.0,0.1599999964237213,-0.0004369193338789046,-0.0004369193338789046,0.25,nan,0.23999999463558197,nan,0.0,-6.0,1668050432.651092
260432149.0,0.0011526048183441162,2.6694033294916153e-07,0.0,0.1599999964237213,0.003424933645874262,0.003424933645874262,0.26,nan,0.20999999344348907,nan,0.0,-6.0,1668050432.75117
260531863.0,-0.00021179020404815674,-4.857429303228855e-08,0.0,0.1599999964237213,0.005751998629420996,0.005751998629420996,0.2,nan,0.23999999463558197,nan,0.0,-6.0,1668050432.850884
260632084.0,0.00029012560844421387,6.688060238957405e-08,0.0,0.1599999964237213,0.007669365033507347,0.007669365033507347,0.32,nan,0.23999999463558197,nan,0.0,-6.0,1668050432.9511049
260731945.0,-0.000629037618637085,-1.4505349099636078e-07,0.0,0.1599999964237213,0.009047632105648518,0.009047632105648518,0.19,nan,0.23999999463558197,nan,0.0,-6.0,1668050433.050966
260832136.0,0.0006505995988845825,1.4994293451309204e-07,0.0,0.1599999964237213,0.009782758541405201,0.009782758541405201,0.3,nan,0.23999999463558197,nan,0.0,-6.0,1668050433.151157
260931947.0,-0.00035187602043151855,-8.163624443113804e-08,0.0,0.1599999964237213,0.010566298849880695,0.010566298849880695,0.23,nan,0.23999999463558197,nan,0.0,-6.0,1668050433.250968
261032098.0,0.0007054358720779419,1.6257399693131447e-07,0.0,0.1599999964237213,0.01086613442748785,0.01086613442748785,0.33,nan,0.23999999463558197,nan,0.0,-6.0,1668050433.351119
261131838.0,5.27799129486084e-05,1.2245436664670706e-08,0.0,0.1599999964237213,0.011213071644306183,0.011213071644306183,0.26,nan,0.23999999463558197,nan,0.0,-6.0,1668050433.450859
261232047.0,-7.303059101104736e-05,-1.680018613114953e-08,0.0,0.1599999964237213,0.011355739086866379,0.011355739086866379,0.32,nan,0.20999999344348907,nan,0.0,-6.0,1668050433.551068
261332054.0,-0.00011177361011505127,-2.5836925487965345e-08,0.0,0.1599999964237213,0.012018125504255295,0.012018125504255295,0.16,nan,0.20999999344348907,nan,0.0,-6.0,1668050433.651075
261431977.0,0.00018687546253204346,4.300090949982405e-08,0.0,0.1599999964237213,0.012479741126298904,0.012479741126298904,0.25,nan,0.20999999344348907,nan,0.0,-6.0,1668050433.750998
261532104.0,0.0005945265293121338,1.371372491121292e-07,0.0,0.1599999964237213,0.013117844238877296,0.013117844238877296,0.28,nan,0.20999999344348907,nan,0.0,-6.0,1668050433.851125
261631912.0,0.00018733739852905273,4.3146428652107716e-08,0.0,0.1599999964237213,0.012751955538988113,0.012751955538988113,0.37,nan,0.20999999344348907,nan,0.0,-6.0,1668050433.950933
261732170.0,0.0003809034824371338,8.780625648796558e-08,0.0,0.1599999964237213,0.012452637776732445,0.012452637776732445,0.41000000000000003,nan,0.20999999344348907,nan,0.0,-6.0,1668050434.051191
261831934.0,-0.0009389519691467285,-2.1693995222449303e-07,0.0,0.1599999964237213,0.012380953878164291,0.012380953878164291,0.31,nan,0.20999999344348907,nan,0.0,-5.0,1668050434.150955
261932121.0,0.0004941821098327637,1.1391239240765572e-07,0.0,0.1599999964237213,0.013337262906134129,0.013337262906134129,0.2,nan,0.20999999344348907,nan,0.0,-6.0,1668050434.251142
262031916.0,-0.00039042532444000244,-9.028008207678795e-08,0.0,0.1599999964237213,0.014876690693199635,0.014876690693199635,0.34,nan,0.20999999344348907,nan,0.0,-6.0,1668050434.350937
262132054.0,0.0009542107582092285,2.2043241187930107e-07,0.0,0.1599999964237213,0.016271401196718216,0.016271401196718216,0.36,nan,0.20999999344348907,nan,0.0,-6.0,1668050434.451075
262232111.0,-0.00044645369052886963,-1.0296935215592384e-07,0.0,0.1599999964237213,0.0166388601064682,0.0166388601064682,0.35000000000000003,nan,0.20999999344348907,nan,0.0,-6.0,1668050434.551132
262332001.0,0.00021667778491973877,4.9752998165786266e-08,0.0,0.1599999964237213,0.017433082684874535,0.017433082684874535,0.35000000000000003,nan,0.20999999344348907,nan,0.0,-6.0,1668050434.651022
262432128.0,-0.0006211698055267334,-1.4284159988164902e-07,0.0,0.1599999964237213,0.018637731671333313,0.018637731671333313,0.21,nan,0.20999999344348907,nan,0.0,-6.0,1668050434.751149
262532041.0,0.00037983059883117676,8.716597221791744e-08,0.0,0.1599999964237213,0.020112281665205956,0.020112281665205956,0.25,nan,0.23999999463558197,nan,0.0,-6.0,1668050434.851062
262632047.0,-0.0001443028450012207,-3.3207470551133156e-08,0.0,0.1599999964237213,0.021454129368066788,0.021454129368066788,0.13,nan,0.23999999463558197,nan,0.0,-6.0,1668050434.951068
262731971.0,0.0007442831993103027,1.710723154246807e-07,0.0,0.1599999964237213,0.021896176040172577,0.021896176040172577,0.18,nan,0.20999999344348907,nan,0.0,-6.0,1668050435.050992
262832025.0,0.0001780390739440918,4.086177796125412e-08,0.0,0.1599999964237213,0.02164384163916111,0.02164384163916111,0.23,nan,0.20999999344348907,nan,0.0,-6.0,1668050435.151046
262931917.0,0.00022397935390472412,5.136826075613499e-08,0.0,0.1599999964237213,0.020279325544834137,0.020279325544834137,0.31,nan,0.1899999976158142,nan,0.0,-6.0,1668050435.250938
263032199.0,-0.0003248453140258789,-7.438939064741135e-08,0.0,0.1599999964237213,0.018637914210557938,0.018637914210557938,0.35000000000000003,nan,0.1899999976158142,nan,0.0,-6.0,1668050435.35122
263132140.0,0.00024765729904174805,5.689798854291439e-08,0.0,0.1599999964237213,0.017087452113628387,0.017087452113628387,0.3,nan,0.1899999976158142,nan,0.0,-6.0,1668050435.451161
263232088.0,7.297098636627197e-05,1.6829289961606264e-08,0.0,0.1599999964237213,0.01614956185221672,0.01614956185221672,0.27,nan,0.1899999976158142,nan,0.0,-6.0,1668050435.551109
263332075.0,0.0003956258296966553,9.115319699048996e-08,0.0,0.1599999964237213,0.01592903397977352,0.01592903397977352,0.3,nan,0.1899999976158142,nan,0.0,-6.0,1668050435.651096
263431998.0,0.0004206746816635132,9.703217074275017e-08,0.0,0.1599999964237213,0.015766995027661324,0.015766995027661324,0.27,nan,0.1899999976158142,nan,0.0,-6.0,1668050435.751019
263532047.0,-0.00013428926467895508,-3.093737177550793e-08,0.0,0.1599999964237213,0.015436787158250809,0.015436787158250809,0.24,nan,0.1899999976158142,nan,0.0,-6.0,1668050435.851068
263631965.0,0.00022549927234649658,5.2066752687096596e-08,0.0,0.1599999964237213,0.015334654599428177,0.015334654599428177,0.25,nan,0.1899999976158142,nan,0.0,-6.0,1668050435.950986
263732159.0,0.00016096234321594238,3.716559149324894e-08,0.0,0.1599999964237213,0.015104101039469242,0.015104101039469242,0.22,nan,0.1899999976158142,nan,0.0,-6.0,1668050436.05118
263831977.0,0.000269278883934021,6.228219717741013e-08,0.0,0.1599999964237213,0.014582941308617592,0.014582941308617592,0.47000000000000003,nan,0.1899999976158142,nan,0.0,-6.0,1668050436.1509979
263932140.0,0.00024850666522979736,5.736364983022213e-08,0.0,0.1599999964237213,0.013765825890004635,0.013765825890004635,0.37,nan,0.1899999976158142,nan,0.0,-6.0,1668050436.251161
264032074.0,0.0002119988203048706,4.885077942162752e-08,0.0,0.1599999964237213,0.012874756008386612,0.012874756008386612,0.23,nan,0.1899999976158142,nan,0.0,-6.0,1668050436.351095
264131908.0,-2.2932887077331543e-05,-5.284164217300713e-09,0.0,0.1599999964237213,0.013525402173399925,0.013525402173399925,0.25,nan,0.1899999976158142,nan,0.0,-6.0,1668050436.450929
264232159.0,0.00010904669761657715,2.5087501853704453e-08,0.0,0.1599999964237213,0.014449959620833397,0.014449959620833397,0.25,nan,0.1899999976158142,nan,0.0,-6.0,1668050436.55118
264331930.0,-0.00024834275245666504,-5.718902684748173e-08,0.0,0.1599999964237213,0.014439480379223824,0.014439480379223824,0.32,nan,0.1899999976158142,nan,0.0,-6.0,1668050436.650951
264432207.0,0.00017330050468444824,3.9915903471410275e-08,0.0,0.1599999964237213,0.014140545390546322,0.014140545390546322,0.45,nan,0.1899999976158142,nan,0.0,-6.0,1668050436.751228
264532063.0,0.00020495057106018066,4.7395587898790836e-08,0.0,0.1599999964237213,0.013609650544822216,0.013609650544822216,0.17,nan,0.1899999976158142,nan,0.0,-6.0,1668050436.851084
264632096.0,6.768107414245605e-05,1.5577825251966715e-08,0.0,0.1599999964237213,0.013533765450119972,0.013533765450119972,0.2,nan,0.1899999976158142,nan,0.0,-6.0,1668050436.951117
264731991.0,-0.00010582804679870605,-2.4410837795585394e-08,0.0,0.1599999964237213,0.014323150739073753,0.014323150739073753,0.28,nan,0.1899999976158142,nan,0.0,-6.0,1668050437.051012
264832040.0,-0.00042045116424560547,-9.639188647270203e-08,0.0,0.1599999964237213,0.013938086107373238,0.013938086107373238,0.21,nan,0.1899999976158142,nan,0.0,-6.0,1668050437.151061
264931995.0,0.00017504394054412842,4.001776687800884e-08,0.0,0.1599999964237213,0.013001851737499237,0.013001851737499237,0.24,nan,0.1899999976158142,nan,0.0,-6.0,1668050437.251016
265031990.0,0.00023593008518218994,5.403126124292612e-08,0.0,0.1599999964237213,0.012133326381444931,0.012133326381444931,0.18,nan,0.1899999976158142,nan,0.0,-6.0,1668050437.351011
265132193.0,0.000330314040184021,7.566995918750763e-08,0.0,0.1599999964237213,0.010895822197198868,0.010895822197198868,0.23,nan,0.1899999976158142,nan,0.0,-6.0,1668050437.451214
265231975.0,0.0003809928894042969,8.734059520065784e-08,0.0,0.1599999964237213,0.009579580277204514,0.009579580277204514,0.15,nan,0.1899999976158142,nan,0.0,-6.0,1668050437.550996
265332090.0,-0.0002432316541671753,-5.596666596829891e-08,0.0,0.1599999964237213,0.007878892123699188,0.007878892123699188,0.48,nan,0.1899999976158142,nan,0.0,-6.0,1668050437.651111
265431994.0,-0.0001242309808731079,-2.8623617254197598e-08,0.0,0.1599999964237213,0.006321996450424194,0.006321996450424194,0.24,nan,0.1899999976158142,nan,0.0,-6.0,1668050437.751015
265532121.0,0.0003163069486618042,7.281778380274773e-08,0.0,0.1599999964237213,0.004452519118785858,0.004452519118785858,0.25,nan,0.1899999976158142,nan,0.0,-6.0,1668050437.851142
265631981.0,0.00042939186096191406,9.883660823106766e-08,0.0,0.1599999964237213,0.0042779045179486275,0.0042779045179486275,0.44,nan,0.1899999976158142,nan,0.0,-6.0,1668050437.951002
265732040.0,0.000294417142868042,6.76955096423626e-08,0.0,0.1599999964237213,0.003694270271807909,0.003694270271807909,0.27,nan,0.1899999976158142,nan,0.0,-6.0,1668050438.051061
265832197.0,0.000263899564743042,6.085610948503017e-08,0.0,0.1599999964237213,0.003240908496081829,0.003240908496081829,0.23,nan,0.1899999976158142,nan,0.0,-6.0,1668050438.151218
265931877.0,-0.00010852515697479248,-2.505839802324772e-08,0.0,0.1599999964237213,0.003824341343715787,0.003824341343715787,0.29,nan,0.1899999976158142,nan,0.0,-6.0,1668050438.250898
266032140.0,-0.00021070241928100586,-4.885077942162752e-08,0.0,0.1599999964237213,0.0040361457504332066,0.0040361457504332066,0.21,nan,0.1899999976158142,nan,0.0,-6.0,1668050438.351161
266131998.0,0.000331684947013855,7.665948942303658e-08,0.0,0.1599999964237213,0.003845048602670431,0.003845048602670431,0.33,nan,0.1899999976158142,nan,0.0,-6.0,1668050438.451019
266232134.0,0.00027348101139068604,6.315531209111214e-08,0.0,0.1599999964237213,0.003603021614253521,0.003603021614253521,0.25,nan,0.1899999976158142,nan,0.0,-6.0,1668050438.551155
266331928.0,0.00033968687057495117,7.83184077590704e-08,0.0,0.1599999964237213,0.002957290969789028,0.002957290969789028,0.35000000000000003,nan,0.1899999976158142,nan,0.0,-6.0,1668050438.650949
266432070.0,-0.00015908479690551758,-3.66562744602561e-08,0.0,0.1599999964237213,0.0026699877344071865,0.0026699877344071865,0.33,nan,0.1899999976158142,nan,0.0,-6.0,1668050438.751091
266532052.0,-0.00017435848712921143,-4.0323357097804546e-08,0.0,0.1599999964237213,0.0022989329881966114,0.0022989329881966114,0.34,nan,0.1899999976158142,nan,0.0,-6.0,1668050438.851073
266632121.0,-0.0001507401466369629,-3.491004463285208e-08,0.0,0.1599999964237213,0.002486115787178278,0.002486115787178278,0.27,nan,0.1899999976158142,nan,0.0,-6.0,1668050438.951142
266732218.0,0.00034037232398986816,7.863854989409447e-08,0.0,0.1599999964237213,0.0028546201065182686,0.0028546201065182686,0.28,nan,0.1899999976158142,nan,0.0,-6.0,1668050439.051239
266831893.0,4.559755325317383e-06,1.0527401173021644e-09,0.0,0.1599999964237213,0.0034939495380967855,0.0034939495380967855,0.36,nan,0.1899999976158142,nan,0.0,-5.0,1668050439.150914
266932138.0,0.0001906752586364746,4.409230314195156e-08,0.0,0.1599999964237213,0.003822535276412964,0.003822535276412964,0.12,nan,0.1899999976158142,nan,0.0,-5.0,1668050439.251159
267031916.0,-7.590651512145996e-05,-1.7571437638252974e-08,0.0,0.1599999964237213,0.004135709721595049,0.004135709721595049,0.3,nan,0.1899999976158142,nan,0.0,-5.0,1668050439.350937
267132150.0,-0.0002583414316177368,-5.98374754190445e-08,0.0,0.1599999964237213,0.004741746000945568,0.004741746000945568,0.47000000000000003,nan,0.1899999976158142,nan,0.0,-5.0,1668050439.451171
267231964.0,-0.00013253092765808105,-3.060267772525549e-08,0.0,0.1599999964237213,0.004144991748034954,0.004144991748034954,0.27,nan,0.1899999976158142,nan,0.0,-5.0,1668050439.550985
267332089.0,0.00032745301723480225,7.575727067887783e-08,0.0,0.1599999964237213,0.003941502887755632,0.003941502887755632,0.23,nan,0.1899999976158142,nan,0.0,-5.0,1668050439.65111
267431948.0,0.00012806057929992676,2.9511284083127975e-08,0.0,0.1599999964237213,0.005116552114486694,0.005116552114486694,0.25,nan,0.1899999976158142,nan,0.0,-5.0,1668050439.750969
267532163.0,0.000505983829498291,1.1693919077515602e-07,0.0,0.1599999964237213,0.0057288883253932,0.0057288883253932,0.43,nan,0.1899999976158142,nan,0.0,-5.0,1668050439.851184
267632165.0,-4.79966402053833e-05,-1.1055817594751716e-08,0.0,0.1599999964237213,0.005768722854554653,0.005768722854554653,0.33,nan,0.1899999976158142,nan,0.0,-5.0,1668050439.951186
267731952.0,-0.0002011507749557495,-4.6566128730773926e-08,0.0,0.1599999964237213,0.005871263798326254,0.005871263798326254,0.28,nan,0.1899999976158142,nan,0.0,-5.0,1668050440.050973
267832189.0,0.0008972436189651489,2.071610651910305e-07,0.0,0.1599999964237213,0.006925249472260475,0.006925249472260475,0.27,nan,0.1899999976158142,nan,0.0,-5.0,1668050440.15121
267931966.0,-0.00108279287815094,-2.504093572497368e-07,0.0,0.1599999964237213,0.007816036231815815,0.007816036231815815,0.33,nan,0.1899999976158142,nan,0.0,-5.0,1668050440.250987
268032103.0,0.0016306638717651367,3.7637073546648026e-07,0.0,0.1599999964237213,0.00871717557311058,0.00871717557311058,0.15,nan,0.1899999976158142,nan,0.0,-5.0,1668050440.351124
268132046.0,-0.0010405182838439941,-2.403976395726204e-07,0.0,0.1599999964237213,0.00897649209946394,0.00897649209946394,0.29,nan,0.1899999976158142,nan,0.0,-5.0,1668050440.451067
268232065.0,-2.7939677238464355e-05,-6.461050361394882e-09,0.0,0.1599999964237213,0.009508631192147732,0.009508631192147732,0.11,nan,0.1899999976158142,nan,0.0,-5.0,1668050440.551086
268331918.0,-0.0005753487348556519,-1.3277167454361916e-07,0.0,0.1599999964237213,0.009038582444190979,0.009038582444190979,0.31,nan,0.1899999976158142,nan,0.0,-5.0,1668050440.650939
268432049.0,-0.00033420324325561523,-7.703783921897411e-08,0.0,0.1599999964237213,0.008560276590287685,0.008560276590287685,0.22,nan,0.23999999463558197,nan,0.0,-5.0,1668050440.75107
268532001.0,-0.00026820600032806396,-6.184563972055912e-08,0.0,0.1599999964237213,0.007267846260219812,0.007267846260219812,0.31,nan,0.20999999344348907,nan,0.0,-5.0,1668050440.851022
268632037.0,0.0013211816549301147,3.0384398996829987e-07,0.0,0.1599999964237213,0.006618038285523653,0.006618038285523653,0.27,nan,0.20999999344348907,nan,0.0,-5.0,1668050440.951058
268732060.0,-0.0004933029413223267,-1.1373776942491531e-07,0.0,0.1599999964237213,0.005550772417336702,0.005550772417336702,0.22,nan,0.20999999344348907,nan,0.0,-5.0,1668050441.051081
268832195.0,0.0007460862398147583,1.725275069475174e-07,0.0,0.1599999964237213,0.005331900902092457,0.005331900902092457,0.32,nan,0.20999999344348907,nan,0.0,-5.0,1668050441.151216
268932105.0,-0.0006045401096343994,-1.398148015141487e-07,0.0,0.1599999964237213,0.004974506329745054,0.004974506329745054,0.43,nan,0.20999999344348907,nan,0.0,-5.0,1668050441.251126
269031953.0,-3.4481287002563477e-05,-7.967173587530851e-09,0.0,0.1599999964237213,0.0044303108006715775,0.0044303108006715775,0.26,nan,0.20999999344348907,nan,0.0,-5.0,1668050441.350974
269132159.0,0.0010837316513061523,2.507586032152176e-07,0.0,0.1599999964237213,0.004407327622175217,0.004407327622175217,0.38,nan,0.20999999344348907,nan,0.0,-5.0,1668050441.45118
269231969.0,0.0003718733787536621,8.568167686462402e-08,0.0,0.1599999964237213,0.005235535092651844,0.005235535092651844,0.23,nan,0.20999999344348907,nan,0.0,-5.0,1668050441.55099
269332058.0,0.00017480552196502686,4.0236045606434345e-08,0.0,0.1599999964237213,0.005853329785168171,0.005853329785168171,0.27,nan,0.23999999463558197,nan,0.0,-5.0,1668050441.651079
269432084.0,0.0006929188966751099,1.5919795259833336e-07,0.0,0.1599999964237213,0.006846047472208738,0.006846047472208738,0.39,nan,0.20999999344348907,nan,0.0,-5.0,1668050441.751105
269531948.0,-0.0008101314306259155,-1.860898919403553e-07,0.0,0.1599999964237213,0.007174075115472078,0.007174075115472078,0.45,nan,0.20999999344348907,nan,0.0,-5.0,1668050441.850969
269632154.0,0.000125885009765625,2.89292074739933e-08,0.0,0.1599999964237213,0.007615471258759499,0.007615471258759499,0.27,nan,0.20999999344348907,nan,0.0,-5.0,1668050441.951175
269731943.0,-0.0003803521394729614,-8.742790669202805e-08,0.0,0.1599999964237213,0.008576706983149052,0.008576706983149052,0.46,nan,0.20999999344348907,nan,0.0,-5.0,1668050442.0509639
269832168.0,0.00015373528003692627,3.525929059833288e-08,0.0,0.1599999964237213,0.01047684159129858,0.01047684159129858,0.22,nan,0.20999999344348907,nan,0.0,-5.0,1668050442.151189
269931932.0,0.00021308660507202148,4.908361006528139e-08,0.0,0.1599999964237213,0.011773883365094662,0.011773883365094662,0.3,nan,0.20999999344348907,nan,0.0,-5.0,1668050442.250953
270032062.0,-0.0004977881908416748,-1.1443626135587692e-07,0.0,0.1599999964237213,0.01376951951533556,0.01376951951533556,0.2,nan,0.20999999344348907,nan,0.0,-5.0,1668050442.351083
270131964.0,0.001495853066444397,3.4330878406763077e-07,0.0,0.1599999964237213,0.014860166236758232,0.014860166236758232,0.19,nan,0.20999999344348907,nan,0.0,-5.0,1668050442.450985
270232013.0,-0.0002295374870300293,-5.25033101439476e-08,0.0,0.1599999964237213,0.015615922398865223,0.015615922398865223,0.37,nan,0.20999999344348907,nan,0.0,-5.0,1668050442.551034
270331998.0,0.001298949122428894,2.979068085551262e-07,0.0,0.1599999964237213,0.015602185390889645,0.015602185390889645,0.13,nan,0.20999999344348907,nan,0.0,-5.0,1668050442.651019
270431976.0,-0.0011859536170959473,-2.712476998567581e-07,0.0,0.1599999964237213,0.015083101578056812,0.015083101578056812,0.38,nan,0.23999999463558197,nan,0.0,-5.0,1668050442.750997
270532157.0,0.0006646662950515747,1.5262048691511154e-07,0.0,0.1599999964237213,0.015305873937904835,0.015305873937904835,0.36,nan,0.20999999344348907,nan,0.0,-5.0,1668050442.851178
270631903.0,-0.0023331493139266968,-5.345791578292847e-07,0.0,0.1599999964237213,0.01440705731511116,0.01440705731511116,0.24,nan,0.20999999344348907,nan,0.0,-5.0,1668050442.950924
270732182.0,0.0021452009677886963,4.903413355350494e-07,0.0,0.1599999964237213,0.01466464251279831,0.01466464251279831,0.35000000000000003,nan,0.20999999344348907,nan,0.0,-5.0,1668050443.051203
270831956.0,-0.0018143057823181152,-4.1548628360033035e-07,0.0,0.1599999964237213,0.015083232894539833,0.015083232894539833,0.19,nan,0.20999999344348907,nan,0.0,-5.0,1668050443.150977
270932045.0,0.002892404794692993,6.58910721540451e-07,0.0,0.1599999964237213,0.0156595166772604,0.0156595166772604,0.11,nan,0.1899999976158142,nan,0.0,-5.0,1668050443.251066
271031971.0,-0.0027143359184265137,-6.216578185558319e-07,0.0,0.1599999964237213,0.015977127477526665,0.015977127477526665,0.26,nan,0.1899999976158142,nan,0.0,-5.0,1668050443.350992
271132138.0,0.0019165724515914917,4.377216100692749e-07,0.0,0.1599999964237213,0.0159876998513937,0.0159876998513937,0.09,nan,0.1899999976158142,nan,0.0,-5.0,1668050443.451159
271232132.0,-0.0014009177684783936,-3.220047801733017e-07,0.0,0.1599999964237213,0.014588229358196259,0.014588229358196259,0.22,nan,0.1899999976158142,nan,0.0,-5.0,1668050443.551153
