TimeUS,Dp,Blk,Bytes,FMn,FMx,FAv,timestamp
221513208.0,2.0,1641.0,63731.0,946.0,51113.0,24194.0,1668050393.832229
222515764.0,2.0,506.0,18145.0,45837.0,51107.0,48567.0,1668050394.834785
223518876.0,2.0,503.0,17935.0,45907.0,51123.0,48580.0,1668050395.837897
227527691.0,2.0,156.0,5504.0,45924.0,51168.0,48611.0,1668050399.8467119
228530603.0,2.0,498.0,17726.0,45843.0,50981.0,48505.0,1668050400.849624
229532943.0,2.0,497.0,17647.0,46293.0,51104.0,48739.0,1668050401.851964
233541097.0,2.0,251.0,8905.0,46054.0,51168.0,48442.0,1668050405.860118
234544228.0,2.0,502.0,17886.0,46072.0,51129.0,48762.0,1668050406.863249
235546382.0,2.0,499.0,17727.0,46095.0,51176.0,48624.0,1668050407.865403
238553180.0,2.0,106.0,3678.0,47363.0,51022.0,49204.0,1668050410.872201
239556060.0,2.0,502.0,17886.0,46235.0,51130.0,48712.0,1668050411.875081
240558682.0,2.0,499.0,17727.0,45980.0,51051.0,48659.0,1668050412.877703
241560983.0,2.0,501.0,17765.0,46036.0,51162.0,48736.0,1668050413.880004
242561018.0,2.0,497.0,17647.0,46092.0,51180.0,48625.0,1668050414.880039
246570440.0,2.0,66.0,2398.0,48572.0,50939.0,49766.0,1668050418.889461
247572877.0,2.0,499.0,17727.0,46147.0,51149.0,48505.0,1668050419.891898
248574910.0,2.0,499.0,17727.0,45925.0,51172.0,48614.0,1668050420.893931
249575162.0,2.0,497.0,17647.0,45948.0,51047.0,48525.0,1668050421.894183
253584744.0,2.0,404.0,14350.0,46010.0,51179.0,48810.0,1668050425.903765
254586931.0,2.0,499.0,17727.0,45934.0,51180.0,48658.0,1668050426.905952
255587136.0,2.0,499.0,17727.0,46214.0,51133.0,48661.0,1668050427.906157
258594504.0,2.0,104.0,3688.0,47085.0,50754.0,48951.0,1668050430.913525
259596864.0,2.0,499.0,17727.0,46196.0,51129.0,48758.0,1668050431.915885
260599272.0,2.0,499.0,17727.0,45941.0,51176.0,48646.0,1668050432.918293
261601700.0,2.0,501.0,17765.0,46330.0,51172.0,48927.0,1668050433.920721
262604554.0,2.0,497.0,17647.0,46073.0,51030.0,48495.0,1668050434.923575
263607196.0,2.0,502.0,17872.0,45901.0,51149.0,48708.0,1668050435.926217
264609342.0,2.0,499.0,17727.0,46355.0,51130.0,48742.0,1668050436.928363
265611814.0,2.0,499.0,17727.0,46179.0,51082.0,48695.0,1668050437.930835
266614420.0,2.0,502.0,17784.0,46116.0,51159.0,48639.0,1668050438.933441
267617178.0,2.0,497.0,17647.0,45862.0,51165.0,48582.0,1668050439.936199
268619227.0,2.0,491.0,17407.0,46049.0,51122.0,48547.0,1668050440.938248
269621667.0,2.0,501.0,17823.0,46007.0,51162.0,48793.0,1668050441.940688
270624661.0,2.0,499.0,17727.0,45931.0,51028.0,48313.0,1668050442.943682
271627372.0,2.0,499.0,17685.0,45849.0,51147.0,48552.0,1668050443.946393
272629208.0,2.0,497.0,17647.0,45994.0,51029.0,48551.0,1668050444.948229
274632332.0,2.0,258.0,9143.0,46088.0,51120.0,48551.0,1668050446.951353
275634872.0,2.0,527.0,18680.0,45971.0,51153.0,48764.0,1668050447.953893
276636891.0,2.0,496.0,17537.0,46132.0,51083.0,48555.0,1668050448.9559119
277639083.0,2.0,496.0,17586.0,45976.0,51157.0,48659.0,1668050449.958104
278641735.0,2.0,496.0,17579.0,46019.0,51118.0,48415.0,1668050450.960756
279644490.0,2.0,497.0,17663.0,46003.0,51079.0,48557.0,1668050451.963511
280646967.0,2.0,499.0,17727.0,45944.0,51123.0,48628.0,1668050452.965988
281649194.0,2.0,499.0,17685.0,46436.0,51048.0,48794.0,1668050453.968215
282651899.0,2.0,497.0,17647.0,45767.0,51106.0,48484.0,1668050454.97092
283654471.0,2.0,500.0,17776.0,45974.0,51020.0,48606.0,1668050455.973492
284656981.0,2.0,499.0,17743.0,45996.0,51175.0,48523.0,1668050456.976002
285659186.0,2.0,495.0,17567.0,45750.0,50966.0,48454.0,1668050457.9782069
286661763.0,2.0,499.0,17685.0,46139.0,51142.0,48697.0,1668050458.980784
287664622.0,2.0,496.0,17586.0,46043.0,51019.0,48688.0,1668050459.983643
288667187.0,2.0,497.0,17647.0,46404.0,51135.0,48799.0,1668050460.986208
289669336.0,2.0,501.0,17823.0,46048.0,51101.0,48589.0,1668050461.988357
290670884.0,2.0,507.0,17919.0,46100.0,51183.0,48574.0,1668050462.9899049
291673603.0,2.0,495.0,17525.0,45821.0,51145.0,48567.0,1668050463.992624
292676206.0,2.0,496.0,17586.0,45947.0,51155.0,48571.0,1668050464.995227
293678973.0,2.0,494.0,17536.0,46399.0,51040.0,48720.0,1668050465.997994
294680899.0,2.0,501.0,17823.0,45794.0,51083.0,48561.0,1668050466.99992
295681055.0,2.0,501.0,17659.0,46218.0,51062.0,48644.0,1668050468.000076
296683784.0,2.0,503.0,17865.0,46102.0,51136.0,48636.0,1668050469.002805
297686220.0,2.0,496.0,17579.0,46239.0,51160.0,48783.0,1668050470.005241
298688770.0,2.0,496.0,17579.0,46221.0,51011.0,48591.0,1668050471.007791
299690889.0,2.0,497.0,17663.0,46285.0,51080.0,48725.0,1668050472.0099099
300693642.0,2.0,501.0,17759.0,46226.0,51096.0,48773.0,1668050473.012663
301696243.0,2.0,497.0,17605.0,46172.0,51073.0,48763.0,1668050474.015264
302698710.0,2.0,499.0,17727.0,46016.0,51144.0,48630.0,1668050475.017731
303700892.0,2.0,500.0,17746.0,46033.0,51132.0,48531.0,1668050476.019913
304703828.0,2.0,501.0,17823.0,45839.0,51109.0,48496.0,1668050477.022849
305706463.0,2.0,497.0,17647.0,46344.0,51137.0,48727.0,1668050478.025484
306708756.0,2.0,501.0,17765.0,45925.0,51100.0,48584.0,1668050479.027777
307710970.0,2.0,497.0,17647.0,46134.0,51110.0,48736.0,1668050480.029991
308713621.0,2.0,493.0,17487.0,45846.0,51159.0,48402.0,1668050481.032642
309716232.0,2.0,499.0,17727.0,46296.0,51021.0,48687.0,1668050482.035253
310718799.0,2.0,501.0,17823.0,45997.0,51164.0,48602.0,1668050483.03782
311721036.0,2.0,501.0,17765.0,46020.0,51141.0,48556.0,1668050484.040057
312723702.0,2.0,502.0,17886.0,45820.0,51146.0,48379.0,1668050485.042723
313726412.0,2.0,501.0,17795.0,46240.0,51183.0,48829.0,1668050486.045433
314728823.0,2.0,499.0,17727.0,46347.0,51139.0,48774.0,1668050487.047844
315729019.0,2.0,499.0,17743.0,46035.0,51131.0,48486.0,1668050488.04804
316730872.0,2.0,501.0,17765.0,45830.0,51048.0,48429.0,1668050489.049893
317731030.0,2.0,498.0,17694.0,45918.0,51117.0,48584.0,1668050490.050051
318733520.0,2.0,495.0,17567.0,45813.0,51113.0,48596.0,1668050491.052541
319736548.0,2.0,499.0,17727.0,46282.0,51137.0,48676.0,1668050492.055569
320739010.0,2.0,503.0,17903.0,46232.0,51162.0,48913.0,1668050493.058031
321740972.0,2.0,501.0,17765.0,45929.0,51146.0,48422.0,1668050494.059993
322743879.0,2.0,507.0,17980.0,46239.0,51150.0,48669.0,1668050495.0629
323744234.0,2.0,498.0,17696.0,45751.0,51059.0,48525.0,1668050496.063255
324746667.0,2.0,525.0,18654.0,46131.0,51179.0,48778.0,1668050497.065688
325748802.0,2.0,501.0,17823.0,45939.0,51170.0,48486.0,1668050498.067823
326750891.0,2.0,500.0,17704.0,46098.0,51122.0,48691.0,1668050499.069912
327751041.0,2.0,499.0,17727.0,45905.0,51080.0,48503.0,1668050500.070062
328753450.0,2.0,497.0,17647.0,46029.0,51043.0,48547.0,1668050501.072471
329756172.0,2.0,495.0,17567.0,45826.0,51042.0,48440.0,1668050502.075193
330758779.0,2.0,501.0,17823.0,46157.0,51027.0,48724.0,1668050503.0778
331760881.0,2.0,499.0,17685.0,46226.0,51148.0,48669.0,1668050504.079902
332761085.0,2.0,499.0,17727.0,46262.0,51159.0,48802.0,1668050505.080106
333763709.0,2.0,503.0,17935.0,46027.0,51153.0,48604.0,1668050506.08273
334766094.0,2.0,500.0,17758.0,46024.0,51145.0,48565.0,1668050507.085115
335768695.0,2.0,499.0,17743.0,45788.0,51130.0,48694.0,1668050508.087716
336770859.0,2.0,501.0,17765.0,46034.0,51133.0,48621.0,1668050509.08988
337773507.0,2.0,497.0,17635.0,45915.0,51113.0,48485.0,1668050510.092528
338776814.0,2.0,491.0,17407.0,45820.0,51168.0,48370.0,1668050511.095835
339779267.0,2.0,498.0,17694.0,45875.0,51092.0,48463.0,1668050512.098288
340780866.0,2.0,499.0,17743.0,46001.0,51173.0,48630.0,1668050513.099887
341781066.0,2.0,497.0,17605.0,45842.0,51062.0,48328.0,1668050514.100087
342784715.0,2.0,530.0,18873.0,46311.0,51156.0,48749.0,1668050515.103736
343786249.0,2.0,504.0,17841.0,45703.0,51026.0,48302.0,1668050516.10527
344788781.0,2.0,494.0,17506.0,46215.0,51092.0,48563.0,1668050517.107802
345790853.0,2.0,493.0,17503.0,46317.0,51164.0,48844.0,1668050518.109874
346791013.0,2.0,498.0,17617.0,45962.0,51127.0,48313.0,1668050519.110034
347793594.0,2.0,498.0,17696.0,46223.0,51112.0,48900.0,1668050520.1126149
348796261.0,2.0,493.0,17487.0,46174.0,51117.0,48534.0,1668050521.115282
349798802.0,2.0,501.0,17894.0,45672.0,51169.0,48555.0,1668050522.117823
350800863.0,2.0,501.0,17823.0,46221.0,50965.0,48610.0,1668050523.119884
351803752.0,2.0,499.0,17685.0,45922.0,51140.0,48630.0,1668050524.122773
352806725.0,2.0,507.0,18083.0,45991.0,51088.0,48538.0,1668050525.125746
353808898.0,2.0,496.0,17606.0,46221.0,51162.0,48825.0,1668050526.127919
354809097.0,2.0,502.0,17844.0,46138.0,51161.0,48654.0,1668050527.128118
355810882.0,2.0,498.0,17702.0,46031.0,51168.0,48583.0,1668050528.129903
356811078.0,2.0,500.0,17724.0,46010.0,51132.0,48493.0,1668050529.130099
357813528.0,2.0,499.0,17715.0,46048.0,51077.0,48640.0,1668050530.132549
358816331.0,2.0,494.0,17526.0,45873.0,51129.0,48301.0,1668050531.135352
359818749.0,2.0,495.0,17567.0,45828.0,51145.0,48702.0,1668050532.13777
360820945.0,2.0,495.0,17583.0,46015.0,51134.0,48400.0,1668050533.139966
361823732.0,2.0,496.0,17572.0,46016.0,51175.0,48676.0,1668050534.142753
362826188.0,2.0,495.0,17567.0,46019.0,51137.0,48673.0,1668050535.145209
363828816.0,2.0,495.0,17567.0,45877.0,51166.0,48435.0,1668050536.147837
364830952.0,2.0,498.0,17686.0,46101.0,51143.0,48603.0,1668050537.149973
365833810.0,2.0,501.0,17755.0,45924.0,51133.0,48505.0,1668050538.152831
366836235.0,2.0,501.0,17761.0,46011.0,51135.0,48382.0,1668050539.155256
367838755.0,2.0,501.0,17791.0,46277.0,51145.0,48925.0,1668050540.1577759
368840988.0,2.0,495.0,17563.0,46113.0,51034.0,48471.0,1668050541.160009
369843662.0,2.0,494.0,17524.0,45940.0,51036.0,48557.0,1668050542.162683
370846270.0,2.0,502.0,18022.0,46193.0,51096.0,48677.0,1668050543.165291
371848728.0,2.0,502.0,17742.0,45720.0,51100.0,48381.0,1668050544.167749
372850948.0,2.0,496.0,17582.0,46203.0,51129.0,48577.0,1668050545.169969
373853594.0,2.0,496.0,17582.0,46155.0,51032.0,48813.0,1668050546.172615
374856424.0,2.0,495.0,17553.0,45840.0,50800.0,48203.0,1668050547.175445
375858839.0,2.0,498.0,17670.0,45770.0,51001.0,48564.0,1668050548.17786
376860910.0,2.0,500.0,17706.0,46159.0,51158.0,48716.0,1668050549.179931
377863597.0,2.0,497.0,17601.0,45960.0,51147.0,48481.0,1668050550.182618
378866221.0,2.0,495.0,17533.0,46343.0,51042.0,48708.0,1668050551.185242
379868820.0,2.0,499.0,17675.0,46218.0,51160.0,48767.0,1668050552.187841
380870874.0,2.0,491.0,17407.0,45953.0,51128.0,48415.0,1668050553.189895
381873613.0,2.0,496.0,17580.0,45742.0,51052.0,48437.0,1668050554.192634
382877148.0,2.0,503.0,17924.0,46215.0,51112.0,48713.0,1668050555.196169
383879680.0,2.0,501.0,17824.0,46112.0,50989.0,48557.0,1668050556.198701
384880889.0,2.0,491.0,17407.0,46107.0,51067.0,48681.0,1668050557.19991
385881057.0,2.0,493.0,17487.0,46125.0,51169.0,48552.0,1668050558.200078
386884050.0,2.0,504.0,17810.0,45867.0,51143.0,48473.0,1668050559.2030709
387886915.0,2.0,520.0,18512.0,45798.0,51106.0,48397.0,1668050560.205936
388888910.0,2.0,503.0,17711.0,45886.0,51111.0,48598.0,1668050561.207931
389890862.0,2.0,497.0,17594.0,45925.0,51155.0,48432.0,1668050562.209883
390893767.0,2.0,496.0,17574.0,46145.0,51127.0,48611.0,1668050563.212788
391896591.0,2.0,496.0,17570.0,46007.0,51174.0,48594.0,1668050564.215612
392898903.0,2.0,493.0,17465.0,45780.0,51075.0,48361.0,1668050565.2179239
393901057.0,2.0,494.0,17516.0,45776.0,51119.0,48454.0,1668050566.220078
394903755.0,2.0,494.0,17498.0,45991.0,51081.0,48320.0,1668050567.222776
395906628.0,2.0,502.0,18026.0,46004.0,51177.0,48773.0,1668050568.2256489
396908850.0,2.0,510.0,18340.0,46059.0,51134.0,48503.0,1668050569.227871
397911019.0,2.0,503.0,18055.0,46042.0,51153.0,48628.0,1668050570.23004
398913661.0,2.0,503.0,18055.0,45749.0,51173.0,48611.0,1668050571.232682
399916333.0,2.0,507.0,18213.0,46043.0,51158.0,48556.0,1668050572.235354
400918996.0,2.0,502.0,18026.0,46283.0,51105.0,48568.0,1668050573.238017
401921024.0,2.0,506.0,18160.0,45937.0,51093.0,48383.0,1668050574.240045
402923958.0,2.0,504.0,18106.0,46321.0,51129.0,48922.0,1668050575.242979
403926480.0,2.0,501.0,17975.0,46186.0,51127.0,48681.0,1668050576.245501
404928889.0,2.0,505.0,18185.0,46021.0,51164.0,48546.0,1668050577.24791
405930986.0,2.0,502.0,18022.0,45985.0,51100.0,48462.0,1668050578.250007
406931057.0,2.0,541.0,19195.0,46127.0,51080.0,48534.0,1668050579.250078
407933826.0,2.0,506.0,18116.0,46148.0,51134.0,48675.0,1668050580.252847
408936437.0,2.0,504.0,18084.0,46195.0,51163.0,48648.0,1668050581.2554579
409938915.0,2.0,506.0,18164.0,46028.0,51095.0,48392.0,1668050582.257936
410941026.0,2.0,503.0,18023.0,46325.0,51170.0,48825.0,1668050583.260047
411944085.0,2.0,510.0,18298.0,45997.0,51102.0,48449.0,1668050584.2631059
412946413.0,2.0,504.0,18084.0,46020.0,51073.0,48601.0,1668050585.265434
413948815.0,2.0,502.0,18004.0,46130.0,51178.0,48834.0,1668050586.267836
414951069.0,2.0,504.0,18084.0,46204.0,51152.0,48730.0,1668050587.27009
415953482.0,2.0,502.0,18026.0,45989.0,51071.0,48438.0,1668050588.272503
416956286.0,2.0,507.0,18209.0,46004.0,51155.0,48424.0,1668050589.275307
417958829.0,2.0,502.0,18026.0,46036.0,51055.0,48448.0,1668050590.27785
418961050.0,2.0,502.0,18026.0,46265.0,51106.0,48837.0,1668050591.280071
419963680.0,2.0,503.0,18055.0,46072.0,51082.0,48515.0,1668050592.282701
420966264.0,2.0,503.0,18045.0,46142.0,51108.0,48611.0,1668050593.285285
421968893.0,2.0,510.0,18348.0,45988.0,51039.0,48525.0,1668050594.287914
422970995.0,2.0,502.0,18026.0,46177.0,51112.0,48616.0,1668050595.290016
423973744.0,2.0,501.0,17997.0,46085.0,51091.0,48488.0,1668050596.292765
424977090.0,2.0,504.0,18088.0,46022.0,51056.0,48607.0,1668050597.2961109
425979703.0,2.0,500.0,17946.0,46157.0,51156.0,48626.0,1668050598.298724
426980973.0,2.0,507.0,18209.0,46216.0,51140.0,48894.0,1668050599.299994
427981008.0,2.0,501.0,17993.0,46182.0,51074.0,48635.0,1668050600.300029
428984004.0,2.0,509.0,18250.0,46069.0,51091.0,48361.0,1668050601.303025
429986878.0,2.0,524.0,18898.0,46150.0,51165.0,48728.0,1668050602.305899
430989005.0,2.0,501.0,17997.0,46033.0,51134.0,48616.0,1668050603.308026
431990988.0,2.0,512.0,18293.0,46211.0,51172.0,48645.0,1668050604.310009
432993589.0,2.0,502.0,18026.0,46059.0,51177.0,48632.0,1668050605.31261
433996408.0,2.0,501.0,17997.0,45945.0,51031.0,48621.0,1668050606.315429
434999345.0,2.0,502.0,18026.0,45891.0,51104.0,48386.0,1668050607.318366
436001405.0,2.0,502.0,18026.0,46149.0,51154.0,48612.0,1668050608.320426
437004207.0,2.0,506.0,18180.0,46120.0,51177.0,48886.0,1668050609.323228
438006646.0,2.0,502.0,18026.0,46175.0,51150.0,48565.0,1668050610.325667
439009052.0,2.0,504.0,18156.0,46013.0,51032.0,48488.0,1668050611.328073
440010960.0,2.0,502.0,18026.0,46099.0,51039.0,48393.0,1668050612.329981
441011012.0,2.0,502.0,18026.0,46007.0,51108.0,48434.0,1668050613.330033
442013597.0,2.0,503.0,18035.0,46137.0,51178.0,48730.0,1668050614.332618
443016364.0,2.0,505.0,18141.0,46111.0,51101.0,48600.0,1668050615.335385
444018855.0,2.0,502.0,18026.0,45986.0,51011.0,48571.0,1668050616.337876
445021124.0,2.0,502.0,18026.0,46105.0,51056.0,48501.0,1668050617.3401449
446023796.0,2.0,540.0,19128.0,46022.0,51044.0,48491.0,1668050618.342817
447026397.0,2.0,504.0,18084.0,45870.0,51052.0,48521.0,1668050619.345418
448028938.0,2.0,505.0,18151.0,46072.0,51141.0,48475.0,1668050620.347959
449031095.0,2.0,501.0,17997.0,46080.0,51162.0,48418.0,1668050621.350116
450033845.0,2.0,503.0,18025.0,46229.0,51096.0,48704.0,1668050622.352866
451036615.0,2.0,502.0,18026.0,46195.0,51038.0,48616.0,1668050623.355636
452038909.0,2.0,504.0,18064.0,46155.0,51071.0,48636.0,1668050624.35793
453041126.0,2.0,505.0,18141.0,45916.0,51144.0,48740.0,1668050625.360147
454044089.0,2.0,502.0,18026.0,46050.0,51069.0,48512.0,1668050626.36311
455046783.0,2.0,501.0,17997.0,46076.0,51162.0,48544.0,1668050627.365804
456048896.0,2.0,509.0,18327.0,46011.0,51160.0,48517.0,1668050628.367917
457049208.0,2.0,503.0,18033.0,46108.0,51166.0,48525.0,1668050629.368229
458051183.0,2.0,503.0,18093.0,46044.0,51121.0,48794.0,1668050630.370204
459053669.0,2.0,504.0,18106.0,46306.0,51175.0,48757.0,1668050631.37269
460056339.0,2.0,500.0,17946.0,46082.0,50915.0,48376.0,1668050632.37536
461058873.0,2.0,503.0,18077.0,46168.0,51127.0,48510.0,1668050633.377894
462061017.0,2.0,501.0,17955.0,46016.0,51054.0,48675.0,1668050634.380038
463063942.0,2.0,505.0,18173.0,46211.0,51115.0,48615.0,1668050635.382963
464066279.0,2.0,502.0,18016.0,46105.0,51145.0,48642.0,1668050636.3853
465068890.0,2.0,501.0,17997.0,46021.0,51072.0,48655.0,1668050637.387911
466071171.0,2.0,501.0,17997.0,46029.0,51130.0,48375.0,1668050638.390192
467073601.0,2.0,505.0,18113.0,46140.0,51162.0,48621.0,1668050639.392622
468077145.0,2.0,501.0,18013.0,46094.0,51116.0,48589.0,1668050640.396166
469079800.0,2.0,501.0,17997.0,45988.0,51151.0,48484.0,1668050641.3988209
470081076.0,2.0,502.0,18026.0,45954.0,51155.0,48777.0,1668050642.400097
471084139.0,2.0,509.0,18250.0,45741.0,51056.0,48370.0,1668050643.40316
472086895.0,2.0,525.0,18903.0,46076.0,51153.0,48517.0,1668050644.405916
473089095.0,2.0,506.0,18252.0,46040.0,51141.0,48654.0,1668050645.408116
474091014.0,2.0,508.0,18159.0,46112.0,51115.0,48552.0,1668050646.410035
475093656.0,2.0,502.0,18026.0,45987.0,51030.0,48512.0,1668050647.412677
476096290.0,2.0,501.0,17997.0,46009.0,51144.0,48512.0,1668050648.415311
477098859.0,2.0,504.0,18084.0,46173.0,51036.0,48451.0,1668050649.41788
478101024.0,2.0,503.0,18093.0,46059.0,51179.0,48717.0,1668050650.420045
479103746.0,2.0,502.0,18026.0,46049.0,51103.0,48580.0,1668050651.422767
480106586.0,2.0,500.0,17946.0,46297.0,51148.0,48724.0,1668050652.425607
481108903.0,2.0,502.0,18026.0,46073.0,51138.0,48655.0,1668050653.427924
482111021.0,2.0,503.0,18035.0,46054.0,51106.0,48612.0,1668050654.430042
483113664.0,2.0,503.0,18093.0,45800.0,51068.0,48346.0,1668050655.432685
484116570.0,2.0,503.0,18045.0,46191.0,51142.0,48523.0,1668050656.435591
485118784.0,2.0,501.0,17997.0,46180.0,51166.0,48869.0,1668050657.437805
486119122.0,2.0,500.0,17946.0,46055.0,51144.0,48614.0,1668050658.438143
487120995.0,2.0,506.0,18146.0,46125.0,51146.0,48745.0,1668050659.440016
488121216.0,2.0,503.0,18093.0,46039.0,51107.0,48369.0,1668050660.440237
489123722.0,2.0,501.0,17997.0,46098.0,51146.0,48590.0,1668050661.442743
490126566.0,2.0,499.0,17917.0,46081.0,51163.0,48751.0,1668050662.445587
491129339.0,2.0,505.0,18185.0,46018.0,51141.0,48600.0,1668050663.44836
492131252.0,2.0,503.0,18035.0,45893.0,51165.0,48574.0,1668050664.450273
493133730.0,2.0,506.0,18154.0,46018.0,51037.0,48377.0,1668050665.452751
494136289.0,2.0,500.0,17964.0,45948.0,51138.0,48415.0,1668050666.4553099
495138863.0,2.0,501.0,17997.0,46306.0,51114.0,48841.0,1668050667.457884
496141097.0,2.0,501.0,17965.0,46080.0,51083.0,48502.0,1668050668.460118
497144018.0,2.0,504.0,18084.0,46141.0,51142.0,48675.0,1668050669.463039
498146294.0,2.0,503.0,18093.0,45903.0,51085.0,48463.0,1668050670.465315
499148850.0,2.0,501.0,17997.0,46161.0,51050.0,48657.0,1668050671.467871
500151017.0,2.0,500.0,17946.0,46136.0,51160.0,48551.0,1668050672.470038
501153693.0,2.0,536.0,19272.0,45990.0,51150.0,48653.0,1668050673.472714
502156284.0,2.0,503.0,18035.0,45895.0,51110.0,48476.0,1668050674.475305
503159470.0,2.0,503.0,18093.0,46297.0,51137.0,48605.0,1668050675.478491
504161013.0,2.0,501.0,17997.0,45693.0,51090.0,48353.0,1668050676.4800339
505163871.0,2.0,504.0,18156.0,46103.0,51143.0,48567.0,1668050677.482892
506166610.0,2.0,499.0,17917.0,45978.0,51096.0,48753.0,1668050678.485631
507168856.0,2.0,503.0,18035.0,46039.0,51119.0,48683.0,1668050679.487877
508169055.0,2.0,502.0,18026.0,45793.0,51170.0,48423.0,1668050680.488076
509171013.0,2.0,503.0,18093.0,45685.0,51144.0,48341.0,1668050681.490034
510173796.0,2.0,501.0,17949.0,45982.0,51022.0,48690.0,1668050682.492817
511176388.0,2.0,502.0,18046.0,46081.0,51139.0,48604.0,1668050683.495409
512178843.0,2.0,504.0,18054.0,45869.0,51179.0,48545.0,1668050684.497864
513181051.0,2.0,501.0,17997.0,46127.0,51160.0,48623.0,1668050685.500072
514183739.0,2.0,504.0,18122.0,45962.0,51048.0,48449.0,1668050686.50276
515186528.0,2.0,501.0,17997.0,46220.0,51128.0,48824.0,1668050687.505549
516188811.0,2.0,498.0,17884.0,45911.0,51126.0,48499.0,1668050688.507832
517190985.0,2.0,503.0,18035.0,46131.0,51112.0,48612.0,1668050689.510006
518191076.0,2.0,503.0,18059.0,46039.0,51103.0,48539.0,1668050690.510097
519193698.0,2.0,504.0,18105.0,46191.0,51177.0,48750.0,1668050691.512719
520196412.0,2.0,502.0,18009.0,46054.0,51159.0,48555.0,1668050692.515433
521198796.0,2.0,500.0,17966.0,45733.0,51106.0,48353.0,1668050693.517817
522199705.0,2.0,510.0,18213.0,46009.0,50961.0,48447.0,1668050694.5187259
523202403.0,2.0,501.0,17997.0,45766.0,51147.0,48594.0,1668050695.521424
524204843.0,2.0,501.0,18013.0,45928.0,51143.0,48516.0,1668050696.523864
525207347.0,2.0,501.0,17997.0,45947.0,51033.0,48495.0,1668050697.526368
526209759.0,2.0,499.0,17917.0,45902.0,51040.0,48508.0,1668050698.52878
527212366.0,2.0,503.0,18035.0,46274.0,51063.0,48850.0,1668050699.531387
528215003.0,2.0,501.0,17997.0,45766.0,51149.0,48450.0,1668050700.534024
529217093.0,2.0,503.0,18093.0,46168.0,51152.0,48735.0,1668050701.536114
530219807.0,2.0,500.0,17936.0,45935.0,51073.0,48477.0,1668050702.538828
531222451.0,2.0,505.0,18205.0,45794.0,51033.0,48413.0,1668050703.541472
532224900.0,2.0,503.0,18035.0,46133.0,51173.0,48801.0,1668050704.543921
533225014.0,2.0,501.0,17997.0,45705.0,51164.0,48398.0,1668050705.544035
534227088.0,2.0,503.0,18163.0,45883.0,51171.0,48479.0,1668050706.546109
535229716.0,2.0,501.0,17997.0,46119.0,51152.0,48619.0,1668050707.548737
536232667.0,2.0,501.0,17997.0,45935.0,51094.0,48583.0,1668050708.551688
739704828.0,2.0,438.0,15432.0,46146.0,51181.0,48982.0,1668050912.023849
740707422.0,2.0,492.0,17426.0,46229.0,51139.0,48831.0,1668050913.026443
741709685.0,2.0,495.0,17469.0,46235.0,51032.0,48592.0,1668050914.028706
742712374.0,2.0,491.0,17407.0,46306.0,51157.0,48992.0,1668050915.031395
743714900.0,2.0,491.0,17407.0,45876.0,51138.0,48552.0,1668050916.033921
744716958.0,2.0,494.0,17552.0,45943.0,51170.0,48617.0,1668050917.035979
745717044.0,2.0,491.0,17407.0,45667.0,50962.0,48351.0,1668050918.036065
746719819.0,2.0,493.0,17445.0,46456.0,51120.0,48864.0,1668050919.03884
747722494.0,2.0,491.0,17407.0,45810.0,51083.0,48249.0,1668050920.0415149
748724981.0,2.0,492.0,17419.0,46354.0,51042.0,48769.0,1668050921.044002
749725077.0,2.0,493.0,17503.0,46379.0,51150.0,48794.0,1668050922.044098
750727126.0,2.0,491.0,17407.0,45792.0,51035.0,48472.0,1668050923.0461469
751729933.0,2.0,496.0,17516.0,46139.0,51134.0,48696.0,1668050924.048954
752732626.0,2.0,493.0,17455.0,46328.0,51156.0,48864.0,1668050925.051647
753734899.0,2.0,492.0,17436.0,46117.0,51113.0,48569.0,1668050926.05392
754737064.0,2.0,495.0,17581.0,46030.0,51063.0,48653.0,1668050927.0560849
755739846.0,2.0,496.0,17634.0,46144.0,51129.0,48744.0,1668050928.058867
756742463.0,2.0,496.0,17552.0,45823.0,50664.0,48235.0,1668050929.061484
757744826.0,2.0,493.0,17465.0,46464.0,51095.0,48829.0,1668050930.063847
758747150.0,2.0,493.0,17481.0,45755.0,51091.0,48305.0,1668050931.066171
759749764.0,2.0,494.0,17532.0,45841.0,51143.0,48486.0,1668050932.068785
760752340.0,2.0,493.0,17475.0,46104.0,51168.0,48712.0,1668050933.071361
761754876.0,2.0,495.0,17513.0,46223.0,51118.0,48758.0,1668050934.073897
762756987.0,2.0,493.0,17455.0,46006.0,51163.0,48520.0,1668050935.076008
763757140.0,2.0,494.0,17498.0,45982.0,51148.0,48618.0,1668050936.076161
764759818.0,2.0,494.0,17552.0,46083.0,51176.0,48732.0,1668050937.078839
765762438.0,2.0,491.0,17407.0,45711.0,50973.0,48201.0,1668050938.081459
766764845.0,2.0,494.0,17474.0,45907.0,51025.0,48575.0,1668050939.083866
767767116.0,2.0,491.0,17407.0,45825.0,51079.0,48355.0,1668050940.086137
768769760.0,2.0,491.0,17407.0,46369.0,51057.0,48715.0,1668050941.0887809
769772679.0,2.0,494.0,17532.0,45761.0,51068.0,48275.0,1668050942.0917
770775065.0,2.0,492.0,17436.0,45870.0,51033.0,48644.0,1668050943.094086
771777148.0,2.0,493.0,17445.0,45905.0,51156.0,48368.0,1668050944.096169
772780186.0,2.0,502.0,17819.0,46285.0,51143.0,48833.0,1668050945.099207
773782756.0,2.0,518.0,18353.0,45741.0,51170.0,48490.0,1668050946.101777
774784885.0,2.0,494.0,17552.0,46221.0,51129.0,48677.0,1668050947.103906
775787306.0,2.0,492.0,17436.0,46228.0,51156.0,48735.0,1668050948.106327
776789696.0,2.0,494.0,17484.0,46348.0,51017.0,48621.0,1668050949.108717
777792478.0,2.0,491.0,17407.0,46069.0,51107.0,48607.0,1668050950.111499
778794967.0,2.0,492.0,17436.0,46255.0,51166.0,48788.0,1668050951.113988
779797145.0,2.0,495.0,17571.0,45830.0,51068.0,48397.0,1668050952.1161659
780800016.0,2.0,493.0,17493.0,46027.0,51084.0,48577.0,1668050953.119037
781802399.0,2.0,494.0,17474.0,45883.0,51093.0,48606.0,1668050954.12142
782804851.0,2.0,492.0,17436.0,45931.0,51168.0,48388.0,1668050955.123872
783807362.0,2.0,492.0,17436.0,45752.0,51028.0,48537.0,1668050956.126383
784809865.0,2.0,495.0,17571.0,45789.0,51157.0,48557.0,1668050957.128886
785812381.0,2.0,491.0,17407.0,45956.0,51013.0,48497.0,1668050958.131402
786814916.0,2.0,493.0,17445.0,45591.0,51164.0,48434.0,1668050959.133937
787817228.0,2.0,492.0,17446.0,46480.0,51111.0,48933.0,1668050960.136249
788819762.0,2.0,494.0,17566.0,45753.0,51122.0,48287.0,1668050961.138783
789822419.0,2.0,492.0,17436.0,46348.0,51176.0,48838.0,1668050962.14144
790824850.0,2.0,494.0,17532.0,46209.0,51166.0,48789.0,1668050963.143871
791825128.0,2.0,494.0,17474.0,46092.0,51012.0,48487.0,1668050964.144149
792827429.0,2.0,494.0,17514.0,46010.0,51167.0,48693.0,1668050965.14645
793830103.0,2.0,493.0,17439.0,46024.0,51046.0,48456.0,1668050966.149124
794832416.0,2.0,495.0,17547.0,46291.0,51154.0,48689.0,1668050967.151437
795834874.0,2.0,494.0,17522.0,45724.0,51139.0,48561.0,1668050968.153895
796837118.0,2.0,494.0,17474.0,46020.0,51134.0,48766.0,1668050969.156139
797839810.0,2.0,492.0,17436.0,45597.0,50988.0,48052.0,1668050970.158831
798842537.0,2.0,493.0,17475.0,46486.0,51117.0,48902.0,1668050971.161558
799844869.0,2.0,491.0,17407.0,45697.0,51045.0,48277.0,1668050972.16389
800845019.0,2.0,494.0,17532.0,46229.0,51140.0,48621.0,1668050973.16404
801847136.0,2.0,494.0,17484.0,46153.0,51149.0,48739.0,1668050974.166157
802849714.0,2.0,491.0,17403.0,46162.0,51170.0,48595.0,1668050975.168735
803852399.0,2.0,492.0,17446.0,46063.0,51139.0,48626.0,1668050976.17142
804854877.0,2.0,492.0,17456.0,46010.0,51067.0,48476.0,1668050977.173898
805857176.0,2.0,493.0,17503.0,46177.0,51136.0,48867.0,1668050978.176197
806859888.0,2.0,497.0,17623.0,45812.0,51049.0,48284.0,1668050979.178909
807862428.0,2.0,492.0,17446.0,46075.0,51146.0,48816.0,1668050980.181449
808864852.0,2.0,491.0,17407.0,45974.0,51114.0,48488.0,1668050981.183873
809867248.0,2.0,492.0,17436.0,45943.0,51043.0,48555.0,1668050982.186269
810869696.0,2.0,494.0,17532.0,45881.0,51100.0,48380.0,1668050983.188717
811872451.0,2.0,494.0,17474.0,45900.0,51108.0,48478.0,1668050984.191472
812874978.0,2.0,493.0,17475.0,46270.0,51159.0,48800.0,1668050985.193999
813877267.0,2.0,491.0,17407.0,45758.0,51055.0,48407.0,1668050986.1962879
814880223.0,2.0,501.0,17738.0,45875.0,51091.0,48424.0,1668050987.199244
815882775.0,2.0,519.0,18430.0,46046.0,51133.0,48670.0,1668050988.201796
816884931.0,2.0,494.0,17464.0,46342.0,51151.0,48867.0,1668050989.203952
817887001.0,2.0,493.0,17465.0,46209.0,51102.0,48571.0,1668050990.206022
818887131.0,2.0,491.0,17407.0,46182.0,51134.0,48774.0,1668050991.206152
819889770.0,2.0,492.0,17436.0,46087.0,51177.0,48502.0,1668050992.208791
820892815.0,2.0,493.0,17503.0,46292.0,51131.0,48794.0,1668050993.211836
821895277.0,2.0,495.0,17513.0,45898.0,51179.0,48355.0,1668050994.214298
822897082.0,2.0,491.0,17407.0,46026.0,51144.0,48801.0,1668050995.216103
823899811.0,2.0,494.0,17566.0,45938.0,50858.0,48264.0,1668050996.218832
824902494.0,2.0,493.0,17485.0,45962.0,51132.0,48739.0,1668050997.221515
825904838.0,2.0,494.0,17532.0,45921.0,51113.0,48466.0,1668050998.223859
826907291.0,2.0,493.0,17445.0,46047.0,51142.0,48498.0,1668050999.226312
827909725.0,2.0,493.0,17455.0,45790.0,51053.0,48576.0,1668051000.228746
828912578.0,2.0,492.0,17456.0,46034.0,51172.0,48492.0,1668051001.231599
829915073.0,2.0,491.0,17407.0,46065.0,51103.0,48568.0,1668051002.234094
830917027.0,2.0,495.0,17571.0,45921.0,51173.0,48553.0,1668051003.236048
831920859.0,2.0,522.0,18511.0,46002.0,51120.0,48609.0,1668051004.23988
832922599.0,2.0,491.0,17407.0,45723.0,51071.0,48358.0,1668051005.24162
833924863.0,2.0,498.0,17569.0,45909.0,51027.0,48413.0,1668051006.243884
834927190.0,2.0,492.0,17436.0,46053.0,51068.0,48534.0,1668051007.246211
835929816.0,2.0,494.0,17542.0,46042.0,51183.0,48756.0,1668051008.248837
836932440.0,2.0,494.0,17484.0,46293.0,51044.0,48603.0,1668051009.251461
837934965.0,2.0,495.0,17563.0,45766.0,51122.0,48637.0,1668051010.253986
838937217.0,2.0,497.0,17641.0,46007.0,51175.0,48374.0,1668051011.256238
839939803.0,2.0,498.0,17712.0,45857.0,51114.0,48696.0,1668051012.2588239
840942379.0,2.0,497.0,17649.0,45690.0,51130.0,48362.0,1668051013.2614
841944856.0,2.0,530.0,18558.0,46263.0,51175.0,48759.0,1668051014.263877
842947130.0,2.0,496.0,17582.0,46143.0,51148.0,48485.0,1668051015.266151
843949658.0,2.0,497.0,17611.0,45995.0,51052.0,48575.0,1668051016.268679
844952380.0,2.0,495.0,17553.0,46325.0,51135.0,48737.0,1668051017.271401
845954937.0,2.0,497.0,17649.0,46226.0,51155.0,48858.0,1668051018.273958
846957055.0,2.0,498.0,17630.0,46238.0,51178.0,48688.0,1668051019.276076
847959842.0,2.0,493.0,17481.0,46342.0,51152.0,48778.0,1668051020.278863
848960027.0,2.0,494.0,17524.0,46369.0,51149.0,48807.0,1668051021.279048
849962463.0,2.0,492.0,17436.0,45781.0,50986.0,48184.0,1668051022.281484
850964844.0,2.0,492.0,17446.0,46276.0,51007.0,48672.0,1668051023.283865
851967080.0,2.0,496.0,17570.0,46165.0,51136.0,48649.0,1668051024.286101
852969861.0,2.0,494.0,17468.0,46213.0,51173.0,48652.0,1668051025.288882
853972382.0,2.0,492.0,17436.0,46038.0,51105.0,48578.0,1668051026.291403
854974939.0,2.0,494.0,17484.0,46062.0,50990.0,48680.0,1668051027.29396
855977076.0,2.0,492.0,17436.0,46035.0,51138.0,48470.0,1668051028.296097
856980411.0,2.0,505.0,17939.0,46292.0,51133.0,48764.0,1668051029.299432
857982375.0,2.0,492.0,17436.0,45943.0,51095.0,48527.0,1668051030.301396
858984846.0,2.0,494.0,17524.0,45790.0,51149.0,48342.0,1668051031.303867
859987065.0,2.0,493.0,17475.0,46191.0,51173.0,48629.0,1668051032.306086
860989725.0,2.0,493.0,17475.0,46176.0,51152.0,48699.0,1668051033.308746
861992336.0,2.0,496.0,17580.0,45925.0,51061.0,48435.0,1668051034.311357
862994847.0,2.0,492.0,17446.0,45910.0,51119.0,48489.0,1668051035.313868
863997068.0,2.0,490.0,17356.0,45957.0,51144.0,48623.0,1668051036.316089
865000239.0,2.0,494.0,17506.0,45955.0,51083.0,48392.0,1668051037.31926
866002791.0,2.0,492.0,17436.0,45864.0,51101.0,48544.0,1668051038.321812
867005230.0,2.0,495.0,17541.0,45993.0,51165.0,48611.0,1668051039.324251
868007218.0,2.0,493.0,17475.0,45898.0,51052.0,48455.0,1668051040.3262389
869009805.0,2.0,492.0,17456.0,46338.0,51118.0,48738.0,1668051041.328826
870013352.0,2.0,501.0,17836.0,46062.0,51148.0,48597.0,1668051042.332373
871015732.0,2.0,494.0,17569.0,46295.0,51177.0,48620.0,1668051043.334753
872017160.0,2.0,496.0,17570.0,46085.0,51175.0,48835.0,1668051044.336181
873020712.0,2.0,523.0,18632.0,46271.0,51080.0,48598.0,1668051045.339733
874022700.0,2.0,491.0,17407.0,45992.0,51165.0,48682.0,1668051046.341721
875025104.0,2.0,498.0,17569.0,46178.0,51067.0,48500.0,1668051047.344125
876027025.0,2.0,492.0,17436.0,46312.0,51024.0,48771.0,1668051048.346046
877029781.0,2.0,496.0,17570.0,45922.0,51040.0,48367.0,1668051049.348802
878032418.0,2.0,492.0,17436.0,46085.0,51144.0,48810.0,1668051050.351439
879034884.0,2.0,492.0,17456.0,46094.0,51085.0,48319.0,1668051051.353905
880037176.0,2.0,492.0,17436.0,45914.0,51114.0,48722.0,1668051052.3561969
881039946.0,2.0,492.0,17436.0,45952.0,51138.0,48436.0,1668051053.358967
882042414.0,2.0,495.0,17541.0,45871.0,51133.0,48522.0,1668051054.361435
883044878.0,2.0,491.0,17407.0,46270.0,51159.0,48846.0,1668051055.363899
884047288.0,2.0,492.0,17436.0,45811.0,51048.0,48401.0,1668051056.366309
885049708.0,2.0,494.0,17484.0,46045.0,51112.0,48671.0,1668051057.3687289
886052379.0,2.0,492.0,17436.0,46272.0,51143.0,48621.0,1668051058.3713999
887054952.0,2.0,497.0,17599.0,46401.0,51123.0,48971.0,1668051059.373973
888057156.0,2.0,494.0,17498.0,45958.0,50891.0,48288.0,1668051060.376177
889059814.0,2.0,497.0,17673.0,46043.0,51154.0,48804.0,1668051061.378835
890060173.0,2.0,492.0,17436.0,46019.0,51092.0,48497.0,1668051062.379194
891062583.0,2.0,492.0,17436.0,46105.0,51081.0,48644.0,1668051063.381604
892064894.0,2.0,494.0,17508.0,45897.0,51107.0,48360.0,1668051064.383915
893066980.0,2.0,492.0,17436.0,45849.0,51086.0,48440.0,1668051065.3860009
894067076.0,2.0,491.0,17407.0,46112.0,51137.0,48713.0,1668051066.386097
895069865.0,2.0,494.0,17468.0,45756.0,51123.0,48424.0,1668051067.388886
896072387.0,2.0,492.0,17436.0,45961.0,51079.0,48521.0,1668051068.391408
897075066.0,2.0,497.0,17589.0,46241.0,51130.0,48542.0,1668051069.394087
898077090.0,2.0,493.0,17465.0,46279.0,51130.0,48891.0,1668051070.396111
899079899.0,2.0,493.0,17485.0,46288.0,51028.0,48636.0,1668051071.39892
900082502.0,2.0,529.0,18509.0,45699.0,51042.0,48297.0,1668051072.4015229
901084927.0,2.0,492.0,17436.0,46182.0,51143.0,48699.0,1668051073.403948
902087151.0,2.0,496.0,17570.0,46224.0,51120.0,48774.0,1668051074.406172
903089802.0,2.0,491.0,17407.0,45926.0,51180.0,48487.0,1668051075.408823
904092904.0,2.0,492.0,17436.0,46131.0,51145.0,48656.0,1668051076.411925
905095599.0,2.0,492.0,17436.0,46275.0,51155.0,48791.0,1668051077.41462
906097157.0,2.0,491.0,17407.0,46038.0,51140.0,48372.0,1668051078.416178
907099825.0,2.0,498.0,17652.0,46177.0,51059.0,48700.0,1668051079.418846
908100008.0,2.0,493.0,17503.0,45976.0,51178.0,48662.0,1668051080.419029
909102442.0,2.0,492.0,17456.0,45939.0,50996.0,48348.0,1668051081.421463
910105316.0,2.0,492.0,17436.0,45834.0,51129.0,48569.0,1668051082.424337
911107247.0,2.0,492.0,17436.0,46049.0,51170.0,48441.0,1668051083.426268
912109767.0,2.0,493.0,17445.0,45703.0,51084.0,48473.0,1668051084.428788
913113213.0,2.0,494.0,17532.0,45793.0,51084.0,48309.0,1668051085.432234
914115767.0,2.0,490.0,17374.0,45956.0,51094.0,48472.0,1668051086.434788
915117052.0,2.0,492.0,17436.0,46345.0,51116.0,48810.0,1668051087.436073
916120752.0,2.0,520.0,18473.0,46489.0,51120.0,48894.0,1668051088.439773
917122736.0,2.0,494.0,17474.0,45872.0,51068.0,48218.0,1668051089.441757
918125074.0,2.0,500.0,17665.0,46262.0,51144.0,48723.0,1668051090.444095
919127102.0,2.0,494.0,17518.0,46108.0,51165.0,48627.0,1668051091.446123
920129703.0,2.0,492.0,17436.0,46232.0,51060.0,48680.0,1668051092.448724
921132463.0,2.0,491.0,17407.0,45986.0,51153.0,48582.0,1668051093.451484
922134863.0,2.0,494.0,17474.0,46101.0,51137.0,48763.0,1668051094.453884
923137108.0,2.0,493.0,17503.0,46036.0,51074.0,48410.0,1668051095.456129
924139924.0,2.0,494.0,17566.0,45941.0,51111.0,48635.0,1668051096.458945
925142398.0,2.0,492.0,17436.0,46108.0,51071.0,48668.0,1668051097.461419
926144991.0,2.0,491.0,17407.0,45848.0,50735.0,48271.0,1668051098.464012
927146941.0,2.0,494.0,17474.0,45977.0,51133.0,48665.0,1668051099.465962
928147258.0,2.0,493.0,17503.0,45982.0,51153.0,48367.0,1668051100.466279
929149631.0,2.0,494.0,17504.0,45942.0,51137.0,48623.0,1668051101.468652
930152388.0,2.0,491.0,17407.0,45921.0,51160.0,48509.0,1668051102.471409
931154870.0,2.0,491.0,17407.0,45878.0,51140.0,48729.0,1668051103.473891
932157232.0,2.0,494.0,17474.0,46084.0,51080.0,48421.0,1668051104.476253
933159772.0,2.0,493.0,17503.0,45651.0,51090.0,48578.0,1668051105.478793
934162356.0,2.0,491.0,17407.0,45866.0,51152.0,48630.0,1668051106.481377
935165028.0,2.0,491.0,17407.0,46213.0,51041.0,48570.0,1668051107.484049
936167066.0,2.0,490.0,17374.0,45802.0,51088.0,48567.0,1668051108.486087
937170001.0,2.0,495.0,17477.0,45908.0,51116.0,48405.0,1668051109.489022
938172400.0,2.0,493.0,17503.0,45832.0,51058.0,48602.0,1668051110.491421
939174920.0,2.0,494.0,17504.0,46216.0,51153.0,48564.0,1668051111.493941
940177168.0,2.0,491.0,17407.0,46239.0,51161.0,48934.0,1668051112.4961889
941180137.0,2.0,496.0,17646.0,46251.0,51133.0,48504.0,1668051113.499158
942182396.0,2.0,493.0,17445.0,46137.0,51079.0,48834.0,1668051114.501417
943184846.0,2.0,493.0,17503.0,46256.0,51123.0,48681.0,1668051115.503867
944187027.0,2.0,491.0,17407.0,45977.0,51150.0,48607.0,1668051116.506048
945189756.0,2.0,491.0,17407.0,46192.0,51081.0,48581.0,1668051117.508777
946192482.0,2.0,491.0,17407.0,46336.0,51144.0,48735.0,1668051118.511503
947194867.0,2.0,494.0,17457.0,45748.0,51157.0,48352.0,1668051119.513888
948197116.0,2.0,494.0,17515.0,46255.0,51137.0,48628.0,1668051120.516137
949199762.0,2.0,493.0,17475.0,46022.0,51162.0,48607.0,1668051121.518783
950201354.0,2.0,497.0,17540.0,45972.0,51057.0,48471.0,1668051122.520375
951204004.0,2.0,491.0,17407.0,45806.0,51154.0,48475.0,1668051123.523025
952206751.0,2.0,493.0,17445.0,45983.0,51120.0,48484.0,1668051124.525772
953209028.0,2.0,493.0,17503.0,45704.0,51142.0,48646.0,1668051125.528049
954211498.0,2.0,492.0,17426.0,45823.0,51085.0,48497.0,1668051126.530519
955214330.0,2.0,491.0,17407.0,45986.0,51124.0,48598.0,1668051127.533351
956216745.0,2.0,491.0,17407.0,45759.0,51021.0,48430.0,1668051128.535766
957218856.0,2.0,493.0,17445.0,46510.0,51141.0,48850.0,1668051129.537877
958221306.0,2.0,492.0,17470.0,45889.0,51156.0,48307.0,1668051130.540327
959224399.0,2.0,497.0,17706.0,46301.0,51183.0,48690.0,1668051131.54342
960226809.0,2.0,501.0,17997.0,45798.0,51011.0,48645.0,1668051132.54583
961228884.0,2.0,501.0,17997.0,46097.0,51137.0,48425.0,1668051133.547905
962232499.0,2.0,533.0,19160.0,46078.0,51144.0,48619.0,1668051134.5515199
963234258.0,2.0,506.0,18252.0,46336.0,51144.0,48866.0,1668051135.553279
964236755.0,2.0,507.0,18130.0,45751.0,51179.0,48523.0,1668051136.555776
970248942.0,2.0,497.0,17741.0,45697.0,51181.0,48559.0,1668051142.567963
971251482.0,2.0,501.0,17997.0,46091.0,50695.0,48478.0,1668051143.570503
972254147.0,2.0,505.0,18059.0,46317.0,51167.0,48966.0,1668051144.573168
973256593.0,2.0,501.0,17997.0,45809.0,51133.0,48544.0,1668051145.575614
974259076.0,2.0,501.0,17997.0,46075.0,51148.0,48447.0,1668051146.578097
975261472.0,2.0,504.0,18112.0,46031.0,51017.0,48510.0,1668051147.580493
976264199.0,2.0,502.0,18009.0,46289.0,51097.0,48853.0,1668051148.58322
977266663.0,2.0,503.0,18035.0,45750.0,51145.0,48503.0,1668051149.585684
978268926.0,2.0,501.0,17997.0,45625.0,51089.0,48396.0,1668051150.587947
979271637.0,2.0,502.0,18046.0,45983.0,51130.0,48426.0,1668051151.590658
980274214.0,2.0,508.0,18310.0,45736.0,51050.0,48276.0,1668051152.593235
981276780.0,2.0,504.0,18159.0,46330.0,51146.0,48833.0,1668051153.5958009
982278975.0,2.0,504.0,18064.0,45755.0,51069.0,48408.0,1668051154.597996
983281659.0,2.0,505.0,18087.0,46128.0,51133.0,48674.0,1668051155.6006799
984284982.0,2.0,502.0,18026.0,45849.0,51116.0,48675.0,1668051156.604003
985287140.0,2.0,505.0,18151.0,45745.0,50826.0,48147.0,1668051157.6061609
986289008.0,2.0,503.0,18045.0,45974.0,51170.0,48495.0,1668051158.608029
987291619.0,2.0,504.0,18064.0,45907.0,51170.0,48482.0,1668051159.61064
988294452.0,2.0,502.0,18026.0,46136.0,51160.0,48547.0,1668051160.613473
989297019.0,2.0,502.0,18046.0,46000.0,51059.0,48741.0,1668051161.61604
990299189.0,2.0,504.0,18122.0,46004.0,51090.0,48555.0,1668051162.61821
991301492.0,2.0,503.0,18035.0,46166.0,51179.0,48686.0,1668051163.620513
992304237.0,2.0,540.0,19372.0,46103.0,51141.0,48629.0,1668051164.6232579
993307048.0,2.0,501.0,17997.0,46099.0,51104.0,48598.0,1668051165.626069
994309067.0,2.0,501.0,17997.0,45769.0,51072.0,48456.0,1668051166.628088
995311878.0,2.0,506.0,18252.0,45680.0,51028.0,48520.0,1668051167.630899
996314283.0,2.0,503.0,18035.0,45958.0,51111.0,48518.0,1668051168.6333039
997316774.0,2.0,501.0,17997.0,45828.0,51142.0,48349.0,1668051169.6357949
998319022.0,2.0,501.0,17997.0,45927.0,51161.0,48505.0,1668051170.638043
999321716.0,2.0,503.0,18029.0,46204.0,51152.0,48635.0,1668051171.640737
1000324232.0,2.0,503.0,18093.0,45999.0,51140.0,48816.0,1668051172.643253
1001326684.0,2.0,504.0,18054.0,45819.0,51114.0,48378.0,1668051173.645705
1002329231.0,2.0,501.0,18013.0,45880.0,51114.0,48375.0,1668051174.648252
1003331584.0,2.0,501.0,17997.0,45706.0,51148.0,48344.0,1668051175.650605
1004334281.0,2.0,501.0,17997.0,45983.0,51145.0,48707.0,1668051176.653302
1005336699.0,2.0,503.0,18093.0,46002.0,51162.0,48604.0,1668051177.65572
1006338971.0,2.0,504.0,18064.0,45814.0,51162.0,48487.0,1668051178.657992
1007341402.0,2.0,503.0,18055.0,45925.0,51114.0,48462.0,1668051179.660423
1008344206.0,2.0,502.0,18026.0,45945.0,51104.0,48391.0,1668051180.663227
1009346935.0,2.0,503.0,18055.0,46094.0,51179.0,48760.0,1668051181.665956
1010349012.0,2.0,506.0,18184.0,45689.0,51112.0,48370.0,1668051182.668033
1011351761.0,2.0,507.0,18213.0,45904.0,51162.0,48495.0,1668051183.670782
1012354051.0,2.0,502.0,18046.0,45600.0,51089.0,48504.0,1668051184.673072
1013356759.0,2.0,501.0,17997.0,45878.0,51173.0,48443.0,1668051185.67578
1014358944.0,2.0,501.0,17997.0,46272.0,51137.0,48616.0,1668051186.677965
1015361500.0,2.0,503.0,18093.0,45885.0,51119.0,48495.0,1668051187.680521
1016367554.0,2.0,505.0,18093.0,46037.0,51128.0,48572.0,1668051188.686575
1017369000.0,2.0,502.0,18026.0,46372.0,51167.0,48963.0,1668051189.688021
1018369028.0,2.0,503.0,18055.0,45835.0,50974.0,48477.0,1668051190.688049
1019372355.0,2.0,512.0,18359.0,45693.0,51135.0,48185.0,1668051191.691376
1020374950.0,2.0,525.0,18965.0,46066.0,51071.0,48565.0,1668051192.693971
1021376827.0,2.0,506.0,18069.0,46228.0,51036.0,48641.0,1668051193.695848
1022377031.0,2.0,504.0,18126.0,45720.0,51124.0,48453.0,1668051194.696052
1023378978.0,2.0,500.0,17936.0,46073.0,51166.0,48806.0,1668051195.697999
1024379089.0,2.0,502.0,18044.0,45973.0,51169.0,48602.0,1668051196.69811
1025381364.0,2.0,503.0,18093.0,45864.0,51079.0,48312.0,1668051197.700385
1026384129.0,2.0,503.0,18035.0,45946.0,51066.0,48441.0,1668051198.70315
1027386683.0,2.0,502.0,18026.0,45997.0,51177.0,48770.0,1668051199.705704
1028388991.0,2.0,500.0,17946.0,45872.0,51153.0,48468.0,1668051200.708012
1029391679.0,2.0,508.0,18294.0,46025.0,51157.0,48682.0,1668051201.7107
1030394251.0,2.0,504.0,18122.0,45850.0,51145.0,48293.0,1668051202.713272
1031396839.0,2.0,503.0,18035.0,46137.0,51006.0,48490.0,1668051203.71586
1032398980.0,2.0,502.0,18046.0,45709.0,51063.0,48500.0,1668051204.718001
1033401524.0,2.0,501.0,17997.0,45852.0,51147.0,48466.0,1668051205.720545
1034404036.0,2.0,502.0,18016.0,46334.0,51174.0,48775.0,1668051206.723057
1035406946.0,2.0,501.0,17997.0,45826.0,50994.0,48395.0,1668051207.725967
1036409009.0,2.0,506.0,18160.0,45967.0,51088.0,48355.0,1668051208.72803
1037411672.0,2.0,501.0,17997.0,45967.0,51164.0,48640.0,1668051209.730693
1038414212.0,2.0,501.0,17997.0,46159.0,51123.0,48620.0,1668051210.733233
1039416734.0,2.0,501.0,17997.0,45769.0,50973.0,48460.0,1668051211.735755
1040419114.0,2.0,503.0,18059.0,45774.0,51138.0,48568.0,1668051212.738135
1041421716.0,2.0,507.0,18163.0,45777.0,51125.0,48482.0,1668051213.740737
1042424176.0,2.0,502.0,18046.0,45766.0,50981.0,48222.0,1668051214.743197
1043426743.0,2.0,501.0,17997.0,45975.0,51137.0,48462.0,1668051215.745764
1044428892.0,2.0,502.0,18016.0,46013.0,51158.0,48745.0,1668051216.747913
1045429034.0,2.0,501.0,17997.0,46002.0,51145.0,48548.0,1668051217.748055
1046431766.0,2.0,507.0,18257.0,45806.0,51029.0,48391.0,1668051218.750787
1047434205.0,2.0,501.0,17997.0,45909.0,51143.0,48328.0,1668051219.753226
1048436720.0,2.0,501.0,17997.0,46311.0,51088.0,48648.0,1668051220.755741
1049439023.0,2.0,501.0,17997.0,45955.0,51037.0,48628.0,1668051221.758044
1050441525.0,2.0,501.0,17997.0,46213.0,51153.0,48635.0,1668051222.760546
1051444289.0,2.0,505.0,18131.0,45908.0,51030.0,48509.0,1668051223.76331
1052446617.0,2.0,502.0,18046.0,46006.0,51053.0,48515.0,1668051224.7656379
1053448974.0,2.0,501.0,17997.0,45840.0,51149.0,48399.0,1668051225.7679949
1054449071.0,2.0,501.0,17997.0,46109.0,51114.0,48735.0,1668051226.768092
1055451599.0,2.0,501.0,17997.0,46025.0,51159.0,48552.0,1668051227.7706199
1056454145.0,2.0,507.0,18179.0,46044.0,51169.0,48551.0,1668051228.773166
1057456804.0,2.0,501.0,17997.0,46047.0,51098.0,48662.0,1668051229.775825
1058459003.0,2.0,501.0,17997.0,46150.0,51019.0,48617.0,1668051230.778024
1059461591.0,2.0,501.0,17997.0,46041.0,51175.0,48463.0,1668051231.780612
1060464964.0,2.0,501.0,17997.0,46119.0,51083.0,48615.0,1668051232.783985
1061467563.0,2.0,505.0,18131.0,45843.0,51117.0,48609.0,1668051233.786584
1062468965.0,2.0,503.0,18075.0,45959.0,51090.0,48553.0,1668051234.787986
1063471909.0,2.0,513.0,18438.0,45900.0,51031.0,48424.0,1668051235.79093
1064472211.0,2.0,501.0,17997.0,46098.0,51104.0,48420.0,1668051236.7912319
1065474835.0,2.0,523.0,18869.0,45992.0,51154.0,48588.0,1668051237.793856
1066476800.0,2.0,505.0,18131.0,46091.0,51173.0,48604.0,1668051238.795821
1067478949.0,2.0,508.0,18205.0,46215.0,51163.0,48681.0,1668051239.79797
1068481529.0,2.0,502.0,18022.0,45935.0,51024.0,48429.0,1668051240.80055
1069484779.0,2.0,502.0,18026.0,46167.0,51044.0,48666.0,1668051241.8037999
1070487277.0,2.0,503.0,18059.0,46113.0,50964.0,48417.0,1668051242.806298
1071488872.0,2.0,505.0,18131.0,46203.0,51075.0,48584.0,1668051243.807893
1072491647.0,2.0,502.0,18046.0,46213.0,51145.0,48869.0,1668051244.810668
1073494397.0,2.0,501.0,17997.0,45689.0,51120.0,48419.0,1668051245.813418
1074496766.0,2.0,502.0,18026.0,46224.0,51141.0,48779.0,1668051246.815787
1075499326.0,2.0,501.0,17997.0,46062.0,51179.0,48487.0,1668051247.818347
1076501666.0,2.0,505.0,18131.0,45953.0,51167.0,48398.0,1668051248.820687
1077504580.0,2.0,502.0,18016.0,46016.0,51036.0,48727.0,1668051249.823601
1078507008.0,2.0,501.0,17997.0,46148.0,51179.0,48647.0,1668051250.826029
1079507134.0,2.0,501.0,17997.0,46023.0,51133.0,48592.0,1668051251.826155
1080509105.0,2.0,501.0,17997.0,45890.0,51040.0,48359.0,1668051252.828126
1081511739.0,2.0,508.0,18290.0,46164.0,51123.0,48467.0,1668051253.83076
1082514235.0,2.0,502.0,18046.0,46299.0,51140.0,48815.0,1668051254.833256
1083516792.0,2.0,502.0,18026.0,45927.0,51134.0,48456.0,1668051255.835813
1084519178.0,2.0,501.0,17997.0,46156.0,51146.0,48653.0,1668051256.838199
1085521639.0,2.0,503.0,18029.0,45951.0,51069.0,48512.0,1668051257.84066
1086524196.0,2.0,505.0,18131.0,46223.0,51118.0,48727.0,1668051258.843217
1087526802.0,2.0,501.0,17997.0,45832.0,51141.0,48388.0,1668051259.845823
1088529316.0,2.0,502.0,18016.0,46101.0,51106.0,48604.0,1668051260.848337
1089531759.0,2.0,501.0,17997.0,45984.0,51151.0,48699.0,1668051261.85078
1090534362.0,2.0,500.0,17964.0,45944.0,51126.0,48341.0,1668051262.853383
1091536763.0,2.0,503.0,18035.0,46164.0,51174.0,48625.0,1668051263.855784
1092539224.0,2.0,505.0,18171.0,46093.0,51030.0,48522.0,1668051264.858245
1093541567.0,2.0,502.0,18026.0,45955.0,51056.0,48410.0,1668051265.860588
1094544232.0,2.0,501.0,17997.0,46152.0,51139.0,48815.0,1668051266.8632529
1095546690.0,2.0,501.0,17997.0,46118.0,51137.0,48675.0,1668051267.865711
1096549069.0,2.0,503.0,18035.0,45935.0,51105.0,48546.0,1668051268.86809
1097551703.0,2.0,506.0,18252.0,45892.0,51009.0,48360.0,1668051269.870724
1098554083.0,2.0,502.0,18016.0,45953.0,51092.0,48422.0,1668051270.873104
1099556719.0,2.0,501.0,17997.0,45980.0,51175.0,48671.0,1668051271.87574
1100558990.0,2.0,501.0,17997.0,46112.0,51178.0,48593.0,1668051272.878011
1101559045.0,2.0,505.0,18097.0,46237.0,51085.0,48700.0,1668051273.878066
1102561397.0,2.0,504.0,18142.0,45932.0,51054.0,48494.0,1668051274.880418
1103567639.0,2.0,501.0,17997.0,46177.0,51054.0,48656.0,1668051275.88666
1104569029.0,2.0,501.0,17997.0,45935.0,51036.0,48415.0,1668051276.88805
1105572349.0,2.0,511.0,18330.0,45829.0,51036.0,48451.0,1668051277.89137
1106574994.0,2.0,523.0,18827.0,46087.0,51167.0,48718.0,1668051278.894015
1107575126.0,2.0,505.0,18173.0,45880.0,51095.0,48371.0,1668051279.894147
1108576898.0,2.0,499.0,17917.0,46091.0,51178.0,48491.0,1668051280.895919
1109579029.0,2.0,511.0,18268.0,46028.0,51133.0,48724.0,1668051281.89805
1110581511.0,2.0,500.0,17946.0,46097.0,51157.0,48555.0,1668051282.900532
1111584263.0,2.0,505.0,18115.0,46222.0,51011.0,48677.0,1668051283.903284
1112586644.0,2.0,503.0,18109.0,45908.0,51151.0,48563.0,1668051284.905665
1113589112.0,2.0,500.0,17946.0,46037.0,51035.0,48491.0,1668051285.908133
1114591918.0,2.0,506.0,18236.0,45720.0,51054.0,48512.0,1668051286.910939
1115594263.0,2.0,501.0,17997.0,45998.0,51137.0,48490.0,1668051287.913284
1116596857.0,2.0,504.0,18064.0,46025.0,51045.0,48547.0,1668051288.915878
1117598906.0,2.0,505.0,18151.0,46057.0,51172.0,48758.0,1668051289.917927
1118599087.0,2.0,502.0,18026.0,45993.0,51155.0,48388.0,1668051290.918108
1119601449.0,2.0,502.0,18026.0,46063.0,51045.0,48639.0,1668051291.92047
1120604173.0,2.0,541.0,19185.0,46395.0,51113.0,48737.0,1668051292.923194
1121606971.0,2.0,504.0,18064.0,45801.0,51131.0,48307.0,1668051293.925992
1122609008.0,2.0,506.0,18185.0,45845.0,51090.0,48564.0,1668051294.928029
1123611725.0,2.0,501.0,17997.0,46023.0,51110.0,48433.0,1668051295.930746
1124614436.0,2.0,501.0,17997.0,46078.0,51037.0,48447.0,1668051296.933457
1125616813.0,2.0,501.0,17997.0,46016.0,51180.0,48726.0,1668051297.935834
1126619022.0,2.0,503.0,18035.0,46194.0,51101.0,48695.0,1668051298.9380429
1127621618.0,2.0,505.0,18125.0,45861.0,51053.0,48477.0,1668051299.940639
1128624178.0,2.0,501.0,17997.0,46167.0,51165.0,48630.0,1668051300.943199
1129626678.0,2.0,501.0,17997.0,46067.0,51168.0,48492.0,1668051301.945699
1130629043.0,2.0,502.0,18016.0,45977.0,51059.0,48630.0,1668051302.948064
1131631579.0,2.0,506.0,18194.0,46155.0,51142.0,48635.0,1668051303.9506
1132634225.0,2.0,507.0,18233.0,46216.0,51069.0,48648.0,1668051304.9532459
1133636868.0,2.0,501.0,17997.0,45855.0,51086.0,48461.0,1668051305.955889
1134639004.0,2.0,501.0,17993.0,46169.0,51122.0,48699.0,1668051306.958025
1135641658.0,2.0,502.0,18026.0,46000.0,51101.0,48396.0,1668051307.960679
1136644257.0,2.0,503.0,18035.0,46160.0,51119.0,48633.0,1668051308.963278
1137646659.0,2.0,504.0,18122.0,45846.0,51127.0,48608.0,1668051309.96568
1138648960.0,2.0,501.0,17997.0,45879.0,51103.0,48437.0,1668051310.967981
1139651713.0,2.0,502.0,18026.0,45910.0,51092.0,48507.0,1668051311.970734
1140654066.0,2.0,503.0,18045.0,46088.0,51159.0,48519.0,1668051312.973087
1141656621.0,2.0,503.0,18035.0,45901.0,51073.0,48427.0,1668051313.975642
1142659069.0,2.0,505.0,18171.0,46114.0,51178.0,48707.0,1668051314.97809
1143661423.0,2.0,501.0,17997.0,46151.0,51138.0,48611.0,1668051315.980444
1144664991.0,2.0,501.0,17997.0,46106.0,51136.0,48599.0,1668051316.984012
1145669121.0,2.0,502.0,18026.0,45992.0,51123.0,48559.0,1668051317.988142
1146672417.0,2.0,517.0,18556.0,45854.0,51113.0,48418.0,1668051318.991438
1147675169.0,2.0,524.0,18914.0,45759.0,51046.0,48418.0,1668051319.99419
1148677021.0,2.0,503.0,18077.0,46267.0,51106.0,48861.0,1668051320.996042
1149679523.0,2.0,505.0,18050.0,45899.0,51106.0,48294.0,1668051321.998544
1150681453.0,2.0,504.0,18106.0,46048.0,51163.0,48574.0,1668051323.000474
1151684245.0,2.0,501.0,17955.0,46029.0,51133.0,48517.0,1668051324.003266
1152686695.0,2.0,505.0,18155.0,45726.0,50965.0,48337.0,1668051325.005716
1153688941.0,2.0,502.0,18042.0,46140.0,51047.0,48749.0,1668051326.007962
1154691678.0,2.0,504.0,18106.0,45968.0,51063.0,48542.0,1668051327.010699
1155694210.0,2.0,502.0,18026.0,46226.0,51172.0,48663.0,1668051328.013231
1156696766.0,2.0,505.0,18103.0,46011.0,51108.0,48453.0,1668051329.015787
1157698866.0,2.0,498.0,17884.0,46030.0,51135.0,48740.0,1668051330.0178869
1158699032.0,2.0,506.0,18202.0,45799.0,51178.0,48509.0,1668051331.018053
1159701652.0,2.0,501.0,17997.0,46157.0,51176.0,48684.0,1668051332.020673
1160707441.0,2.0,502.0,18026.0,45944.0,51159.0,48610.0,1668051333.026462
1161709217.0,2.0,503.0,18035.0,46055.0,51097.0,48631.0,1668051334.028238
1162712323.0,2.0,512.0,18409.0,45800.0,51113.0,48577.0,1668051335.031344
1163714947.0,2.0,532.0,19141.0,45900.0,51154.0,48476.0,1668051336.033968
1164716948.0,2.0,502.0,18016.0,45927.0,51142.0,48684.0,1668051337.035969
1165718999.0,2.0,502.0,18026.0,45946.0,51114.0,48588.0,1668051338.03802
1166719066.0,2.0,504.0,18084.0,45916.0,51036.0,48397.0,1668051339.038087
1167721482.0,2.0,501.0,17997.0,46015.0,51126.0,48529.0,1668051340.040503
1168724250.0,2.0,503.0,18093.0,46097.0,51135.0,48836.0,1668051341.043271
1169726963.0,2.0,501.0,17997.0,45721.0,51069.0,48439.0,1668051342.045984
1170729018.0,2.0,501.0,17997.0,45696.0,51027.0,48412.0,1668051343.048039
1171731611.0,2.0,503.0,18035.0,45874.0,51167.0,48432.0,1668051344.050632
1172734135.0,2.0,503.0,18038.0,45802.0,51050.0,48357.0,1668051345.053156
1173736723.0,2.0,504.0,18105.0,45905.0,51044.0,48665.0,1668051346.055744
1174738985.0,2.0,506.0,18087.0,46441.0,51109.0,48780.0,1668051347.058006
1175739185.0,2.0,501.0,17997.0,45827.0,51123.0,48528.0,1668051348.058206
1176741432.0,2.0,504.0,18084.0,46105.0,51121.0,48800.0,1668051349.060453
1177743814.0,2.0,501.0,17997.0,46025.0,51110.0,48407.0,1668051350.062835
1178746298.0,2.0,503.0,18093.0,46140.0,51161.0,48747.0,1668051351.065319
1179749122.0,2.0,500.0,17964.0,45712.0,51027.0,48349.0,1668051352.068143
1180751394.0,2.0,501.0,17997.0,45909.0,51030.0,48514.0,1668051353.070415
1181753762.0,2.0,503.0,18035.0,45884.0,51156.0,48703.0,1668051354.072783
1182756256.0,2.0,501.0,17997.0,45945.0,51122.0,48617.0,1668051355.075277
1183759008.0,2.0,504.0,18112.0,45968.0,51069.0,48442.0,1668051356.078029
1184761640.0,2.0,501.0,17997.0,46067.0,51034.0,48541.0,1668051357.080661
1185764034.0,2.0,501.0,17997.0,46226.0,51146.0,48890.0,1668051358.083055
1186766877.0,2.0,507.0,18243.0,45787.0,51165.0,48524.0,1668051359.085898
1187769044.0,2.0,501.0,17997.0,45757.0,50989.0,48424.0,1668051360.088065
1188771645.0,2.0,503.0,18093.0,45935.0,51167.0,48482.0,1668051361.090666
