TimeUS,Status,GMS,GWk,NSats,HDop,Lat,Lng,Alt,Spd,GCrs,VZ,Yaw,U,timestamp
220980979.0,3.0,357611300.0,2235.0,17.0,0.68,14.083778299999999,100.42014979999999,2.72,0.046000003814697266,0.0,0.07200000435113907,0.0,1.0,1668050393.3
221178796.0,3.0,357611500.0,2235.0,17.0,0.68,14.083778299999999,100.42014979999999,2.72,0.0650000050663948,0.0,0.003000000026077032,0.0,1.0,1668050393.497817
221278727.0,3.0,357611600.0,2235.0,17.0,0.68,14.0837782,100.42014979999999,2.71,0.07100000232458115,0.0,0.03800000250339508,0.0,1.0,1668050393.597748
221378716.0,3.0,357611700.0,2235.0,17.0,0.68,14.0837782,100.42014979999999,2.7,0.02500000037252903,0.0,0.11700000613927841,0.0,1.0,1668050393.697737
221578771.0,3.0,357611900.0,2235.0,17.0,0.68,14.0837782,100.42014979999999,2.68,0.04500000178813934,0.0,0.04200000315904617,0.0,1.0,1668050393.897792
221698676.0,3.0,357612000.0,2235.0,17.0,0.68,14.0837782,100.42014979999999,2.69,0.046000003814697266,0.0,0.11500000208616257,0.0,1.0,1668050394.017697
221878440.0,3.0,357612200.0,2235.0,17.0,0.68,14.0837782,100.42014979999999,2.68,0.017000000923871994,0.0,0.10000000149011612,0.0,1.0,1668050394.197461
221978725.0,3.0,357612300.0,2235.0,17.0,0.68,14.0837781,100.42014979999999,2.69,0.0430000014603138,0.0,0.04400000348687172,0.0,1.0,1668050394.297746
222078737.0,3.0,357612400.0,2235.0,17.0,0.68,14.0837781,100.4201499,2.69,0.06700000166893005,0.0,0.09300000220537186,0.0,1.0,1668050394.397758
222178705.0,3.0,357612500.0,2235.0,17.0,0.68,14.083777999999999,100.42014999999999,2.68,0.017000000923871994,0.0,0.1120000034570694,0.0,1.0,1668050394.497726
222278699.0,3.0,357612600.0,2235.0,17.0,0.68,14.083777999999999,100.42014999999999,2.68,0.04500000178813934,0.0,0.08000000566244125,0.0,1.0,1668050394.59772
222378592.0,3.0,357612700.0,2235.0,17.0,0.68,14.0837779,100.42014999999999,2.66,0.046000003814697266,0.0,0.03700000047683716,0.0,1.0,1668050394.697613
222478759.0,3.0,357612800.0,2235.0,17.0,0.68,14.0837779,100.42014999999999,2.65,0.052000001072883606,0.0,0.021000001579523087,0.0,1.0,1668050394.79778
222578654.0,3.0,357612900.0,2235.0,17.0,0.68,14.0837778,100.42014999999999,2.65,0.026000000536441803,0.0,0.03700000047683716,0.0,1.0,1668050394.897675
222678670.0,3.0,357613000.0,2235.0,17.0,0.68,14.0837778,100.42014999999999,2.62,0.04500000178813934,0.0,0.06300000101327896,0.0,1.0,1668050394.997691
222798611.0,3.0,357613100.0,2235.0,17.0,0.68,14.083777699999999,100.4201501,2.63,0.023000001907348633,0.0,0.021000001579523087,0.0,1.0,1668050395.117632
222978502.0,3.0,357613300.0,2235.0,17.0,0.68,14.083777699999999,100.4201501,2.62,0.05000000074505806,0.0,-0.07000000029802322,0.0,1.0,1668050395.297523
223058715.0,3.0,357613400.0,2235.0,17.0,0.68,14.0837776,100.4201501,2.62,0.04000000283122063,0.0,0.07100000232458115,0.0,1.0,1668050395.377736
223178639.0,3.0,357613500.0,2235.0,17.0,0.68,14.0837776,100.4201501,2.62,0.004000000189989805,0.0,0.027000000700354576,0.0,1.0,1668050395.49766
223258756.0,3.0,357613600.0,2235.0,17.0,0.68,14.0837776,100.4201501,2.6,0.05900000408291817,0.0,0.06000000238418579,0.0,1.0,1668050395.577777
223378812.0,3.0,357613700.0,2235.0,17.0,0.68,14.0837776,100.4201501,2.61,0.01100000087171793,0.0,0.09600000083446503,0.0,1.0,1668050395.697833
223478699.0,3.0,357613800.0,2235.0,17.0,0.68,14.0837776,100.42014999999999,2.59,0.026000000536441803,0.0,0.1600000113248825,0.0,1.0,1668050395.79772
223578694.0,3.0,357613900.0,2235.0,17.0,0.68,14.0837776,100.42014999999999,2.57,0.017000000923871994,0.0,0.020000001415610313,0.0,1.0,1668050395.897715
223678742.0,3.0,357614000.0,2235.0,17.0,0.68,14.0837775,100.42014999999999,2.58,0.03800000250339508,0.0,0.055000003427267075,0.0,1.0,1668050395.997763
223878692.0,3.0,357614200.0,2235.0,17.0,0.68,14.083777399999999,100.42014999999999,2.56,0.027000000700354576,0.0,0.08000000566244125,0.0,1.0,1668050396.197713
223978584.0,3.0,357614300.0,2235.0,17.0,0.68,14.083777399999999,100.4201501,2.57,0.01900000125169754,0.0,-0.0020000000949949026,0.0,1.0,1668050396.297605
224078697.0,3.0,357614400.0,2235.0,17.0,0.68,14.083777399999999,100.42014999999999,2.5500000000000003,0.07400000095367432,0.0,-0.020000001415610313,0.0,1.0,1668050396.397718
224178650.0,3.0,357614500.0,2235.0,17.0,0.68,14.083777399999999,100.42014999999999,2.52,0.04700000211596489,0.0,0.08700000494718552,0.0,1.0,1668050396.497671
224278776.0,3.0,357614600.0,2235.0,17.0,0.68,14.083777399999999,100.42014999999999,2.52,0.03100000135600567,0.0,0.0,0.0,1.0,1668050396.597797
227370643.0,3.0,357617700.0,2235.0,17.0,0.68,14.083776499999999,100.42014979999999,2.34,0.010000000707805157,0.0,0.07200000435113907,0.0,1.0,1668050399.689664
227470565.0,3.0,357617800.0,2235.0,17.0,0.68,14.083776499999999,100.4201497,2.33,0.03200000151991844,0.0,-0.003000000026077032,0.0,1.0,1668050399.789586
227570887.0,3.0,357617900.0,2235.0,17.0,0.68,14.083776499999999,100.4201497,2.33,0.007000000216066837,0.0,0.055000003427267075,0.0,1.0,1668050399.889908
227710613.0,3.0,357618000.0,2235.0,17.0,0.68,14.083776499999999,100.4201497,2.32,0.03100000135600567,0.0,0.06400000303983688,0.0,1.0,1668050400.029634
227890695.0,3.0,357618200.0,2235.0,17.0,0.68,14.083776499999999,100.42014979999999,2.32,0.04800000041723251,0.0,-0.030000001192092896,0.0,1.0,1668050400.209716
228070704.0,3.0,357618400.0,2235.0,17.0,0.68,14.0837766,100.42014979999999,2.31,0.04200000315904617,0.0,-0.0820000022649765,0.0,1.0,1668050400.389725
228190716.0,3.0,357618500.0,2235.0,17.0,0.68,14.0837766,100.42014979999999,2.3000000000000003,0.004000000189989805,0.0,0.06599999964237213,0.0,1.0,1668050400.509737
228370581.0,3.0,357618700.0,2235.0,17.0,0.68,14.0837766,100.42014979999999,2.29,0.009000000543892384,0.0,0.006000000052154064,0.0,1.0,1668050400.689602
228470647.0,3.0,357618800.0,2235.0,17.0,0.68,14.0837766,100.42014979999999,2.2800000000000002,0.013000000268220901,0.0,-0.04400000348687172,0.0,1.0,1668050400.789668
228570697.0,3.0,357618900.0,2235.0,17.0,0.68,14.083776499999999,100.42014979999999,2.29,0.012000000104308128,0.0,0.004000000189989805,0.0,1.0,1668050400.889718
228670728.0,3.0,357619000.0,2235.0,17.0,0.68,14.083776499999999,100.42014979999999,2.29,0.04800000041723251,0.0,0.06400000303983688,0.0,1.0,1668050400.989749
228790461.0,3.0,357619100.0,2235.0,17.0,0.68,14.083776499999999,100.42014979999999,2.2600000000000002,0.06200000271201134,0.0,0.0690000057220459,0.0,1.0,1668050401.109482
228970661.0,3.0,357619300.0,2235.0,17.0,0.68,14.0837766,100.4201497,2.24,0.07900000363588333,0.0,0.1720000058412552,0.0,1.0,1668050401.289682
229070709.0,3.0,357619400.0,2235.0,17.0,0.68,14.083776499999999,100.4201497,2.23,0.08400000631809235,0.0,0.1469999998807907,0.0,1.0,1668050401.38973
229170780.0,3.0,357619500.0,2235.0,17.0,0.68,14.083776499999999,100.4201497,2.23,0.06000000238418579,0.0,0.1730000078678131,0.0,1.0,1668050401.489801
229270602.0,3.0,357619600.0,2235.0,17.0,0.68,14.0837764,100.4201497,2.23,0.04100000113248825,0.0,0.2110000103712082,0.0,1.0,1668050401.589623
229390549.0,3.0,357619700.0,2235.0,17.0,0.68,14.0837764,100.4201497,2.25,0.036000002175569534,0.0,0.16600000858306885,0.0,1.0,1668050401.70957
229570699.0,3.0,357619900.0,2235.0,17.0,0.68,14.0837763,100.4201497,2.23,0.05300000309944153,0.0,0.1120000034570694,0.0,1.0,1668050401.88972
229670768.0,3.0,357620000.0,2235.0,17.0,0.68,14.0837763,100.4201497,2.23,0.07600000500679016,0.0,0.2290000170469284,0.0,1.0,1668050401.989789
229790637.0,3.0,357620100.0,2235.0,17.0,0.68,14.0837763,100.4201496,2.22,0.030000001192092896,0.0,0.11600000411272049,0.0,1.0,1668050402.109658
229970609.0,3.0,357620300.0,2235.0,17.0,0.68,14.083776199999999,100.4201497,2.21,0.04700000211596489,0.0,0.10200000554323196,0.0,1.0,1668050402.28963
230070647.0,3.0,357620400.0,2235.0,17.0,0.68,14.083776199999999,100.4201497,2.23,0.04700000211596489,0.0,0.11500000208616257,0.0,1.0,1668050402.389668
233070659.0,3.0,357623400.0,2235.0,17.0,0.68,14.0837753,100.420149,2.27,0.06300000101327896,0.0,0.07000000029802322,0.0,1.0,1668050405.38968
233164107.0,3.0,357623500.0,2235.0,17.0,0.68,14.0837752,100.420149,2.2800000000000002,0.020000001415610313,0.0,-0.018000001087784767,0.0,1.0,1668050405.483128
233264100.0,3.0,357623600.0,2235.0,17.0,0.68,14.0837752,100.420149,2.3000000000000003,0.017000000923871994,0.0,0.0560000017285347,0.0,1.0,1668050405.583121
233384014.0,3.0,357623700.0,2235.0,17.0,0.68,14.083775099999999,100.420149,2.29,0.05000000074505806,0.0,0.1290000081062317,0.0,1.0,1668050405.7030349
233464226.0,3.0,357623800.0,2235.0,17.0,0.68,14.083775099999999,100.420149,2.29,0.07400000095367432,0.0,0.014000000432133675,0.0,1.0,1668050405.783247
233564196.0,3.0,357623900.0,2235.0,17.0,0.68,14.083775099999999,100.420149,2.29,0.02500000037252903,0.0,-0.004000000189989805,0.0,1.0,1668050405.883217
233684058.0,3.0,357624000.0,2235.0,17.0,0.68,14.083775,100.4201489,2.29,0.06599999964237213,0.0,0.06800000369548798,0.0,1.0,1668050406.003079
233864044.0,3.0,357624200.0,2235.0,17.0,0.68,14.083775,100.4201489,2.29,0.01600000075995922,0.0,0.03400000184774399,0.0,1.0,1668050406.183065
233964135.0,3.0,357624300.0,2235.0,17.0,0.68,14.083775,100.42014879999999,2.2800000000000002,0.027000000700354576,0.0,0.013000000268220901,0.0,1.0,1668050406.283156
234064157.0,3.0,357624400.0,2235.0,17.0,0.68,14.0837749,100.42014879999999,2.3000000000000003,0.03500000014901161,0.0,0.026000000536441803,0.0,1.0,1668050406.383178
234164148.0,3.0,357624500.0,2235.0,17.0,0.68,14.0837749,100.42014879999999,2.29,0.055000003427267075,0.0,0.03200000151991844,0.0,1.0,1668050406.483169
234264188.0,3.0,357624600.0,2235.0,17.0,0.68,14.0837749,100.42014879999999,2.29,0.0560000017285347,0.0,-0.015000000596046448,0.0,1.0,1668050406.583209
234364053.0,3.0,357624700.0,2235.0,17.0,0.68,14.083774799999999,100.4201487,2.29,0.013000000268220901,0.0,0.04400000348687172,0.0,1.0,1668050406.683074
234464102.0,3.0,357624800.0,2235.0,17.0,0.68,14.083774799999999,100.42014879999999,2.3000000000000003,0.03800000250339508,0.0,0.017000000923871994,0.0,1.0,1668050406.783123
234583958.0,3.0,357624900.0,2235.0,17.0,0.68,14.0837747,100.4201487,2.31,0.03400000184774399,0.0,0.052000001072883606,0.0,1.0,1668050406.902979
234683980.0,3.0,357625000.0,2235.0,17.0,0.68,14.0837747,100.4201487,2.31,0.04800000041723251,0.0,0.04200000315904617,0.0,1.0,1668050407.003001
234784049.0,3.0,357625100.0,2235.0,17.0,0.68,14.0837746,100.4201487,2.31,0.029000001028180122,0.0,0.006000000052154064,0.0,1.0,1668050407.10307
234964080.0,3.0,357625300.0,2235.0,17.0,0.68,14.0837746,100.4201487,2.31,0.009000000543892384,0.0,0.01100000087171793,0.0,1.0,1668050407.283101
235084009.0,3.0,357625400.0,2235.0,17.0,0.68,14.083774499999999,100.42014859999999,2.31,0.04700000211596489,0.0,0.08500000089406967,0.0,1.0,1668050407.40303
235184011.0,3.0,357625500.0,2235.0,17.0,0.68,14.083774499999999,100.42014859999999,2.3000000000000003,0.04000000283122063,0.0,0.01100000087171793,0.0,1.0,1668050407.503032
235283907.0,3.0,357625600.0,2235.0,17.0,0.68,14.0837744,100.4201487,2.31,0.05700000375509262,0.0,-0.007000000216066837,0.0,1.0,1668050407.602928
235384153.0,3.0,357625700.0,2235.0,17.0,0.68,14.0837744,100.42014859999999,2.31,0.0820000022649765,0.0,0.11900000274181366,0.0,1.0,1668050407.7031739
235483912.0,3.0,357625800.0,2235.0,17.0,0.68,14.0837744,100.42014859999999,2.31,0.015000000596046448,0.0,0.09300000220537186,0.0,1.0,1668050407.802933
235564183.0,3.0,357625900.0,2235.0,17.0,0.68,14.0837744,100.42014859999999,2.31,0.020000001415610313,0.0,0.07100000232458115,0.0,1.0,1668050407.883204
235683962.0,3.0,357626000.0,2235.0,17.0,0.68,14.0837743,100.4201485,2.3000000000000003,0.03700000047683716,0.0,0.023000001907348633,0.0,1.0,1668050408.002983
238475936.0,3.0,357628800.0,2235.0,17.0,0.68,14.0837738,100.4201485,2.18,0.036000002175569534,0.0,0.15900000929832458,0.0,1.0,1668050410.794957
238575904.0,3.0,357628900.0,2235.0,17.0,0.68,14.0837738,100.4201485,2.17,0.06200000271201134,0.0,0.22200001776218414,0.0,1.0,1668050410.8949249
238675868.0,3.0,357629000.0,2235.0,17.0,0.68,14.0837737,100.4201485,2.18,0.03100000135600567,0.0,0.15200001001358032,0.0,1.0,1668050410.994889
238795741.0,3.0,357629100.0,2235.0,17.0,0.68,14.083773599999999,100.4201485,2.19,0.03200000151991844,0.0,0.1860000044107437,0.0,1.0,1668050411.114762
238975809.0,3.0,357629300.0,2235.0,17.0,0.68,14.083773599999999,100.4201485,2.17,0.032999999821186066,0.0,0.15200001001358032,0.0,1.0,1668050411.29483
239076327.0,3.0,357629400.0,2235.0,17.0,0.68,14.083773599999999,100.4201485,2.19,0.023000001907348633,0.0,0.2110000103712082,0.0,1.0,1668050411.395348
239175751.0,3.0,357629500.0,2235.0,17.0,0.68,14.0837735,100.4201485,2.19,0.014000000432133675,0.0,0.1210000067949295,0.0,1.0,1668050411.494772
239276084.0,3.0,357629600.0,2235.0,17.0,0.68,14.0837735,100.42014859999999,2.19,0.029000001028180122,0.0,0.16700001060962677,0.0,1.0,1668050411.595105
239375824.0,3.0,357629700.0,2235.0,17.0,0.68,14.0837735,100.4201485,2.19,0.06100000441074371,0.0,0.15200001001358032,0.0,1.0,1668050411.694845
239475845.0,3.0,357629800.0,2235.0,17.0,0.68,14.0837734,100.42014859999999,2.21,0.03800000250339508,0.0,0.15300001204013824,0.0,1.0,1668050411.794866
239575810.0,3.0,357629900.0,2235.0,17.0,0.68,14.083773299999999,100.42014859999999,2.23,0.06200000271201134,0.0,0.06300000101327896,0.0,1.0,1668050411.894831
239695856.0,3.0,357630000.0,2235.0,17.0,0.68,14.083773299999999,100.4201487,2.24,0.03800000250339508,0.0,0.07200000435113907,0.0,1.0,1668050412.014877
239875839.0,3.0,357630200.0,2235.0,17.0,0.68,14.083773299999999,100.4201487,2.2600000000000002,0.010000000707805157,0.0,0.049000002443790436,0.0,1.0,1668050412.19486
239975988.0,3.0,357630300.0,2235.0,17.0,0.68,14.083773299999999,100.4201487,2.2600000000000002,0.0560000017285347,0.0,0.05900000408291817,0.0,1.0,1668050412.295009
240075902.0,3.0,357630400.0,2235.0,17.0,0.68,14.083773299999999,100.4201487,2.27,0.052000001072883606,0.0,0.0820000022649765,0.0,1.0,1668050412.394923
240175866.0,3.0,357630500.0,2235.0,17.0,0.68,14.083773299999999,100.4201487,2.27,0.01100000087171793,0.0,-0.017000000923871994,0.0,1.0,1668050412.4948869
240275835.0,3.0,357630600.0,2235.0,17.0,0.68,14.083773299999999,100.4201487,2.27,0.024000000208616257,0.0,0.02500000037252903,0.0,1.0,1668050412.594856
240375863.0,3.0,357630700.0,2235.0,17.0,0.68,14.083773299999999,100.42014859999999,2.2600000000000002,0.058000002056360245,0.0,0.11600000411272049,0.0,1.0,1668050412.694884
240475807.0,3.0,357630800.0,2235.0,17.0,0.68,14.083773299999999,100.42014859999999,2.2600000000000002,0.026000000536441803,0.0,0.08900000154972076,0.0,1.0,1668050412.794828
240575964.0,3.0,357630900.0,2235.0,17.0,0.68,14.0837732,100.42014859999999,2.2600000000000002,0.04500000178813934,0.0,0.06700000166893005,0.0,1.0,1668050412.894985
240675969.0,3.0,357631000.0,2235.0,17.0,0.68,14.0837732,100.42014859999999,2.2600000000000002,0.023000001907348633,0.0,0.12400000542402267,0.0,1.0,1668050412.9949899
240795788.0,3.0,357631100.0,2235.0,17.0,0.68,14.0837732,100.42014859999999,2.25,0.02200000174343586,0.0,0.09300000220537186,0.0,1.0,1668050413.114809
240975804.0,3.0,357631300.0,2235.0,17.0,0.68,14.0837731,100.4201487,2.24,0.06200000271201134,0.0,0.07500000298023224,0.0,1.0,1668050413.294825
241075921.0,3.0,357631400.0,2235.0,17.0,0.68,14.0837731,100.4201487,2.27,0.03100000135600567,0.0,0.04800000041723251,0.0,1.0,1668050413.394942
241175873.0,3.0,357631500.0,2235.0,17.0,0.68,14.0837731,100.4201487,2.2600000000000002,0.024000000208616257,0.0,-0.0020000000949949026,0.0,1.0,1668050413.494894
241275953.0,3.0,357631600.0,2235.0,17.0,0.68,14.0837731,100.4201487,2.27,0.07000000029802322,0.0,0.049000002443790436,0.0,1.0,1668050413.594974
241376051.0,3.0,357631700.0,2235.0,17.0,0.68,14.0837731,100.42014859999999,2.2600000000000002,0.05900000408291817,0.0,0.06800000369548798,0.0,1.0,1668050413.695072
241475980.0,3.0,357631800.0,2235.0,17.0,0.68,14.0837731,100.42014859999999,2.2600000000000002,0.014000000432133675,0.0,0.0860000029206276,0.0,1.0,1668050413.795001
241575840.0,3.0,357631900.0,2235.0,17.0,0.68,14.083772999999999,100.42014859999999,2.2600000000000002,0.05900000408291817,0.0,0.052000001072883606,0.0,1.0,1668050413.894861
241675855.0,3.0,357632000.0,2235.0,17.0,0.68,14.083772999999999,100.4201485,2.27,0.0430000014603138,0.0,0.009000000543892384,0.0,1.0,1668050413.994876
241875962.0,3.0,357632200.0,2235.0,17.0,0.68,14.083772999999999,100.4201485,2.2600000000000002,0.03400000184774399,0.0,0.014000000432133675,0.0,1.0,1668050414.194983
241975828.0,3.0,357632300.0,2235.0,17.0,0.68,14.083772999999999,100.4201485,2.2600000000000002,0.01600000075995922,0.0,0.018000001087784767,0.0,1.0,1668050414.294849
242075898.0,3.0,357632400.0,2235.0,17.0,0.68,14.083772999999999,100.4201485,2.2600000000000002,0.018000001087784767,0.0,-0.00800000037997961,0.0,1.0,1668050414.394919
242175860.0,3.0,357632500.0,2235.0,17.0,0.68,14.0837729,100.42014859999999,2.2600000000000002,0.03500000014901161,0.0,0.05300000309944153,0.0,1.0,1668050414.494881
242275850.0,3.0,357632600.0,2235.0,17.0,0.68,14.0837729,100.42014859999999,2.27,0.01900000125169754,0.0,0.01900000125169754,0.0,1.0,1668050414.594871
242475948.0,3.0,357632800.0,2235.0,17.0,0.68,14.0837729,100.42014859999999,2.2800000000000002,0.05000000074505806,0.0,0.026000000536441803,0.0,1.0,1668050414.794969
242575763.0,3.0,357632900.0,2235.0,17.0,0.68,14.0837728,100.42014859999999,2.3000000000000003,0.06400000303983688,0.0,0.0690000057220459,0.0,1.0,1668050414.894784
242675982.0,3.0,357633000.0,2235.0,17.0,0.68,14.0837728,100.42014859999999,2.3000000000000003,0.036000002175569534,0.0,0.03500000014901161,0.0,1.0,1668050414.995003
242795949.0,3.0,357633100.0,2235.0,17.0,0.68,14.0837728,100.42014859999999,2.31,0.05400000140070915,0.0,0.03800000250339508,0.0,1.0,1668050415.11497
242975939.0,3.0,357633300.0,2235.0,17.0,0.68,14.0837728,100.4201485,2.31,0.03800000250339508,0.0,0.029000001028180122,0.0,1.0,1668050415.29496
243076033.0,3.0,357633400.0,2235.0,17.0,0.68,14.0837728,100.4201485,2.31,0.012000000104308128,0.0,0.014000000432133675,0.0,1.0,1668050415.395054
243175841.0,3.0,357633500.0,2235.0,17.0,0.68,14.083772699999999,100.4201485,2.32,0.046000003814697266,0.0,0.164000004529953,0.0,1.0,1668050415.494862
243276176.0,3.0,357633600.0,2235.0,17.0,0.68,14.083772699999999,100.42014859999999,2.33,0.03400000184774399,0.0,0.055000003427267075,0.0,1.0,1668050415.595197
243375948.0,3.0,357633700.0,2235.0,17.0,0.68,14.083772699999999,100.42014859999999,2.33,0.01900000125169754,0.0,0.04800000041723251,0.0,1.0,1668050415.694969
246475953.0,3.0,357636800.0,2235.0,17.0,0.68,14.083772699999999,100.4201489,2.43,0.05000000074505806,0.0,0.1300000101327896,0.0,1.0,1668050418.794974
246567800.0,3.0,357636900.0,2235.0,17.0,0.68,14.083772699999999,100.4201489,2.44,0.02800000086426735,0.0,0.07600000500679016,0.0,1.0,1668050418.886821
246667695.0,3.0,357637000.0,2235.0,17.0,0.68,14.083772699999999,100.420149,2.45,0.018000001087784767,0.0,0.07900000363588333,0.0,1.0,1668050418.986716
246787771.0,3.0,357637100.0,2235.0,17.0,0.68,14.083772699999999,100.420149,2.46,0.026000000536441803,0.0,0.04400000348687172,0.0,1.0,1668050419.106792
246967853.0,3.0,357637300.0,2235.0,17.0,0.68,14.0837726,100.420149,2.47,0.013000000268220901,0.0,0.07200000435113907,0.0,1.0,1668050419.286874
247067716.0,3.0,357637400.0,2235.0,17.0,0.68,14.0837726,100.42014909999999,2.46,0.06400000303983688,0.0,0.06200000271201134,0.0,1.0,1668050419.3867369
247167764.0,3.0,357637500.0,2235.0,17.0,0.68,14.0837726,100.42014909999999,2.49,0.012000000104308128,0.0,0.0650000050663948,0.0,1.0,1668050419.486785
247267767.0,3.0,357637600.0,2235.0,17.0,0.68,14.0837726,100.42014909999999,2.49,0.039000000804662704,0.0,0.05900000408291817,0.0,1.0,1668050419.586788
247367855.0,3.0,357637700.0,2235.0,17.0,0.68,14.083772699999999,100.42014909999999,2.49,0.029000001028180122,0.0,0.0560000017285347,0.0,1.0,1668050419.686876
247467899.0,3.0,357637800.0,2235.0,17.0,0.68,14.083772699999999,100.4201492,2.5100000000000002,0.04800000041723251,0.0,0.04800000041723251,0.0,1.0,1668050419.78692
247567789.0,3.0,357637900.0,2235.0,17.0,0.68,14.083772699999999,100.4201492,2.5100000000000002,0.017000000923871994,0.0,0.03400000184774399,0.0,1.0,1668050419.88681
247687674.0,3.0,357638000.0,2235.0,17.0,0.68,14.083772699999999,100.4201492,2.52,0.03800000250339508,0.0,0.05000000074505806,0.0,1.0,1668050420.006695
247867751.0,3.0,357638200.0,2235.0,17.0,0.68,14.083772699999999,100.42014909999999,2.5300000000000002,0.046000003814697266,0.0,-0.032999999821186066,0.0,1.0,1668050420.1867719
247967663.0,3.0,357638300.0,2235.0,17.0,0.68,14.083772699999999,100.4201492,2.52,0.07800000160932541,0.0,0.049000002443790436,0.0,1.0,1668050420.286684
248067817.0,3.0,357638400.0,2235.0,17.0,0.68,14.083772699999999,100.4201492,2.5300000000000002,0.058000002056360245,0.0,0.00800000037997961,0.0,1.0,1668050420.386838
248167681.0,3.0,357638500.0,2235.0,17.0,0.68,14.083772699999999,100.4201492,2.5300000000000002,0.026000000536441803,0.0,0.013000000268220901,0.0,1.0,1668050420.486702
248267823.0,3.0,357638600.0,2235.0,16.0,0.71,14.083772699999999,100.4201492,2.5300000000000002,0.02200000174343586,0.0,0.03700000047683716,0.0,1.0,1668050420.586844
248367885.0,3.0,357638700.0,2235.0,16.0,0.71,14.0837728,100.4201492,2.52,0.07000000029802322,0.0,0.07500000298023224,0.0,1.0,1668050420.686906
248467747.0,3.0,357638800.0,2235.0,16.0,0.71,14.0837728,100.4201492,2.52,0.021000001579523087,0.0,-0.004000000189989805,0.0,1.0,1668050420.786768
248568018.0,3.0,357638900.0,2235.0,16.0,0.71,14.0837728,100.4201492,2.5300000000000002,0.04700000211596489,0.0,0.11600000411272049,0.0,1.0,1668050420.887039
248667776.0,3.0,357639000.0,2235.0,16.0,0.71,14.0837729,100.42014929999999,2.5300000000000002,0.0430000014603138,0.0,0.07500000298023224,0.0,1.0,1668050420.986797
248787974.0,3.0,357639100.0,2235.0,16.0,0.71,14.0837729,100.42014929999999,2.54,0.029000001028180122,0.0,0.04700000211596489,0.0,1.0,1668050421.106995
248967775.0,3.0,357639300.0,2235.0,16.0,0.71,14.0837729,100.42014929999999,2.5500000000000003,0.029000001028180122,0.0,0.0950000062584877,0.0,1.0,1668050421.286796
249067773.0,3.0,357639400.0,2235.0,16.0,0.71,14.0837729,100.42014929999999,2.5500000000000003,0.020000001415610313,0.0,0.03500000014901161,0.0,1.0,1668050421.386794
249167841.0,3.0,357639500.0,2235.0,16.0,0.71,14.0837729,100.42014929999999,2.5500000000000003,0.04000000283122063,0.0,0.07000000029802322,0.0,1.0,1668050421.486862
249287800.0,3.0,357639600.0,2235.0,16.0,0.71,14.0837729,100.42014929999999,2.5500000000000003,0.052000001072883606,0.0,0.07600000500679016,0.0,1.0,1668050421.606821
249467784.0,3.0,357639800.0,2235.0,16.0,0.71,14.0837729,100.4201492,2.5300000000000002,0.03100000135600567,0.0,0.14400000870227814,0.0,1.0,1668050421.786805
249567737.0,3.0,357639900.0,2235.0,16.0,0.71,14.0837729,100.4201492,2.54,0.049000002443790436,0.0,0.1080000028014183,0.0,1.0,1668050421.886758
249667778.0,3.0,357640000.0,2235.0,16.0,0.71,14.0837729,100.4201492,2.54,0.014000000432133675,0.0,-0.005000000353902578,0.0,1.0,1668050421.986799
249787769.0,3.0,357640100.0,2235.0,16.0,0.71,14.0837729,100.4201492,2.54,0.04700000211596489,0.0,0.09300000220537186,0.0,1.0,1668050422.10679
252959754.0,3.0,357643300.0,2235.0,16.0,0.71,14.083773299999999,100.42014929999999,2.6,0.03100000135600567,0.0,-0.049000002443790436,0.0,1.0,1668050425.278775
253079554.0,3.0,357643400.0,2235.0,16.0,0.71,14.0837734,100.42014929999999,2.59,0.010000000707805157,0.0,0.027000000700354576,0.0,1.0,1668050425.398575
253179616.0,3.0,357643500.0,2235.0,16.0,0.71,14.0837734,100.42014929999999,2.59,0.017000000923871994,0.0,0.027000000700354576,0.0,1.0,1668050425.498637
253279615.0,3.0,357643600.0,2235.0,16.0,0.71,14.0837734,100.42014929999999,2.6,0.046000003814697266,0.0,0.058000002056360245,0.0,1.0,1668050425.598636
253379700.0,3.0,357643700.0,2235.0,16.0,0.71,14.0837734,100.42014929999999,2.6,0.02200000174343586,0.0,0.02800000086426735,0.0,1.0,1668050425.698721
253479602.0,3.0,357643800.0,2235.0,16.0,0.71,14.0837734,100.42014929999999,2.61,0.06200000271201134,0.0,0.014000000432133675,0.0,1.0,1668050425.798623
253559757.0,3.0,357643900.0,2235.0,16.0,0.71,14.0837734,100.42014929999999,2.61,0.030000001192092896,0.0,0.0560000017285347,0.0,1.0,1668050425.878778
253679549.0,3.0,357644000.0,2235.0,16.0,0.71,14.0837734,100.4201494,2.62,0.046000003814697266,0.0,0.03100000135600567,0.0,1.0,1668050425.99857
253799580.0,3.0,357644100.0,2235.0,16.0,0.71,14.0837734,100.4201494,2.62,0.036000002175569534,0.0,0.0650000050663948,0.0,1.0,1668050426.118601
253979699.0,3.0,357644300.0,2235.0,16.0,0.71,14.0837735,100.4201494,2.62,0.05300000309944153,0.0,0.07800000160932541,0.0,1.0,1668050426.29872
254079672.0,3.0,357644400.0,2235.0,16.0,0.71,14.0837735,100.4201495,2.62,0.03400000184774399,0.0,0.1080000028014183,0.0,1.0,1668050426.398693
254179667.0,3.0,357644500.0,2235.0,16.0,0.71,14.0837735,100.4201495,2.62,0.02800000086426735,0.0,0.052000001072883606,0.0,1.0,1668050426.498688
254279754.0,3.0,357644600.0,2235.0,16.0,0.71,14.0837735,100.4201495,2.62,0.006000000052154064,0.0,0.036000002175569534,0.0,1.0,1668050426.598775
254379773.0,3.0,357644700.0,2235.0,16.0,0.71,14.083773599999999,100.4201495,2.62,0.017000000923871994,0.0,0.10100000351667404,0.0,1.0,1668050426.698794
254479638.0,3.0,357644800.0,2235.0,16.0,0.71,14.083773599999999,100.4201495,2.62,0.003000000026077032,0.0,0.10200000554323196,0.0,1.0,1668050426.798659
254579740.0,3.0,357644900.0,2235.0,16.0,0.71,14.083773599999999,100.4201495,2.64,0.06100000441074371,0.0,0.06800000369548798,0.0,1.0,1668050426.898761
254679647.0,3.0,357645000.0,2235.0,16.0,0.71,14.083773599999999,100.4201495,2.63,0.06800000369548798,0.0,0.06300000101327896,0.0,1.0,1668050426.998668
254799585.0,3.0,357645100.0,2235.0,16.0,0.71,14.0837737,100.4201495,2.63,0.04100000113248825,0.0,0.11900000274181366,0.0,1.0,1668050427.118606
254959734.0,3.0,357645300.0,2235.0,16.0,0.71,14.0837737,100.4201495,2.62,0.04700000211596489,0.0,0.06700000166893005,0.0,1.0,1668050427.278755
255079718.0,3.0,357645400.0,2235.0,16.0,0.71,14.0837738,100.4201495,2.61,0.029000001028180122,0.0,0.01100000087171793,0.0,1.0,1668050427.398739
255179651.0,3.0,357645500.0,2235.0,16.0,0.71,14.0837738,100.4201495,2.63,0.014000000432133675,0.0,0.06200000271201134,0.0,1.0,1668050427.498672
255279629.0,3.0,357645600.0,2235.0,16.0,0.71,14.0837738,100.4201495,2.63,0.023000001907348633,0.0,0.15900000929832458,0.0,1.0,1668050427.59865
255379581.0,3.0,357645700.0,2235.0,16.0,0.71,14.0837738,100.4201496,2.62,0.049000002443790436,0.0,0.04000000283122063,0.0,1.0,1668050427.698602
255479781.0,3.0,357645800.0,2235.0,16.0,0.71,14.0837738,100.4201496,2.64,0.04100000113248825,0.0,0.10100000351667404,0.0,1.0,1668050427.798802
255579630.0,3.0,357645900.0,2235.0,16.0,0.71,14.0837738,100.4201496,2.63,0.05100000277161598,0.0,0.029000001028180122,0.0,1.0,1668050427.898651
258471864.0,3.0,357648800.0,2235.0,16.0,0.71,14.083774199999999,100.4201495,2.7600000000000002,0.0650000050663948,0.0,0.06599999964237213,0.0,1.0,1668050430.790885
258571728.0,3.0,357648900.0,2235.0,16.0,0.71,14.083774199999999,100.4201496,2.77,0.018000001087784767,0.0,0.024000000208616257,0.0,1.0,1668050430.890749
258671896.0,3.0,357649000.0,2235.0,16.0,0.71,14.0837743,100.4201496,2.7800000000000002,0.03800000250339508,0.0,0.09200000762939453,0.0,1.0,1668050430.990917
258791784.0,3.0,357649100.0,2235.0,16.0,0.71,14.0837743,100.4201496,2.8000000000000003,0.03200000151991844,0.0,0.07000000029802322,0.0,1.0,1668050431.110805
258971853.0,3.0,357649300.0,2235.0,16.0,0.71,14.0837743,100.4201496,2.8000000000000003,0.04400000348687172,0.0,0.10400000214576721,0.0,1.0,1668050431.290874
259071879.0,3.0,357649400.0,2235.0,16.0,0.71,14.0837743,100.4201496,2.81,0.020000001415610313,0.0,0.05300000309944153,0.0,1.0,1668050431.3909
259171834.0,3.0,357649500.0,2235.0,16.0,0.71,14.0837743,100.4201496,2.82,0.01900000125169754,0.0,0.11100000888109207,0.0,1.0,1668050431.490855
259271842.0,3.0,357649600.0,2235.0,16.0,0.71,14.0837743,100.4201496,2.84,0.003000000026077032,0.0,0.0820000022649765,0.0,1.0,1668050431.590863
259371901.0,3.0,357649700.0,2235.0,16.0,0.71,14.0837743,100.4201497,2.85,0.06200000271201134,0.0,0.18200001120567322,0.0,1.0,1668050431.690922
259471731.0,3.0,357649800.0,2235.0,16.0,0.71,14.0837743,100.4201497,2.85,0.05300000309944153,0.0,0.1210000067949295,0.0,1.0,1668050431.790752
259571925.0,3.0,357649900.0,2235.0,16.0,0.71,14.0837744,100.4201497,2.86,0.012000000104308128,0.0,0.13199999928474426,0.0,1.0,1668050431.890946
259671786.0,3.0,357650000.0,2235.0,16.0,0.71,14.0837744,100.4201497,2.86,0.017000000923871994,0.0,0.12000000476837158,0.0,1.0,1668050431.990807
259791798.0,3.0,357650100.0,2235.0,16.0,0.71,14.0837744,100.4201497,2.88,0.039000000804662704,0.0,0.07100000232458115,0.0,1.0,1668050432.110819
259971869.0,3.0,357650300.0,2235.0,16.0,0.71,14.0837744,100.4201497,2.87,0.03100000135600567,0.0,0.07700000703334808,0.0,1.0,1668050432.29089
260071901.0,3.0,357650400.0,2235.0,16.0,0.71,14.0837744,100.4201497,2.87,0.00800000037997961,0.0,0.16100001335144043,0.0,1.0,1668050432.390922
260171800.0,3.0,357650500.0,2235.0,16.0,0.71,14.0837744,100.4201497,2.88,0.02800000086426735,0.0,0.1290000081062317,0.0,1.0,1668050432.490821
260271873.0,3.0,357650600.0,2235.0,16.0,0.71,14.0837744,100.4201497,2.88,0.02200000174343586,0.0,0.09400000423192978,0.0,1.0,1668050432.590894
260371871.0,3.0,357650700.0,2235.0,16.0,0.71,14.0837744,100.42014979999999,2.89,0.04000000283122063,0.0,0.08100000023841858,0.0,1.0,1668050432.690892
260471785.0,3.0,357650800.0,2235.0,16.0,0.71,14.0837744,100.42014979999999,2.89,0.00800000037997961,0.0,0.15800000727176666,0.0,1.0,1668050432.790806
260571758.0,3.0,357650900.0,2235.0,16.0,0.71,14.0837744,100.42014979999999,2.89,0.012000000104308128,0.0,0.0820000022649765,0.0,1.0,1668050432.890779
260671890.0,3.0,357651000.0,2235.0,16.0,0.71,14.0837744,100.42014979999999,2.89,0.06100000441074371,0.0,0.164000004529953,0.0,1.0,1668050432.990911
260771777.0,3.0,357651100.0,2235.0,16.0,0.71,14.083774499999999,100.42014979999999,2.91,0.06800000369548798,0.0,0.06300000101327896,0.0,1.0,1668050433.090798
260871956.0,3.0,357651200.0,2235.0,16.0,0.71,14.0837744,100.42014979999999,2.91,0.10300000756978989,0.0,0.06000000238418579,0.0,1.0,1668050433.190977
260971803.0,3.0,357651300.0,2235.0,16.0,0.71,14.0837744,100.42014979999999,2.91,0.03700000047683716,0.0,0.052000001072883606,0.0,1.0,1668050433.290824
261071943.0,3.0,357651400.0,2235.0,16.0,0.71,14.0837744,100.42014979999999,2.91,0.09300000220537186,0.0,0.12200000882148743,0.0,1.0,1668050433.390964
261171824.0,3.0,357651500.0,2235.0,16.0,0.71,14.0837744,100.42014979999999,2.9,0.055000003427267075,0.0,0.07700000703334808,0.0,1.0,1668050433.490845
261271899.0,3.0,357651600.0,2235.0,16.0,0.71,14.0837744,100.42014979999999,2.91,0.020000001415610313,0.0,0.036000002175569534,0.0,1.0,1668050433.59092
261371899.0,3.0,357651700.0,2235.0,16.0,0.71,14.0837744,100.42014979999999,2.91,0.02500000037252903,0.0,0.007000000216066837,0.0,1.0,1668050433.6909199
261571872.0,3.0,357651900.0,2235.0,16.0,0.71,14.0837744,100.4201497,2.92,0.01100000087171793,0.0,-0.01100000087171793,0.0,1.0,1668050433.890893
261671814.0,3.0,357652000.0,2235.0,16.0,0.71,14.083774499999999,100.4201497,2.93,0.06200000271201134,0.0,0.046000003814697266,0.0,1.0,1668050433.990835
261791691.0,3.0,357652100.0,2235.0,16.0,0.71,14.083774499999999,100.4201497,2.93,0.06200000271201134,0.0,0.08900000154972076,0.0,1.0,1668050434.110712
261971718.0,3.0,357652300.0,2235.0,16.0,0.71,14.083774499999999,100.4201497,2.93,0.01900000125169754,0.0,0.017000000923871994,0.0,1.0,1668050434.290739
262071946.0,3.0,357652400.0,2235.0,16.0,0.71,14.083774499999999,100.4201497,2.94,0.05700000375509262,0.0,0.11600000411272049,0.0,1.0,1668050434.390967
262171754.0,3.0,357652500.0,2235.0,16.0,0.71,14.083774499999999,100.4201497,2.94,0.02200000174343586,0.0,0.06200000271201134,0.0,1.0,1668050434.4907749
262271889.0,3.0,357652600.0,2235.0,16.0,0.71,14.083774499999999,100.4201497,2.95,0.03400000184774399,0.0,0.06700000166893005,0.0,1.0,1668050434.59091
262371809.0,3.0,357652700.0,2235.0,16.0,0.71,14.083774499999999,100.4201497,2.96,0.06400000303983688,0.0,0.04000000283122063,0.0,1.0,1668050434.69083
262571749.0,3.0,357652900.0,2235.0,16.0,0.71,14.083774499999999,100.4201496,2.97,0.04500000178813934,0.0,-0.05000000074505806,0.0,1.0,1668050434.89077
262671918.0,3.0,357653000.0,2235.0,16.0,0.71,14.083774499999999,100.4201496,2.98,0.027000000700354576,0.0,0.013000000268220901,0.0,1.0,1668050434.990939
262791861.0,3.0,357653100.0,2235.0,16.0,0.71,14.083774499999999,100.4201496,2.98,0.021000001579523087,0.0,0.05400000140070915,0.0,1.0,1668050435.110882
262971867.0,3.0,357653300.0,2235.0,16.0,0.71,14.083774499999999,100.4201496,2.99,0.03400000184774399,0.0,-0.00800000037997961,0.0,1.0,1668050435.290888
263071758.0,3.0,357653400.0,2235.0,16.0,0.71,14.083774499999999,100.4201496,2.99,0.014000000432133675,0.0,0.02800000086426735,0.0,1.0,1668050435.390779
263171951.0,3.0,357653500.0,2235.0,16.0,0.71,14.083774499999999,100.4201496,2.99,0.03800000250339508,0.0,0.020000001415610313,0.0,1.0,1668050435.490972
263271825.0,3.0,357653600.0,2235.0,16.0,0.71,14.083774499999999,100.4201496,3.0,0.055000003427267075,0.0,0.04800000041723251,0.0,1.0,1668050435.590846
263371944.0,3.0,357653700.0,2235.0,16.0,0.71,14.083774499999999,100.4201497,3.0100000000000002,0.07200000435113907,0.0,0.007000000216066837,0.0,1.0,1668050435.690965
263471889.0,3.0,357653800.0,2235.0,16.0,0.71,14.083774499999999,100.4201497,3.0100000000000002,0.05100000277161598,0.0,0.04400000348687172,0.0,1.0,1668050435.79091
263571880.0,3.0,357653900.0,2235.0,16.0,0.71,14.083774499999999,100.4201497,3.0100000000000002,0.021000001579523087,0.0,0.030000001192092896,0.0,1.0,1668050435.890901
263691936.0,3.0,357654000.0,2235.0,16.0,0.71,14.083774499999999,100.4201497,3.0100000000000002,0.03500000014901161,0.0,0.018000001087784767,0.0,1.0,1668050436.010957
263871856.0,3.0,357654200.0,2235.0,17.0,0.68,14.0837744,100.4201497,3.02,0.0430000014603138,0.0,-0.009000000543892384,0.0,1.0,1668050436.190877
263971906.0,3.0,357654300.0,2235.0,17.0,0.68,14.0837744,100.4201497,3.02,0.06100000441074371,0.0,0.1210000067949295,0.0,1.0,1668050436.290927
264071910.0,3.0,357654400.0,2235.0,17.0,0.68,14.0837744,100.42014979999999,3.0300000000000002,0.03500000014901161,0.0,0.05300000309944153,0.0,1.0,1668050436.390931
264171791.0,3.0,357654500.0,2235.0,17.0,0.68,14.0837744,100.42014979999999,3.0500000000000003,0.04100000113248825,0.0,0.0690000057220459,0.0,1.0,1668050436.490812
264271808.0,3.0,357654600.0,2235.0,17.0,0.68,14.0837744,100.4201499,3.04,0.03700000047683716,0.0,0.10900000482797623,0.0,1.0,1668050436.590829
264371875.0,3.0,357654700.0,2235.0,17.0,0.68,14.0837743,100.4201499,3.0500000000000003,0.03800000250339508,0.0,0.018000001087784767,0.0,1.0,1668050436.690896
264471767.0,3.0,357654800.0,2235.0,17.0,0.68,14.0837743,100.42014999999999,3.0700000000000003,0.036000002175569534,0.0,0.0820000022649765,0.0,1.0,1668050436.790788
264571859.0,3.0,357654900.0,2235.0,17.0,0.68,14.0837743,100.42014999999999,3.08,0.02500000037252903,0.0,0.04400000348687172,0.0,1.0,1668050436.8908799
264671773.0,3.0,357655000.0,2235.0,17.0,0.68,14.0837743,100.4201501,3.08,0.04400000348687172,0.0,0.05700000375509262,0.0,1.0,1668050436.990794
264791983.0,3.0,357655100.0,2235.0,17.0,0.68,14.0837743,100.4201501,3.09,0.03400000184774399,0.0,0.00800000037997961,0.0,1.0,1668050437.1110039
264971908.0,3.0,357655300.0,2235.0,17.0,0.68,14.0837743,100.4201501,3.08,0.024000000208616257,0.0,0.03100000135600567,0.0,1.0,1668050437.290929
265071816.0,3.0,357655400.0,2235.0,17.0,0.68,14.0837743,100.4201501,3.08,0.08500000089406967,0.0,0.08800000697374344,0.0,1.0,1668050437.390837
265171872.0,3.0,357655500.0,2235.0,17.0,0.68,14.0837743,100.4201501,3.08,0.04000000283122063,0.0,0.0430000014603138,0.0,1.0,1668050437.490893
265271871.0,3.0,357655600.0,2235.0,17.0,0.68,14.0837743,100.4201502,3.09,0.032999999821186066,0.0,0.08500000089406967,0.0,1.0,1668050437.590892
265371907.0,3.0,357655700.0,2235.0,17.0,0.68,14.0837743,100.4201502,3.08,0.032999999821186066,0.0,0.1340000033378601,0.0,1.0,1668050437.690928
265472021.0,3.0,357655800.0,2235.0,17.0,0.68,14.0837743,100.4201502,3.09,0.0650000050663948,0.0,0.030000001192092896,0.0,1.0,1668050437.791042
265571787.0,3.0,357655900.0,2235.0,17.0,0.68,14.0837743,100.42015029999999,3.1,0.024000000208616257,0.0,0.0860000029206276,0.0,1.0,1668050437.890808
265671870.0,3.0,357656000.0,2235.0,17.0,0.68,14.0837743,100.42015029999999,3.1,0.030000001192092896,0.0,0.030000001192092896,0.0,1.0,1668050437.990891
265791819.0,3.0,357656100.0,2235.0,17.0,0.68,14.0837743,100.42015029999999,3.12,0.07400000095367432,0.0,0.07100000232458115,0.0,1.0,1668050438.11084
265971751.0,3.0,357656300.0,2235.0,17.0,0.68,14.0837743,100.42015029999999,3.13,0.020000001415610313,0.0,0.004000000189989805,0.0,1.0,1668050438.290772
266071903.0,3.0,357656400.0,2235.0,17.0,0.68,14.0837743,100.4201504,3.15,0.049000002443790436,0.0,0.04500000178813934,0.0,1.0,1668050438.390924
266171838.0,3.0,357656500.0,2235.0,17.0,0.68,14.0837743,100.42015049999999,3.15,0.029000001028180122,0.0,0.06599999964237213,0.0,1.0,1668050438.490859
266271887.0,3.0,357656600.0,2235.0,17.0,0.68,14.0837743,100.42015049999999,3.16,0.026000000536441803,0.0,-0.005000000353902578,0.0,1.0,1668050438.590908
266371885.0,3.0,357656700.0,2235.0,17.0,0.68,14.0837743,100.42015049999999,3.16,0.05300000309944153,0.0,-0.01100000087171793,0.0,1.0,1668050438.690906
266471874.0,3.0,357656800.0,2235.0,17.0,0.68,14.0837743,100.42015049999999,3.18,0.06100000441074371,0.0,0.0820000022649765,0.0,1.0,1668050438.790895
266571974.0,3.0,357656900.0,2235.0,17.0,0.68,14.0837743,100.4201506,3.19,0.01900000125169754,0.0,-0.023000001907348633,0.0,1.0,1668050438.890995
266671755.0,3.0,357657000.0,2235.0,17.0,0.68,14.0837743,100.4201506,3.19,0.014000000432133675,0.0,0.06200000271201134,0.0,1.0,1668050438.990776
266791846.0,3.0,357657100.0,2235.0,17.0,0.68,14.0837743,100.4201506,3.2,0.020000001415610313,0.0,-0.00800000037997961,0.0,1.0,1668050439.110867
266971813.0,3.0,357657300.0,2235.0,17.0,0.68,14.0837743,100.4201506,3.19,0.02800000086426735,0.0,-0.003000000026077032,0.0,1.0,1668050439.290834
267071807.0,3.0,357657400.0,2235.0,17.0,0.68,14.0837743,100.4201507,3.2,0.01900000125169754,0.0,0.052000001072883606,0.0,1.0,1668050439.390828
267191685.0,3.0,357657500.0,2235.0,17.0,0.68,14.0837743,100.4201507,3.2,0.00800000037997961,0.0,0.003000000026077032,0.0,1.0,1668050439.510706
267371848.0,3.0,357657700.0,2235.0,17.0,0.68,14.0837743,100.4201507,3.21,0.015000000596046448,0.0,0.03800000250339508,0.0,1.0,1668050439.690869
267471908.0,3.0,357657800.0,2235.0,17.0,0.68,14.0837743,100.4201507,3.21,0.014000000432133675,0.0,0.07100000232458115,0.0,1.0,1668050439.790929
267591777.0,3.0,357657900.0,2235.0,17.0,0.68,14.083774199999999,100.4201507,3.21,0.02800000086426735,0.0,0.125,0.0,1.0,1668050439.910798
267811749.0,3.0,357658100.0,2235.0,17.0,0.68,14.0837743,100.4201507,3.18,0.032999999821186066,0.0,0.09100000560283661,0.0,1.0,1668050440.13077
267991947.0,3.0,357658300.0,2235.0,17.0,0.68,14.083774199999999,100.4201507,3.16,0.04700000211596489,0.0,0.06200000271201134,0.0,1.0,1668050440.310968
268191795.0,3.0,357658500.0,2235.0,17.0,0.68,14.083774199999999,100.4201506,3.17,0.03800000250339508,0.0,-0.03800000250339508,0.0,1.0,1668050440.510816
268371896.0,3.0,357658700.0,2235.0,17.0,0.68,14.0837741,100.4201506,3.18,0.021000001579523087,0.0,-0.04700000211596489,0.0,1.0,1668050440.690917
268491713.0,3.0,357658800.0,2235.0,17.0,0.68,14.0837741,100.4201506,3.19,0.05000000074505806,0.0,0.0,0.0,1.0,1668050440.810734
268671701.0,3.0,357659000.0,2235.0,17.0,0.68,14.083774,100.4201506,3.21,0.026000000536441803,0.0,0.04100000113248825,0.0,1.0,1668050440.990722
268791877.0,3.0,357659100.0,2235.0,17.0,0.68,14.083774,100.4201507,3.22,0.03700000047683716,0.0,0.03800000250339508,0.0,1.0,1668050441.110898
268971891.0,3.0,357659300.0,2235.0,17.0,0.68,14.083774,100.4201507,3.21,0.046000003814697266,0.0,0.08000000566244125,0.0,1.0,1668050441.290912
269071917.0,3.0,357659400.0,2235.0,17.0,0.68,14.083774,100.4201507,3.24,0.026000000536441803,0.0,0.05900000408291817,0.0,1.0,1668050441.390938
269171759.0,3.0,357659500.0,2235.0,17.0,0.68,14.083774,100.4201508,3.24,0.03200000151991844,0.0,0.1420000046491623,0.0,1.0,1668050441.4907799
269271851.0,3.0,357659600.0,2235.0,17.0,0.68,14.083773899999999,100.4201509,3.2600000000000002,0.024000000208616257,0.0,0.04200000315904617,0.0,1.0,1668050441.590872
269371801.0,3.0,357659700.0,2235.0,17.0,0.68,14.083773899999999,100.4201509,3.2600000000000002,0.04800000041723251,0.0,0.15000000596046448,0.0,1.0,1668050441.690822
269471905.0,3.0,357659800.0,2235.0,17.0,0.68,14.083773899999999,100.4201509,3.27,0.04100000113248825,0.0,0.10000000149011612,0.0,1.0,1668050441.790926
269571832.0,3.0,357659900.0,2235.0,17.0,0.68,14.0837738,100.42015099999999,3.29,0.005000000353902578,0.0,0.04500000178813934,0.0,1.0,1668050441.890853
269691857.0,3.0,357660000.0,2235.0,17.0,0.68,14.0837738,100.42015099999999,3.29,0.018000001087784767,0.0,0.09700000286102295,0.0,1.0,1668050442.010878
269871857.0,3.0,357660200.0,2235.0,17.0,0.68,14.0837737,100.42015099999999,3.3000000000000003,0.06599999964237213,0.0,0.026000000536441803,0.0,1.0,1668050442.190878
269971847.0,3.0,357660300.0,2235.0,17.0,0.68,14.0837737,100.4201511,3.3200000000000003,0.036000002175569534,0.0,0.1080000028014183,0.0,1.0,1668050442.290868
270071734.0,3.0,357660400.0,2235.0,17.0,0.68,14.0837737,100.4201511,3.31,0.07600000500679016,0.0,0.026000000536441803,0.0,1.0,1668050442.390755
270171838.0,3.0,357660500.0,2235.0,17.0,0.68,14.083773599999999,100.42015119999999,3.3200000000000003,0.039000000804662704,0.0,0.04800000041723251,0.0,1.0,1668050442.490859
270271718.0,3.0,357660600.0,2235.0,17.0,0.68,14.083773599999999,100.42015119999999,3.34,0.030000001192092896,0.0,0.00800000037997961,0.0,1.0,1668050442.590739
270371888.0,3.0,357660700.0,2235.0,17.0,0.68,14.083773599999999,100.42015119999999,3.34,0.03500000014901161,0.0,-0.009000000543892384,0.0,1.0,1668050442.690909
270471905.0,3.0,357660800.0,2235.0,17.0,0.68,14.083773599999999,100.4201513,3.36,0.027000000700354576,0.0,0.017000000923871994,0.0,1.0,1668050442.790926
270571918.0,3.0,357660900.0,2235.0,17.0,0.68,14.083773599999999,100.4201513,3.36,0.023000001907348633,0.0,0.029000001028180122,0.0,1.0,1668050442.890939
270671839.0,3.0,357661000.0,2235.0,17.0,0.68,14.083773599999999,100.4201513,3.36,0.02200000174343586,0.0,0.055000003427267075,0.0,1.0,1668050442.99086
270791734.0,3.0,357661100.0,2235.0,17.0,0.68,14.083773599999999,100.4201514,3.37,0.020000001415610313,0.0,0.0020000000949949026,0.0,1.0,1668050443.110755
270971770.0,3.0,357661300.0,2235.0,17.0,0.68,14.083773599999999,100.42015149999999,3.37,0.04700000211596489,0.0,0.05100000277161598,0.0,1.0,1668050443.290791
271071928.0,3.0,357661400.0,2235.0,17.0,0.68,14.083773599999999,100.4201516,3.38,0.017000000923871994,0.0,-0.03500000014901161,0.0,1.0,1668050443.390949
271171760.0,3.0,357661500.0,2235.0,17.0,0.68,14.083773599999999,100.4201516,3.41,0.03800000250339508,0.0,0.003000000026077032,0.0,1.0,1668050443.490781
271271877.0,3.0,357661600.0,2235.0,17.0,0.68,14.083773599999999,100.4201516,3.4,0.03200000151991844,0.0,0.029000001028180122,0.0,1.0,1668050443.590898
271371833.0,3.0,357661700.0,2235.0,17.0,0.68,14.083773599999999,100.4201516,3.4,0.01600000075995922,0.0,-0.07400000095367432,0.0,1.0,1668050443.690854
271571900.0,3.0,357661900.0,2235.0,17.0,0.68,14.083773599999999,100.42015169999999,3.42,0.08400000631809235,0.0,0.02500000037252903,0.0,1.0,1668050443.8909209
271791940.0,3.0,357662100.0,2235.0,17.0,0.68,14.0837737,100.4201518,3.43,0.04800000041723251,0.0,-0.00800000037997961,0.0,1.0,1668050444.110961
271971926.0,3.0,357662300.0,2235.0,17.0,0.68,14.0837737,100.4201518,3.43,0.010000000707805157,0.0,0.020000001415610313,0.0,1.0,1668050444.290947
272071875.0,3.0,357662400.0,2235.0,17.0,0.68,14.0837737,100.4201519,3.46,0.0430000014603138,0.0,0.03200000151991844,0.0,1.0,1668050444.390896
272171840.0,3.0,357662500.0,2235.0,17.0,0.68,14.0837737,100.4201519,3.48,0.015000000596046448,0.0,-0.04100000113248825,0.0,1.0,1668050444.490861
272271822.0,3.0,357662600.0,2235.0,17.0,0.68,14.0837737,100.420152,3.49,0.01600000075995922,0.0,0.03500000014901161,0.0,1.0,1668050444.590843
272371926.0,3.0,357662700.0,2235.0,17.0,0.68,14.0837737,100.420152,3.49,0.05900000408291817,0.0,0.04000000283122063,0.0,1.0,1668050444.690947
272471797.0,3.0,357662800.0,2235.0,17.0,0.68,14.0837737,100.420152,3.49,0.04100000113248825,0.0,0.03800000250339508,0.0,1.0,1668050444.790818
272591725.0,3.0,357662900.0,2235.0,17.0,0.68,14.0837737,100.4201521,3.49,0.0650000050663948,0.0,0.06300000101327896,0.0,1.0,1668050444.910746
272791787.0,3.0,357663100.0,2235.0,17.0,0.68,14.0837737,100.4201521,3.5,0.05400000140070915,0.0,-0.08300000429153442,0.0,1.0,1668050445.110808
272971799.0,3.0,357663300.0,2235.0,17.0,0.68,14.0837737,100.42015219999999,3.5,0.08300000429153442,0.0,0.039000000804662704,0.0,1.0,1668050445.29082
273071878.0,3.0,357663400.0,2235.0,17.0,0.68,14.0837737,100.42015219999999,3.52,0.0860000029206276,0.0,-0.049000002443790436,0.0,1.0,1668050445.390899
273271846.0,3.0,357663600.0,2235.0,17.0,0.68,14.083773599999999,100.42015219999999,3.5300000000000002,0.030000001192092896,0.0,-0.015000000596046448,0.0,1.0,1668050445.590867
274191835.0,3.0,357664500.0,2235.0,17.0,0.68,14.083773599999999,100.42015239999999,3.56,0.02800000086426735,0.0,0.06300000101327896,0.0,1.0,1668050446.510856
274371970.0,3.0,357664700.0,2235.0,17.0,0.68,14.083773599999999,100.42015239999999,3.56,0.04100000113248825,0.0,0.03500000014901161,0.0,1.0,1668050446.690991
274471841.0,3.0,357664800.0,2235.0,17.0,0.68,14.083773599999999,100.42015239999999,3.5700000000000003,0.014000000432133675,0.0,0.052000001072883606,0.0,1.0,1668050446.790862
274571871.0,3.0,357664900.0,2235.0,17.0,0.68,14.083773599999999,100.42015239999999,3.5700000000000003,0.04000000283122063,0.0,-0.021000001579523087,0.0,1.0,1668050446.890892
274671970.0,3.0,357665000.0,2235.0,17.0,0.68,14.0837735,100.42015239999999,3.58,0.05100000277161598,0.0,0.05300000309944153,0.0,1.0,1668050446.9909909
274791788.0,3.0,357665100.0,2235.0,17.0,0.68,14.0837735,100.4201525,3.58,0.01900000125169754,0.0,-0.08800000697374344,0.0,1.0,1668050447.110809
274971953.0,3.0,357665300.0,2235.0,17.0,0.68,14.0837735,100.4201525,3.61,0.06200000271201134,0.0,-0.06300000101327896,0.0,1.0,1668050447.290974
275071851.0,3.0,357665400.0,2235.0,17.0,0.68,14.0837735,100.4201525,3.61,0.0430000014603138,0.0,-0.03200000151991844,0.0,1.0,1668050447.390872
275171805.0,3.0,357665500.0,2235.0,17.0,0.68,14.0837735,100.4201526,3.62,0.04500000178813934,0.0,-0.10300000756978989,0.0,1.0,1668050447.490826
275271931.0,3.0,357665600.0,2235.0,17.0,0.68,14.0837735,100.4201526,3.63,0.03100000135600567,0.0,-0.125,0.0,1.0,1668050447.590952
275371970.0,3.0,357665700.0,2235.0,17.0,0.68,14.0837735,100.4201526,3.63,0.026000000536441803,0.0,-0.14900000393390656,0.0,1.0,1668050447.690991
275471705.0,3.0,357665800.0,2235.0,17.0,0.68,14.0837735,100.4201526,3.63,0.030000001192092896,0.0,-0.05100000277161598,0.0,1.0,1668050447.790726
275571899.0,3.0,357665900.0,2235.0,17.0,0.68,14.0837734,100.4201526,3.63,0.04000000283122063,0.0,-0.14000000059604645,0.0,1.0,1668050447.89092
275691712.0,3.0,357666000.0,2235.0,17.0,0.68,14.0837734,100.42015269999999,3.64,0.006000000052154064,0.0,-0.125,0.0,1.0,1668050448.010733
275871900.0,3.0,357666200.0,2235.0,17.0,0.68,14.0837735,100.42015269999999,3.66,0.05000000074505806,0.0,-0.11500000208616257,0.0,1.0,1668050448.190921
275971903.0,3.0,357666300.0,2235.0,17.0,0.68,14.0837735,100.42015269999999,3.66,0.039000000804662704,0.0,-0.12400000542402267,0.0,1.0,1668050448.290924
276171900.0,3.0,357666500.0,2235.0,17.0,0.68,14.0837734,100.4201526,3.67,0.00800000037997961,0.0,-0.05700000375509262,0.0,1.0,1668050448.490921
276371829.0,3.0,357666700.0,2235.0,17.0,0.68,14.0837734,100.4201526,3.67,0.03200000151991844,0.0,-0.15300001204013824,0.0,1.0,1668050448.69085
276571848.0,3.0,357666900.0,2235.0,17.0,0.68,14.083773299999999,100.4201526,3.69,0.015000000596046448,0.0,-0.039000000804662704,0.0,1.0,1668050448.890869
276671978.0,3.0,357667000.0,2235.0,17.0,0.68,14.083773299999999,100.42015269999999,3.72,0.021000001579523087,0.0,-0.0020000000949949026,0.0,1.0,1668050448.990999
276791812.0,3.0,357667100.0,2235.0,17.0,0.68,14.083773299999999,100.42015269999999,3.71,0.004000000189989805,0.0,0.06800000369548798,0.0,1.0,1668050449.110833
276971780.0,3.0,357667300.0,2235.0,17.0,0.68,14.083773299999999,100.42015269999999,3.71,0.020000001415610313,0.0,-0.04100000113248825,0.0,1.0,1668050449.290801
277072131.0,3.0,357667400.0,2235.0,17.0,0.68,14.0837732,100.42015269999999,3.69,0.030000001192092896,0.0,0.1080000028014183,0.0,1.0,1668050449.391152
277171863.0,3.0,357667500.0,2235.0,17.0,0.68,14.0837732,100.42015269999999,3.69,0.03100000135600567,0.0,0.08100000023841858,0.0,1.0,1668050449.490884
277391884.0,3.0,357667700.0,2235.0,17.0,0.68,14.0837731,100.4201526,3.7,0.10900000482797623,0.0,-0.03400000184774399,0.0,1.0,1668050449.710905
277571934.0,3.0,357667900.0,2235.0,17.0,0.68,14.0837731,100.42015239999999,3.7,0.03400000184774399,0.0,-0.020000001415610313,0.0,1.0,1668050449.890955
277671847.0,3.0,357668000.0,2235.0,17.0,0.68,14.0837731,100.42015239999999,3.7,0.055000003427267075,0.0,-0.04400000348687172,0.0,1.0,1668050449.990868
277791953.0,3.0,357668100.0,2235.0,17.0,0.68,14.0837731,100.42015239999999,3.71,0.017000000923871994,0.0,-0.032999999821186066,0.0,1.0,1668050450.110974
277991705.0,3.0,357668300.0,2235.0,17.0,0.68,14.0837731,100.4201525,3.69,0.04500000178813934,0.0,-0.02800000086426735,0.0,1.0,1668050450.310726
278171851.0,3.0,357668500.0,2235.0,17.0,0.68,14.0837731,100.4201525,3.68,0.06100000441074371,0.0,-0.030000001192092896,0.0,1.0,1668050450.490872
278371850.0,3.0,357668700.0,2235.0,17.0,0.68,14.0837731,100.4201526,3.67,0.018000001087784767,0.0,0.02800000086426735,0.0,1.0,1668050450.690871
278471811.0,3.0,357668800.0,2235.0,17.0,0.68,14.0837731,100.4201526,3.68,0.0560000017285347,0.0,0.10000000149011612,0.0,1.0,1668050450.790832
278591696.0,3.0,357668900.0,2235.0,17.0,0.68,14.083772999999999,100.42015269999999,3.68,0.029000001028180122,0.0,-0.027000000700354576,0.0,1.0,1668050450.910717
278791849.0,3.0,357669100.0,2235.0,17.0,0.68,14.083772999999999,100.4201528,3.68,0.06100000441074371,0.0,0.06800000369548798,0.0,1.0,1668050451.11087
278971960.0,3.0,357669300.0,2235.0,17.0,0.68,14.0837731,100.42015289999999,3.65,0.10700000822544098,0.0,0.16500000655651093,0.0,1.0,1668050451.290981
279071854.0,3.0,357669400.0,2235.0,17.0,0.68,14.0837731,100.42015289999999,3.67,0.05400000140070915,0.0,0.058000002056360245,0.0,1.0,1668050451.390875
279271806.0,3.0,357669600.0,2235.0,17.0,0.68,14.0837732,100.4201528,3.67,0.05400000140070915,0.0,0.10200000554323196,0.0,1.0,1668050451.590827
279371897.0,3.0,357669700.0,2235.0,17.0,0.68,14.0837731,100.4201528,3.69,0.01600000075995922,0.0,0.16300000250339508,0.0,1.0,1668050451.690918
279471865.0,3.0,357669800.0,2235.0,17.0,0.68,14.0837732,100.4201528,3.67,0.05000000074505806,0.0,0.14100000262260437,0.0,1.0,1668050451.790886
279571966.0,3.0,357669900.0,2235.0,17.0,0.68,14.0837732,100.4201528,3.68,0.04200000315904617,0.0,0.14000000059604645,0.0,1.0,1668050451.890987
279671860.0,3.0,357670000.0,2235.0,17.0,0.68,14.0837732,100.4201528,3.68,0.020000001415610313,0.0,0.09100000560283661,0.0,1.0,1668050451.990881
279791747.0,3.0,357670100.0,2235.0,17.0,0.68,14.0837732,100.4201528,3.68,0.07700000703334808,0.0,0.164000004529953,0.0,1.0,1668050452.110768
279971923.0,3.0,357670300.0,2235.0,17.0,0.68,14.083773299999999,100.42015269999999,3.65,0.07800000160932541,0.0,0.09600000083446503,0.0,1.0,1668050452.290944
280071957.0,3.0,357670400.0,2235.0,17.0,0.68,14.0837732,100.42015269999999,3.66,0.03800000250339508,0.0,0.12700000405311584,0.0,1.0,1668050452.390978
280171859.0,3.0,357670500.0,2235.0,17.0,0.68,14.0837732,100.42015269999999,3.67,0.05000000074505806,0.0,0.08900000154972076,0.0,1.0,1668050452.49088
280271874.0,3.0,357670600.0,2235.0,17.0,0.68,14.0837732,100.42015269999999,3.67,0.027000000700354576,0.0,0.04500000178813934,0.0,1.0,1668050452.590895
280371800.0,3.0,357670700.0,2235.0,17.0,0.68,14.0837732,100.42015269999999,3.68,0.03700000047683716,0.0,0.02500000037252903,0.0,1.0,1668050452.690821
280471814.0,3.0,357670800.0,2235.0,17.0,0.68,14.0837732,100.42015269999999,3.69,0.010000000707805157,0.0,0.06400000303983688,0.0,1.0,1668050452.790835
280571831.0,3.0,357670900.0,2235.0,17.0,0.68,14.0837732,100.42015269999999,3.69,0.006000000052154064,0.0,0.05400000140070915,0.0,1.0,1668050452.890852
280671929.0,3.0,357671000.0,2235.0,17.0,0.68,14.0837732,100.42015269999999,3.68,0.017000000923871994,0.0,-0.039000000804662704,0.0,1.0,1668050452.9909499
280791923.0,3.0,357671100.0,2235.0,17.0,0.68,14.0837732,100.4201526,3.69,0.06200000271201134,0.0,0.04400000348687172,0.0,1.0,1668050453.110944
280971951.0,3.0,357671300.0,2235.0,17.0,0.68,14.0837732,100.4201526,3.68,0.020000001415610313,0.0,-0.03200000151991844,0.0,1.0,1668050453.290972
281071866.0,3.0,357671400.0,2235.0,17.0,0.68,14.0837731,100.4201526,3.69,0.023000001907348633,0.0,0.04400000348687172,0.0,1.0,1668050453.390887
281171906.0,3.0,357671500.0,2235.0,17.0,0.68,14.0837731,100.4201526,3.69,0.03800000250339508,0.0,0.007000000216066837,0.0,1.0,1668050453.490927
281271917.0,3.0,357671600.0,2235.0,17.0,0.68,14.0837731,100.4201526,3.69,0.014000000432133675,0.0,0.018000001087784767,0.0,1.0,1668050453.590938
281391829.0,3.0,357671700.0,2235.0,17.0,0.68,14.0837732,100.4201526,3.7,0.030000001192092896,0.0,-0.06599999964237213,0.0,1.0,1668050453.71085
281591829.0,3.0,357671900.0,2235.0,17.0,0.68,14.0837732,100.4201525,3.71,0.03500000014901161,0.0,0.026000000536441803,0.0,1.0,1668050453.91085
281791789.0,3.0,357672100.0,2235.0,17.0,0.68,14.0837732,100.4201525,3.71,0.02200000174343586,0.0,-0.01100000087171793,0.0,1.0,1668050454.11081
281971786.0,3.0,357672300.0,2235.0,17.0,0.68,14.0837732,100.4201525,3.72,0.006000000052154064,0.0,-0.04200000315904617,0.0,1.0,1668050454.290807
282072047.0,3.0,357672400.0,2235.0,17.0,0.68,14.0837732,100.4201526,3.72,0.0430000014603138,0.0,0.0560000017285347,0.0,1.0,1668050454.391068
282171852.0,3.0,357672500.0,2235.0,17.0,0.68,14.0837732,100.4201526,3.73,0.04800000041723251,0.0,-0.004000000189989805,0.0,1.0,1668050454.490873
282271937.0,3.0,357672600.0,2235.0,17.0,0.68,14.0837732,100.4201525,3.73,0.010000000707805157,0.0,0.006000000052154064,0.0,1.0,1668050454.5909579
282371808.0,3.0,357672700.0,2235.0,17.0,0.68,14.0837732,100.4201525,3.71,0.010000000707805157,0.0,0.07300000637769699,0.0,1.0,1668050454.690829
282471912.0,3.0,357672800.0,2235.0,17.0,0.68,14.0837732,100.4201525,3.71,0.01600000075995922,0.0,-0.03100000135600567,0.0,1.0,1668050454.790933
282571978.0,3.0,357672900.0,2235.0,17.0,0.68,14.0837732,100.4201525,3.7,0.055000003427267075,0.0,0.03200000151991844,0.0,1.0,1668050454.890999
282671811.0,3.0,357673000.0,2235.0,17.0,0.68,14.083773299999999,100.42015239999999,3.68,0.058000002056360245,0.0,0.05700000375509262,0.0,1.0,1668050454.990832
282871819.0,3.0,357673200.0,2235.0,17.0,0.68,14.083773299999999,100.42015239999999,3.69,0.03100000135600567,0.0,0.005000000353902578,0.0,1.0,1668050455.19084
282971928.0,3.0,357673300.0,2235.0,17.0,0.68,14.083773299999999,100.42015239999999,3.69,0.052000001072883606,0.0,-0.023000001907348633,0.0,1.0,1668050455.2909489
283071869.0,3.0,357673400.0,2235.0,17.0,0.68,14.0837734,100.42015239999999,3.68,0.03200000151991844,0.0,-0.04200000315904617,0.0,1.0,1668050455.39089
283171861.0,3.0,357673500.0,2235.0,17.0,0.68,14.0837734,100.4201523,3.69,0.03700000047683716,0.0,0.07800000160932541,0.0,1.0,1668050455.490882
283271799.0,3.0,357673600.0,2235.0,17.0,0.68,14.0837734,100.4201523,3.68,0.018000001087784767,0.0,0.005000000353902578,0.0,1.0,1668050455.59082
283372040.0,3.0,357673700.0,2235.0,17.0,0.68,14.0837734,100.4201523,3.67,0.04700000211596489,0.0,0.006000000052154064,0.0,1.0,1668050455.691061
283471905.0,3.0,357673800.0,2235.0,17.0,0.68,14.0837735,100.42015219999999,3.66,0.04100000113248825,0.0,0.07100000232458115,0.0,1.0,1668050455.790926
283571807.0,3.0,357673900.0,2235.0,17.0,0.68,14.0837735,100.42015219999999,3.66,0.04100000113248825,0.0,0.052000001072883606,0.0,1.0,1668050455.890828
283671993.0,3.0,357674000.0,2235.0,17.0,0.68,14.0837735,100.42015219999999,3.64,0.027000000700354576,0.0,0.04200000315904617,0.0,1.0,1668050455.991014
283871871.0,3.0,357674200.0,2235.0,17.0,0.68,14.083773599999999,100.42015219999999,3.61,0.026000000536441803,0.0,0.05000000074505806,0.0,1.0,1668050456.190892
283971840.0,3.0,357674300.0,2235.0,17.0,0.68,14.083773599999999,100.4201521,3.62,0.03100000135600567,0.0,0.03200000151991844,0.0,1.0,1668050456.290861
284071919.0,3.0,357674400.0,2235.0,17.0,0.68,14.0837737,100.420152,3.61,0.012000000104308128,0.0,0.125,0.0,1.0,1668050456.39094
284171816.0,3.0,357674500.0,2235.0,17.0,0.68,14.0837737,100.420152,3.61,0.013000000268220901,0.0,0.09600000083446503,0.0,1.0,1668050456.490837
284271990.0,3.0,357674600.0,2235.0,17.0,0.68,14.0837737,100.420152,3.61,0.039000000804662704,0.0,0.03100000135600567,0.0,1.0,1668050456.591011
284371855.0,3.0,357674700.0,2235.0,17.0,0.68,14.0837738,100.4201519,3.6,0.03100000135600567,0.0,0.13600000739097595,0.0,1.0,1668050456.690876
284571957.0,3.0,357674900.0,2235.0,17.0,0.68,14.0837738,100.4201518,3.5700000000000003,0.05000000074505806,0.0,0.10500000417232513,0.0,1.0,1668050456.890978
284791951.0,3.0,357675100.0,2235.0,17.0,0.68,14.083773899999999,100.4201518,3.54,0.015000000596046448,0.0,0.164000004529953,0.0,1.0,1668050457.110972
284971824.0,3.0,357675300.0,2235.0,17.0,0.68,14.083773899999999,100.4201518,3.5300000000000002,0.018000001087784767,0.0,0.05900000408291817,0.0,1.0,1668050457.290845
285071958.0,3.0,357675400.0,2235.0,17.0,0.68,14.083773899999999,100.42015169999999,3.5100000000000002,0.05000000074505806,0.0,0.20000000298023224,0.0,1.0,1668050457.390979
285171934.0,3.0,357675500.0,2235.0,17.0,0.68,14.083773899999999,100.42015169999999,3.5300000000000002,0.024000000208616257,0.0,0.16700001060962677,0.0,1.0,1668050457.4909549
285371801.0,3.0,357675700.0,2235.0,17.0,0.68,14.083774,100.42015169999999,3.52,0.03200000151991844,0.0,0.1420000046491623,0.0,1.0,1668050457.690822
285472040.0,3.0,357675800.0,2235.0,17.0,0.68,14.083774,100.42015169999999,3.52,0.029000001028180122,0.0,0.15700000524520874,0.0,1.0,1668050457.791061
285571840.0,3.0,357675900.0,2235.0,17.0,0.68,14.083774,100.4201516,3.54,0.04500000178813934,0.0,0.027000000700354576,0.0,1.0,1668050457.890861
285671932.0,3.0,357676000.0,2235.0,17.0,0.68,14.083774,100.42015149999999,3.5300000000000002,0.058000002056360245,0.0,0.055000003427267075,0.0,1.0,1668050457.990953
285871918.0,3.0,357676200.0,2235.0,17.0,0.68,14.083774,100.42015149999999,3.52,0.026000000536441803,0.0,0.12000000476837158,0.0,1.0,1668050458.190939
285971804.0,3.0,357676300.0,2235.0,17.0,0.68,14.083774,100.42015149999999,3.5,0.06100000441074371,0.0,0.08400000631809235,0.0,1.0,1668050458.290825
286071970.0,3.0,357676400.0,2235.0,17.0,0.68,14.083773899999999,100.42015149999999,3.5,0.03200000151991844,0.0,0.026000000536441803,0.0,1.0,1668050458.390991
286171857.0,3.0,357676500.0,2235.0,17.0,0.68,14.083773899999999,100.4201514,3.52,0.026000000536441803,0.0,0.0430000014603138,0.0,1.0,1668050458.490878
286271888.0,3.0,357676600.0,2235.0,17.0,0.68,14.083773899999999,100.4201514,3.5100000000000002,0.02200000174343586,0.0,-0.04200000315904617,0.0,1.0,1668050458.590909
286371980.0,3.0,357676700.0,2235.0,17.0,0.68,14.083773899999999,100.4201513,3.52,0.052000001072883606,0.0,0.055000003427267075,0.0,1.0,1668050458.691001
286571918.0,3.0,357676900.0,2235.0,17.0,0.68,14.083774,100.4201513,3.5300000000000002,0.013000000268220901,0.0,-0.06100000441074371,0.0,1.0,1668050458.890939
