TimeUS,GyrX,GyrY,GyrZ,AccX,AccY,AccZ,EG,EA,T,GH,AH,GHz,AHz,timestamp
221021089.0,0.0034458008594810963,-0.008264944888651371,-0.0006867788615636528,-0.4092181324958801,0.21877919137477875,-10.089155197143555,0.0,0.0,32.59892272949219,1.0,1.0,8010.0,4005.0,1668050393.34011
221078634.0,0.0007522462983615696,-0.0001135380007326603,-0.005172739736735821,0.15670602023601532,-0.2767151892185211,-9.935702323913574,0.0,0.0,32.60098648071289,1.0,1.0,8010.0,4005.0,1668050393.397655
221118673.0,2.581601802376099e-05,0.00029823806835338473,-0.004188751336187124,-0.0628865659236908,0.21340154111385345,-9.66126823425293,0.0,0.0,32.60236740112305,1.0,1.0,8010.0,4005.0,1668050393.437694
221159060.0,-0.0001865013618953526,0.007343693170696497,0.0006493818946182728,0.11730779707431793,-0.048442207276821136,-9.627242088317871,0.0,0.0,32.604148864746094,1.0,1.0,8010.0,4005.0,1668050393.478081
221198653.0,0.0007293666712939739,-0.002281968016177416,0.001947069657035172,0.29486703872680664,-0.0657409206032753,-9.856722831726074,0.0,0.0,32.605491638183594,1.0,1.0,8010.0,4005.0,1668050393.517674
221238644.0,0.0009298095246776938,-0.003949364647269249,-0.00017562901484780014,0.2034272700548172,0.2633935213088989,-9.893160820007324,0.0,0.0,32.6060791015625,1.0,1.0,8010.0,4005.0,1668050393.5576649
221279021.0,0.0023316906299442053,-0.0052997819148004055,0.0036187474615871906,0.045443370938301086,-0.2817220091819763,-10.007719039916992,0.0,0.0,32.60628128051758,1.0,1.0,8010.0,4005.0,1668050393.598042
221318858.0,0.0018763469997793436,-0.006472857668995857,-0.006020714994519949,-0.04854058846831322,0.18309208750724792,-9.847111701965332,0.0,0.0,32.606266021728516,1.0,1.0,8010.0,4005.0,1668050393.637879
221359040.0,0.0014321415219455957,-0.002183355623856187,-0.0034724571742117405,0.036988355219364166,0.03555084764957428,-9.574323654174805,0.0,0.0,32.60663604736328,1.0,1.0,8010.0,4005.0,1668050393.678061
221399144.0,0.0014811694854870439,0.0004076159093528986,-0.0028674378991127014,-0.1149936243891716,-0.17650482058525085,-9.792906761169434,0.0,0.0,32.6070442199707,1.0,1.0,8010.0,4005.0,1668050393.718165
221438626.0,0.000770475366152823,0.0033284518867731094,-0.004480232484638691,0.16599971055984497,0.11764763295650482,-9.893150329589844,0.0,0.0,32.60760498046875,1.0,1.0,8010.0,4005.0,1668050393.757647
221478465.0,-0.0001436323655070737,0.0004320417356211692,-1.8415830709272996e-05,0.20082348585128784,0.10816497355699539,-9.931755065917969,0.0,0.0,32.60854721069336,1.0,1.0,8010.0,4005.0,1668050393.797486
221518682.0,-0.0005402175011113286,0.0005845994455739856,0.004580932669341564,0.16350071132183075,-0.20956122875213623,-9.900920867919922,0.0,0.0,32.609981536865234,1.0,1.0,8010.0,4005.0,1668050393.837703
221559366.0,0.0022154301404953003,-0.003629801096394658,0.00022845284547656775,0.16542178392410278,0.1055116355419159,-9.70177936553955,0.0,0.0,32.611454010009766,1.0,1.0,8010.0,4005.0,1668050393.878387
221598610.0,0.001693688565865159,-0.004734973423182964,-0.0033068214543163776,0.043476544320583344,0.14993537962436676,-9.742685317993164,0.0,0.0,32.61336135864258,1.0,1.0,8010.0,4005.0,1668050393.917631
221638695.0,0.0011652359971776605,-0.00519711896777153,-0.0012674492318183184,-0.03186170384287834,-0.054315902292728424,-9.798760414123535,0.0,0.0,32.61513900756836,1.0,1.0,8010.0,4005.0,1668050393.957716
221678793.0,0.003727625822648406,-0.001725369947962463,-0.0030679660849273205,-0.03510873764753342,-0.09862903505563736,-9.93000602722168,0.0,0.0,32.61707305908203,1.0,1.0,8010.0,4005.0,1668050393.997814
221718677.0,0.0012375495862215757,0.0018090965459123254,-0.006366928108036518,0.129485085606575,0.020979275926947594,-9.946791648864746,0.0,0.0,32.61878967285156,1.0,1.0,8010.0,4005.0,1668050394.037698
221759205.0,-0.002966471016407013,0.002515179105103016,-0.003280001226812601,0.11055560410022736,0.15683041512966156,-9.745035171508789,0.0,0.0,32.620574951171875,1.0,1.0,8010.0,4005.0,1668050394.078226
221798682.0,0.00042777814087457955,0.0003675365587696433,0.0040720561519265175,0.13465547561645508,-0.04311107099056244,-9.74941635131836,0.0,0.0,32.621883392333984,1.0,1.0,8010.0,4005.0,1668050394.117703
221838704.0,0.005822836421430111,-0.0019092131406068802,0.003667678451165557,0.09342199563980103,-0.03946191072463989,-9.841772079467773,0.0,0.0,32.622920989990234,1.0,1.0,8010.0,4005.0,1668050394.157725
221878791.0,0.00208541308529675,-0.0036880529951304197,-0.0007602667901664972,0.2148125320672989,-0.09362209588289261,-9.785483360290527,0.0,0.0,32.622859954833984,1.0,1.0,8010.0,4005.0,1668050394.197812
221918713.0,-0.002733849687501788,-0.004878196865320206,-0.004201279953122139,-0.06513821333646774,0.1329037994146347,-10.025728225708008,0.0,0.0,32.622711181640625,1.0,1.0,8010.0,4005.0,1668050394.237734
221959530.0,0.0012636524625122547,-0.002747249323874712,-0.004167786333709955,0.08426133543252945,0.02544369548559189,-9.776189804077148,0.0,0.0,32.62215042114258,1.0,1.0,8010.0,4005.0,1668050394.278551
221999027.0,0.003971701487898827,0.0007180615793913603,-0.002729950472712517,-0.011050031520426273,-0.009988589212298393,-9.755256652832031,0.0,0.0,32.622344970703125,1.0,1.0,8010.0,4005.0,1668050394.318048
222038651.0,0.0026824611704796553,0.001960648922249675,-0.0006646359106525779,0.09492737054824829,0.00019830814562737942,-9.745708465576172,0.0,0.0,32.6224479675293,1.0,1.0,8010.0,4005.0,1668050394.357672
222079075.0,-0.0008535950328223407,0.0004823276540264487,-0.001003255951218307,0.19138462841510773,-0.09349070489406586,-9.853449821472168,0.0,0.0,32.622920989990234,1.0,1.0,8010.0,4005.0,1668050394.398096
222118767.0,-0.0018068128265440464,-0.0019356682896614075,-0.0019322417210787535,0.13972848653793335,0.08987735211849213,-9.919954299926758,0.0,0.0,32.622745513916016,1.0,1.0,8010.0,4005.0,1668050394.437788
222159311.0,0.002032762859016657,-0.00404319865629077,0.000931096903514117,0.07989531010389328,0.09492475539445877,-9.89379596710205,0.0,0.0,32.6224365234375,1.0,1.0,8010.0,4005.0,1668050394.478332
222198612.0,0.004074299242347479,-0.0030924503225833178,0.002619793638586998,-0.0019019003957509995,0.004542930983006954,-9.806406021118164,0.0,0.0,32.622283935546875,1.0,1.0,8010.0,4005.0,1668050394.517633
222238722.0,0.0028046893421560526,-0.00036849232856184244,-7.862973143346608e-05,0.018569108098745346,-0.08949754387140274,-9.729362487792969,0.0,0.0,32.62339782714844,1.0,1.0,8010.0,4005.0,1668050394.557743
222278905.0,0.0004139125521760434,0.0002415338676655665,-0.005350734572857618,0.04690631479024887,-0.050808779895305634,-9.851816177368164,0.0,0.0,32.62443542480469,1.0,1.0,8010.0,4005.0,1668050394.597926
222318705.0,-0.0015377295203506947,0.0002290206030011177,-0.007169483229517937,0.18998844921588898,0.047674570232629776,-9.80980396270752,0.0,0.0,32.62580871582031,1.0,1.0,8010.0,4005.0,1668050394.637726
222359225.0,-0.000761161558330059,-0.0006769887404516339,-0.003689872333779931,0.08952197432518005,0.1314440667629242,-9.924995422363281,0.0,0.0,32.627559661865234,1.0,1.0,8010.0,4005.0,1668050394.678246
222399092.0,0.002722226083278656,-0.0022568562999367714,0.0018236624309793115,0.07873640954494476,0.08205291628837585,-9.816584587097168,0.0,0.0,32.6286506652832,1.0,1.0,8010.0,4005.0,1668050394.718113
222438689.0,0.004676459822803736,-0.0023189112544059753,0.005738397128880024,0.0802091658115387,-0.08626367151737213,-9.809244155883789,0.0,0.0,32.62934112548828,1.0,1.0,8010.0,4005.0,1668050394.75771
222479010.0,0.002347232075408101,-0.0012589964317157865,0.004136846400797367,0.0339137502014637,-0.08761940151453018,-9.796806335449219,0.0,0.0,32.629913330078125,1.0,1.0,8010.0,4005.0,1668050394.798031
222518613.0,-0.0014489074237644672,-0.00168612040579319,-0.0017016228521242738,0.07522875815629959,-0.060368094593286514,-9.852615356445312,0.0,0.0,32.630367279052734,1.0,1.0,8010.0,4005.0,1668050394.837634
222559131.0,-0.0020053954795002937,-0.0004819524474442005,-0.007348150014877319,0.09132085740566254,0.06912310421466827,-9.846735000610352,0.0,0.0,32.630287170410156,1.0,1.0,8010.0,4005.0,1668050394.878152
222598701.0,0.0006203912780620158,-0.000683016492985189,-0.007873538881540298,0.09220205992460251,0.14443834125995636,-9.858895301818848,0.0,0.0,32.63100814819336,1.0,1.0,8010.0,4005.0,1668050394.917722
222638662.0,0.003420611610636115,-0.0017251241952180862,-0.0041549610905349255,0.11830366402864456,0.06699485331773758,-9.79049301147461,0.0,0.0,32.63188552856445,1.0,1.0,8010.0,4005.0,1668050394.957683
222678904.0,0.0046837907284498215,-0.002222562674432993,0.0008194358088076115,0.0825529545545578,-0.0598972886800766,-9.831745147705078,0.0,0.0,32.632720947265625,1.0,1.0,8010.0,4005.0,1668050394.997925
222718664.0,0.0024480053689330816,-0.0013117266353219748,0.004406617023050785,0.06267482042312622,-0.06733616441488266,-9.804250717163086,0.0,0.0,32.633506774902344,1.0,1.0,8010.0,4005.0,1668050395.037685
222759238.0,-0.0009996924782171845,-0.000774514744989574,0.00424908148124814,0.07291775196790695,-0.023983795195817947,-9.862528800964355,0.0,0.0,32.63380813598633,1.0,1.0,8010.0,4005.0,1668050395.078259
222798821.0,-0.0017847382696345448,-0.0005607862840406597,0.0007932048756629229,0.06090700998902321,0.06969034671783447,-9.833105087280273,0.0,0.0,32.63384246826172,1.0,1.0,8010.0,4005.0,1668050395.117842
222838750.0,0.0002240849134977907,-0.00035250786459073424,-0.003856559516862035,0.08460070192813873,0.08715645223855972,-9.79951000213623,0.0,0.0,32.633609771728516,1.0,1.0,8010.0,4005.0,1668050395.1577709
222878640.0,0.0031990380957722664,-0.0005538266850635409,-0.006738594267517328,0.10783681273460388,0.0098146116361022,-9.792956352233887,0.0,0.0,32.634037017822266,1.0,1.0,8010.0,4005.0,1668050395.197661
222918630.0,0.004041885491460562,-0.0009860191494226456,-0.006529726088047028,0.11483892798423767,-0.031461212784051895,-9.827235221862793,0.0,0.0,32.63429260253906,1.0,1.0,8010.0,4005.0,1668050395.2376509
222959661.0,0.0020090527832508087,-0.0024025174789130688,-0.003451394848525524,0.08887501806020737,-0.050697579979896545,-9.850830078125,0.0,0.0,32.63425827026367,1.0,1.0,8010.0,4005.0,1668050395.278682
222999017.0,-0.0004274704842828214,-0.002205382101237774,0.0007930645369924605,0.053466349840164185,0.01758747547864914,-9.863178253173828,0.0,0.0,32.634883880615234,1.0,1.0,8010.0,4005.0,1668050395.318038
223038638.0,-0.0006680283695459366,-0.0018665349343791604,0.003891986096277833,0.04956579953432083,0.055334486067295074,-9.82239055633545,0.0,0.0,32.635528564453125,1.0,1.0,8010.0,4005.0,1668050395.357659
223078664.0,0.001197591656818986,-0.0006404134910553694,0.0038044992834329605,0.050968319177627563,0.058284129947423935,-9.812064170837402,0.0,0.0,32.63591384887695,1.0,1.0,8010.0,4005.0,1668050395.397685
223118718.0,0.0028707098681479692,-0.0007250552298501134,0.0011443570256233215,0.08155738562345505,-0.01275137159973383,-9.828619003295898,0.0,0.0,32.63652801513672,1.0,1.0,8010.0,4005.0,1668050395.437739
223159353.0,0.002395074814558029,8.837888162815943e-05,-0.004011627286672592,0.12495528161525726,-0.059634655714035034,-9.812573432922363,0.0,0.0,32.637447357177734,1.0,1.0,8010.0,4005.0,1668050395.478374
223198787.0,0.001006636186502874,-0.0014467331347987056,-0.007143871858716011,0.1170663982629776,-0.008422551676630974,-9.838112831115723,0.0,0.0,32.63901138305664,1.0,1.0,8010.0,4005.0,1668050395.517808
223238679.0,-0.0005465048016048968,-0.0018930432852357626,-0.006354559678584337,0.08239474892616272,0.0458572581410408,-9.81828784942627,0.0,0.0,32.641109466552734,1.0,1.0,8010.0,4005.0,1668050395.5577
223278721.0,0.0006170193664729595,-0.003201204352080822,-0.0019156649941578507,0.07274521887302399,0.06159394979476929,-9.834041595458984,0.0,0.0,32.64278793334961,1.0,1.0,8010.0,4005.0,1668050395.597742
223318812.0,0.002358809346333146,-0.0014162863371893764,0.0027593583799898624,0.03296012803912163,0.040931496769189835,-9.819772720336914,0.0,0.0,32.64463806152344,1.0,1.0,8010.0,4005.0,1668050395.6378329
223359083.0,0.0024629065301269293,-0.0013067835243418813,0.004347573965787888,0.07801353186368942,-0.02793722413480282,-9.866294860839844,0.0,0.0,32.64597702026367,1.0,1.0,8010.0,4005.0,1668050395.678104
223398803.0,0.0015731570310890675,0.00012235849862918258,0.001915551139973104,0.07378867268562317,-0.056683074682950974,-9.819018363952637,0.0,0.0,32.647098541259766,1.0,1.0,8010.0,4005.0,1668050395.717824
223438657.0,0.00019632601470220834,-0.0004567662253975868,-0.0020248389337211847,0.11447502672672272,0.0033557757269591093,-9.812920570373535,0.0,0.0,32.64861297607422,1.0,1.0,8010.0,4005.0,1668050395.757678
223478985.0,-8.82417953107506e-05,-0.0008081811829470098,-0.005231141112744808,0.08821597695350647,0.04180002957582474,-9.79180908203125,0.0,0.0,32.6497917175293,1.0,1.0,8010.0,4005.0,1668050395.798006
223518838.0,0.0009699880029074848,-0.001468429109081626,-0.005488055292516947,0.09942372143268585,0.04447053372859955,-9.851906776428223,0.0,0.0,32.651058197021484,1.0,1.0,8010.0,4005.0,1668050395.837859
223559339.0,0.00273693585768342,-0.0021350360475480556,-0.003065110184252262,0.0506792813539505,0.010589119046926498,-9.819208145141602,0.0,0.0,32.65225601196289,1.0,1.0,8010.0,4005.0,1668050395.87836
223598712.0,0.0023475433699786663,-0.0015606636879965663,0.0002500968112144619,0.07281596213579178,-0.030745381489396095,-9.887593269348145,0.0,0.0,32.6531982421875,1.0,1.0,8010.0,4005.0,1668050395.917733
223638502.0,0.0010161796817556024,-0.0004219156689941883,0.00253266841173172,0.057129815220832825,0.00874115340411663,-9.804245948791504,0.0,0.0,32.654239654541016,1.0,1.0,8010.0,4005.0,1668050395.9575229
223678948.0,-0.00010336765262763947,-0.0010667749447748065,0.0018160950858145952,0.10529036819934845,-0.008753182366490364,-9.82022762298584,0.0,0.0,32.655487060546875,1.0,1.0,8010.0,4005.0,1668050395.997969
223718689.0,1.329200040345313e-05,-0.00028037186712026596,-0.0005494891665875912,0.0851031094789505,0.038628410547971725,-9.794328689575195,0.0,0.0,32.65702819824219,1.0,1.0,8010.0,4005.0,1668050396.03771
223759022.0,0.001248925575055182,-0.0008560403948649764,-0.0031719661783427,0.10958594083786011,0.018041616305708885,-9.824270248413086,0.0,0.0,32.658973693847656,1.0,1.0,8010.0,4005.0,1668050396.078043
223798693.0,0.002158813178539276,-0.0017760193441063166,-0.004797523375600576,0.0823063850402832,0.028028050437569618,-9.827430725097656,0.0,0.0,32.66024398803711,1.0,1.0,8010.0,4005.0,1668050396.117714
223838714.0,0.0018657060572877526,-0.00187843875028193,-0.00464618019759655,0.08276714384555817,-0.007666675373911858,-9.892926216125488,0.0,0.0,32.66089630126953,1.0,1.0,8010.0,4005.0,1668050396.1577349
223878885.0,0.001142734894528985,-0.0013782854657620192,-0.0023979737889021635,0.049618467688560486,-0.004956527147442102,-9.808284759521484,0.0,0.0,32.66119384765625,1.0,1.0,8010.0,4005.0,1668050396.197906
223918805.0,0.0007658096728846431,-0.0009294886258430779,0.000572428572922945,0.07397034764289856,0.026257332414388657,-9.8111572265625,0.0,0.0,32.660125732421875,1.0,1.0,8010.0,4005.0,1668050396.2378259
223959339.0,0.0009195490274578333,-0.00042472651693969965,0.0023066920693963766,0.07265183329582214,0.02643645368516445,-9.800339698791504,0.0,0.0,32.659446716308594,1.0,1.0,8010.0,4005.0,1668050396.27836
223998828.0,0.0018028791528195143,-0.0006346630398184061,0.0018096845597028732,0.09873160719871521,0.0038451470900326967,-9.824932098388672,0.0,0.0,32.65904998779297,1.0,1.0,8010.0,4005.0,1668050396.317849
224038754.0,0.0020221048034727573,-0.0010444415966048837,-0.0005492401542142034,0.08353295922279358,-0.024986479431390762,-9.84921646118164,0.0,0.0,32.659576416015625,1.0,1.0,8010.0,4005.0,1668050396.357775
224078985.0,0.0011950419284403324,-0.0008049804018810391,-0.003858271986246109,0.08806698024272919,0.004767586477100849,-9.857016563415527,0.0,0.0,32.65933609008789,1.0,1.0,8010.0,4005.0,1668050396.398006
224118653.0,0.0009197468752972782,-0.0012888133060187101,-0.005146666429936886,0.06287187337875366,0.010936553589999676,-9.825069427490234,0.0,0.0,32.659820556640625,1.0,1.0,8010.0,4005.0,1668050396.437674
224159296.0,0.0005321303033269942,-0.0007777508581057191,-0.004085003398358822,0.0792165994644165,0.023645661771297455,-9.808465003967285,0.0,0.0,32.65966033935547,1.0,1.0,8010.0,4005.0,1668050396.478317
224198690.0,0.0011354184243828058,-0.0006747808074578643,-0.001173226861283183,0.08054443448781967,0.03900863975286484,-9.839970588684082,0.0,0.0,32.660648345947266,1.0,1.0,8010.0,4005.0,1668050396.517711
224238684.0,0.0010055199963971972,-0.0006123129278421402,0.001415885053575039,0.08909929543733597,-0.007429365999996662,-9.831117630004883,0.0,0.0,32.66246032714844,1.0,1.0,8010.0,4005.0,1668050396.557705
224278982.0,0.0014379563508555293,-0.0013898259494453669,0.0017115805530920625,0.09368246793746948,0.0026881746016442776,-9.856706619262695,0.0,0.0,32.6640510559082,1.0,1.0,8010.0,4005.0,1668050396.598003
224318473.0,0.0009063658653758466,-0.0007075962494127452,0.0001499937498010695,0.06385426223278046,-0.006136282812803984,-9.813287734985352,0.0,0.0,32.66547393798828,1.0,1.0,8010.0,4005.0,1668050396.637494
224359350.0,0.0008332961006090045,-0.0016069505363702774,-0.0021749422885477543,0.08504781126976013,0.005176710896193981,-9.815970420837402,0.0,0.0,32.666656494140625,1.0,1.0,8010.0,4005.0,1668050396.678371
227198784.0,-0.0015213268343359232,-0.0027554789558053017,0.005536568351089954,0.3206585645675659,-0.01533636823296547,-9.831940650939941,0.0,0.0,32.71308898925781,1.0,1.0,8010.0,4005.0,1668050399.517805
227238627.0,0.00014857554924674332,0.001977158710360527,0.011471481062471867,0.06804914772510529,0.19348075985908508,-9.666091918945312,0.0,0.0,32.71312713623047,1.0,1.0,8010.0,4005.0,1668050399.557648
227290441.0,0.0035746898502111435,-0.0028985142707824707,0.005786089226603508,0.1815212070941925,-0.09902921319007874,-9.86540699005127,0.0,0.0,32.712791442871094,1.0,1.0,8010.0,4005.0,1668050399.609462
227330586.0,0.006132534705102444,-0.003044056473299861,-0.004880618304014206,0.012973633594810963,-0.1557283252477646,-9.951972961425781,0.0,0.0,32.71282196044922,1.0,1.0,8010.0,4005.0,1668050399.649607
227371352.0,0.0032883239910006523,-0.0016907211393117905,-0.014786643907427788,0.1441192626953125,-0.057866886258125305,-9.82432746887207,0.0,0.0,32.712825775146484,1.0,1.0,8010.0,4005.0,1668050399.690373
227410654.0,0.002440208336338401,-0.0028744477313011885,-0.013391653075814247,-0.05025066062808037,0.05387679487466812,-9.879314422607422,0.0,0.0,32.713470458984375,1.0,1.0,8010.0,4005.0,1668050399.729675
227450540.0,0.0016188631998375058,-0.0031042308546602726,-0.006540221162140369,0.13289132714271545,0.02942882664501667,-9.803268432617188,0.0,0.0,32.71429443359375,1.0,1.0,8010.0,4005.0,1668050399.769561
227490570.0,0.000904844724573195,0.0024596531875431538,0.004445701837539673,-0.05882862210273743,-0.013667402788996696,-9.830180168151855,0.0,0.0,32.715736389160156,1.0,1.0,8010.0,4005.0,1668050399.809591
227530668.0,0.0026735838036984205,-0.00022233786876313388,0.010642319917678833,0.06805554032325745,0.05509022995829582,-9.83820915222168,0.0,0.0,32.717864990234375,1.0,1.0,8010.0,4005.0,1668050399.849689
227571628.0,0.003081934992223978,-0.0001382897316943854,0.008864112198352814,0.10782033205032349,-0.06383110582828522,-9.901719093322754,0.0,0.0,32.7202262878418,1.0,1.0,8010.0,4005.0,1668050399.890649
227610710.0,0.0027143587358295918,-0.0020602289587259293,0.0015038495184853673,0.13903646171092987,-0.014299933798611164,-9.836471557617188,0.0,0.0,32.722347259521484,1.0,1.0,8010.0,4005.0,1668050399.929731
227650528.0,0.00106578110717237,-0.0017939377576112747,-0.008787325583398342,0.1270100176334381,0.002213419647887349,-9.645389556884766,0.0,0.0,32.72386169433594,1.0,1.0,8010.0,4005.0,1668050399.969549
227690646.0,0.0010642120614647865,-0.00227510672993958,-0.0117245027795434,-0.031565308570861816,0.05471756309270859,-9.931136131286621,0.0,0.0,32.72499465942383,1.0,1.0,8010.0,4005.0,1668050400.009667
227730660.0,0.0017360671190544963,-0.0017296166624873877,-0.010095215402543545,0.14447319507598877,0.08520795404911041,-9.883320808410645,0.0,0.0,32.725685119628906,1.0,1.0,8010.0,4005.0,1668050400.049681
227771199.0,0.002814778359606862,-0.0028356716502457857,-0.0024844740983098745,0.03427477180957794,-0.020794473588466644,-9.76327133178711,0.0,0.0,32.72643280029297,1.0,1.0,8010.0,4005.0,1668050400.09022
227810525.0,0.002706259023398161,-0.00014815706526860595,0.006911470089107752,0.03016829490661621,0.009901465848088264,-9.835104942321777,0.0,0.0,32.727378845214844,1.0,1.0,8010.0,4005.0,1668050400.129546
227850493.0,0.000446746707893908,-0.0005043784622102976,0.007802681997418404,0.16358770430088043,0.0038680704310536385,-9.848312377929688,0.0,0.0,32.728424072265625,1.0,1.0,8010.0,4005.0,1668050400.169514
227890912.0,0.00010697042307583615,-0.0006454073591157794,0.005720934830605984,0.03391683101654053,-0.06289111077785492,-9.872583389282227,0.0,0.0,32.72930908203125,1.0,1.0,8010.0,4005.0,1668050400.209933
227930736.0,0.0010630199685692787,-0.002486430574208498,-0.002734861569479108,0.14606770873069763,0.046566903591156006,-9.76596450805664,0.0,0.0,32.72941589355469,1.0,1.0,8010.0,4005.0,1668050400.249757
227971350.0,0.0021336786448955536,-0.001004642341285944,-0.008382091298699379,0.03194780275225639,0.13007871806621552,-9.80842399597168,0.0,0.0,32.730133056640625,1.0,1.0,8010.0,4005.0,1668050400.290371
228010497.0,0.00296934787184,-0.002442467724904418,-0.009246306493878365,0.0642855316400528,-0.14241737127304077,-9.879005432128906,0.0,0.0,32.73139190673828,1.0,1.0,8010.0,4005.0,1668050400.329518
228050486.0,0.002688838867470622,-0.0022625464480370283,-0.007198951672762632,0.10234279930591583,0.059795863926410675,-9.768850326538086,0.0,0.0,32.73331069946289,1.0,1.0,8010.0,4005.0,1668050400.369507
228090687.0,0.0011370980646461248,-0.00017248860967811197,0.0006171239074319601,0.04404313862323761,0.07736992835998535,-9.881242752075195,0.0,0.0,32.73473358154297,1.0,1.0,8010.0,4005.0,1668050400.409708
228130607.0,0.00010851251136045903,-0.0013701594434678555,0.005629679653793573,0.05652696639299393,-0.03757509961724281,-9.83718490600586,0.0,0.0,32.735416412353516,1.0,1.0,8010.0,4005.0,1668050400.4496279
228170988.0,9.296215284848586e-05,-0.0009780065156519413,0.006271273363381624,0.1292177438735962,-0.014816716313362122,-9.80963134765625,0.0,0.0,32.73586654663086,1.0,1.0,8010.0,4005.0,1668050400.490009
228210591.0,0.0018399290274828672,-0.00036518165143206716,0.00244045234285295,0.08137628436088562,0.04983219876885414,-9.783012390136719,0.0,0.0,32.736358642578125,1.0,1.0,8010.0,4005.0,1668050400.529612
228250659.0,0.0027057502884417772,-0.0011395295150578022,-0.0036842310801148415,0.10737436264753342,-0.012650460936129093,-9.838892936706543,0.0,0.0,32.73689651489258,1.0,1.0,8010.0,4005.0,1668050400.56968
228290631.0,0.002182513941079378,-0.0032477478962391615,-0.008508380502462387,0.1099863275885582,-0.03026777133345604,-9.835037231445312,0.0,0.0,32.738197326660156,1.0,1.0,8010.0,4005.0,1668050400.609652
228330740.0,0.0016311086947098374,-0.0013604899868369102,-0.008300377987325191,0.03787679970264435,-0.004958846606314182,-9.853981018066406,0.0,0.0,32.73945999145508,1.0,1.0,8010.0,4005.0,1668050400.649761
228371233.0,0.0013169641606509686,-0.0024315330665558577,-0.0041700503788888454,0.08303434401750565,0.04918965324759483,-9.798442840576172,0.0,0.0,32.74088668823242,1.0,1.0,8010.0,4005.0,1668050400.690254
228410655.0,0.000906901725102216,-0.00048324940144084394,0.001814643619582057,0.03333257883787155,0.031353216618299484,-9.832121849060059,0.0,0.0,32.7421760559082,1.0,1.0,8010.0,4005.0,1668050400.729676
228450609.0,0.0017297962913289666,-0.0004028210532851517,0.0052705006673932076,0.11622001230716705,0.022343408316373825,-9.795064926147461,0.0,0.0,32.74258804321289,1.0,1.0,8010.0,4005.0,1668050400.76963
228490626.0,0.0011821649968624115,0.00034399921423755586,0.005076606757938862,0.07435156404972076,0.02967473492026329,-9.824249267578125,0.0,0.0,32.743682861328125,1.0,1.0,8010.0,4005.0,1668050400.809647
228530564.0,0.0013136619236320257,-0.0016166461864486337,0.0003530019603203982,0.11960556358098984,-0.08964018523693085,-9.860956192016602,0.0,0.0,32.74465560913086,1.0,1.0,8010.0,4005.0,1668050400.849585
228571303.0,0.00034014496486634016,-0.0015671439468860626,-0.006228509824723005,0.10897526144981384,0.045864712446928024,-9.818831443786621,0.0,0.0,32.74504089355469,1.0,1.0,8010.0,4005.0,1668050400.8903239
228610801.0,0.0008572155493311584,-0.002412569709122181,-0.007924113422632217,0.08337480574846268,0.07265648245811462,-9.808623313903809,0.0,0.0,32.74491882324219,1.0,1.0,8010.0,4005.0,1668050400.929822
228650697.0,0.0019528218545019627,-0.0019136685878038406,-0.0058658127672970295,-0.001975688152015209,-0.025122931227087975,-9.847030639648438,0.0,0.0,32.74554443359375,1.0,1.0,8010.0,4005.0,1668050400.969718
228690718.0,0.001544757280498743,-0.0011437159264460206,-0.0015461293514817953,0.1255122423171997,-0.0026760331820696592,-9.798575401306152,0.0,0.0,32.74544906616211,1.0,1.0,8010.0,4005.0,1668050401.009739
228730483.0,0.001289699343033135,-0.0008607628406025469,0.0023482386022806168,0.0647273063659668,0.040953390300273895,-9.836499214172363,0.0,0.0,32.74574661254883,1.0,1.0,8010.0,4005.0,1668050401.049504
228771286.0,0.0007058409391902387,-0.0005377897759899497,0.004947979934513569,0.09312717616558075,0.0030009252950549126,-9.840306282043457,0.0,0.0,32.745849609375,1.0,1.0,8010.0,4005.0,1668050401.090307
228810655.0,0.001007064594887197,0.00010359036241425201,0.0019661346450448036,0.08805826306343079,-0.03410516679286957,-9.798354148864746,0.0,0.0,32.74591064453125,1.0,1.0,8010.0,4005.0,1668050401.129676
228850622.0,0.001177700236439705,-0.0023335986770689487,-0.0027001064736396074,0.10603395104408264,0.01837250590324402,-9.849817276000977,0.0,0.0,32.74576950073242,1.0,1.0,8010.0,4005.0,1668050401.169643
228890493.0,0.0010858778841793537,-0.0014665205962955952,-0.005837399512529373,0.07908200472593307,0.02283450961112976,-9.79861068725586,0.0,0.0,32.74530029296875,1.0,1.0,8010.0,4005.0,1668050401.209514
228930516.0,0.0019385358318686485,-0.0024357151705771685,-0.006399644073098898,0.08096705377101898,0.011732068844139576,-9.825902938842773,0.0,0.0,32.744911193847656,1.0,1.0,8010.0,4005.0,1668050401.249537
228971549.0,0.002044107299298048,-0.0011365007376298308,-0.0037175090983510017,0.05020848289132118,-0.008711658418178558,-9.8341064453125,0.0,0.0,32.74513244628906,1.0,1.0,8010.0,4005.0,1668050401.29057
229010666.0,0.0003672705788630992,-0.00048487901221960783,-0.00026753952261060476,0.0647164136171341,-0.013535884208977222,-9.850444793701172,0.0,0.0,32.74524688720703,1.0,1.0,8010.0,4005.0,1668050401.3296869
229050767.0,-0.00017263376503251493,-0.0006224451353773475,0.0029631536453962326,0.07875733822584152,0.016777263954281807,-9.806602478027344,0.0,0.0,32.74543380737305,1.0,1.0,8010.0,4005.0,1668050401.369788
229090568.0,0.0002640367019921541,-0.001351892133243382,0.0031675591599196196,0.0997776985168457,0.05199205130338669,-9.860629081726074,0.0,0.0,32.74632263183594,1.0,1.0,8010.0,4005.0,1668050401.409589
229130568.0,0.0011240101885050535,-0.0009257663041353226,0.0005493862554430962,0.09009930491447449,-0.02271469496190548,-9.782440185546875,0.0,0.0,32.74767303466797,1.0,1.0,8010.0,4005.0,1668050401.449589
229171374.0,0.002337876707315445,-0.0018004789017140865,-0.0034056194126605988,0.10194793343544006,0.006873768288642168,-9.845565795898438,0.0,0.0,32.74942398071289,1.0,1.0,8010.0,4005.0,1668050401.490395
229210746.0,0.0014166388427838683,-0.0016128845745697618,-0.005532047711312771,0.05643431097269058,0.016208475455641747,-9.825916290283203,0.0,0.0,32.75096893310547,1.0,1.0,8010.0,4005.0,1668050401.529767
229250633.0,0.0013011686969548464,-0.0008583368617109954,-0.00586428539827466,0.07747487723827362,-0.012871300801634789,-9.853867530822754,0.0,0.0,32.75260925292969,1.0,1.0,8010.0,4005.0,1668050401.569654
229290498.0,0.0008362500811927021,-0.0012140119215473533,-0.0026625252794474363,0.07602813094854355,0.0467265285551548,-9.809673309326172,0.0,0.0,32.75423812866211,1.0,1.0,8010.0,4005.0,1668050401.609519
229330694.0,0.0006140393670648336,-0.0007101131486706436,0.0010577829089015722,0.07652149349451065,0.03919028490781784,-9.833016395568848,0.0,0.0,32.7557487487793,1.0,1.0,8010.0,4005.0,1668050401.649715
229371298.0,0.001309283310547471,-0.001046508550643921,0.0031110753770917654,0.08960264176130295,-0.007533172145485878,-9.816936492919922,0.0,0.0,32.756954193115234,1.0,1.0,8010.0,4005.0,1668050401.690319
229410727.0,0.0013847190421074629,-0.0006723235128447413,0.0021344933193176985,0.10425017774105072,-0.023128697648644447,-9.827061653137207,0.0,0.0,32.75785446166992,1.0,1.0,8010.0,4005.0,1668050401.729748
229450698.0,0.0010382367763668299,-0.0011990867787972093,-0.0007405104697681963,0.07994265854358673,0.008327178657054901,-9.826797485351562,0.0,0.0,32.7586555480957,1.0,1.0,8010.0,4005.0,1668050401.769719
229490453.0,0.001362125389277935,-0.0012514223344624043,-0.004299661610275507,0.08794011920690536,-0.01078876294195652,-9.848207473754883,0.0,0.0,32.75926208496094,1.0,1.0,8010.0,4005.0,1668050401.809474
229530629.0,0.001103533897548914,-0.0020072420593351126,-0.0055278390645980835,0.07240843772888184,0.019696246832609177,-9.83702564239502,0.0,0.0,32.760135650634766,1.0,1.0,8010.0,4005.0,1668050401.84965
229571334.0,0.0012493300018832088,-0.0008306275121867657,-0.00391228636726737,0.08177580684423447,0.03651588037610054,-9.815652847290039,0.0,0.0,32.76106643676758,1.0,1.0,8010.0,4005.0,1668050401.8903549
229610575.0,0.0012954320991411805,-0.0012973863631486893,-0.0009502787725068629,0.07232579588890076,0.011044792830944061,-9.833464622497559,0.0,0.0,32.76232147216797,1.0,1.0,8010.0,4005.0,1668050401.929596
229650510.0,0.0010387834627181292,-0.0009030518122017384,0.0016365767223760486,0.07430246472358704,0.0011598317651078105,-9.80182933807373,0.0,0.0,32.76309585571289,1.0,1.0,8010.0,4005.0,1668050401.969531
229690583.0,0.0016258241375908256,-0.0014607004122808576,0.0021664819214493036,0.10009638965129852,-0.0018632402643561363,-9.854116439819336,0.0,0.0,32.763675689697266,1.0,1.0,8010.0,4005.0,1668050402.009604
229730660.0,0.0007409359677694738,-0.0009744783747009933,0.0006911150412634015,0.06152490898966789,0.0017801191424950957,-9.815343856811523,0.0,0.0,32.764163970947266,1.0,1.0,8010.0,4005.0,1668050402.049681
229771260.0,0.001307095168158412,-0.002090123016387224,-0.0025164769031107426,0.08634746074676514,0.0036257447209209204,-9.83515453338623,0.0,0.0,32.76521682739258,1.0,1.0,8010.0,4005.0,1668050402.090281
229810564.0,0.0017962015699595213,-0.001268846564926207,-0.00467168353497982,0.057558298110961914,0.024059824645519257,-9.80478286743164,0.0,0.0,32.76630401611328,1.0,1.0,8010.0,4005.0,1668050402.129585
229850448.0,0.0017387691186740994,-0.0013094648020341992,-0.004565246403217316,0.10191993415355682,0.009845728054642677,-9.8538818359375,0.0,0.0,32.766746520996094,1.0,1.0,8010.0,4005.0,1668050402.1694689
229890640.0,0.0010577294742688537,-0.0011201738379895687,-0.002453136257827282,0.06608684360980988,0.000166910162079148,-9.814214706420898,0.0,0.0,32.76675033569336,1.0,1.0,8010.0,4005.0,1668050402.209661
229930643.0,0.0012299465015530586,-0.001599035458639264,0.00021277515043038875,0.10437774658203125,0.008261879906058311,-9.85826587677002,0.0,0.0,32.76670455932617,1.0,1.0,8010.0,4005.0,1668050402.249664
229971415.0,0.0006891587399877608,-0.0006342150154523551,0.001848268206231296,0.055882878601551056,0.003347625257447362,-9.803627014160156,0.0,0.0,32.7667350769043,1.0,1.0,8010.0,4005.0,1668050402.290436
230010484.0,0.0005328436382114887,-0.001629965496249497,0.0012245505349710584,0.10631509125232697,-0.008144313469529152,-9.833272933959961,0.0,0.0,32.766117095947266,1.0,1.0,8010.0,4005.0,1668050402.329505
230050726.0,0.000808985554613173,-0.001287825871258974,-0.0010024270741268992,0.05822082608938217,0.022237999364733696,-9.80959415435791,0.0,0.0,32.76555252075195,1.0,1.0,8010.0,4005.0,1668050402.369747
230090849.0,0.0009383071446791291,-0.0014331159181892872,-0.003427850781008601,0.12250713258981705,0.007747956085950136,-9.845008850097656,0.0,0.0,32.765926361083984,1.0,1.0,8010.0,4005.0,1668050402.40987
233051195.0,0.0032699641305953264,0.0021979345474392176,-0.0036655887961387634,-0.22605650126934052,0.05548962950706482,-9.97270679473877,0.0,0.0,32.817569732666016,1.0,1.0,8010.0,4005.0,1668050405.370216
233104160.0,0.001061676419340074,-0.0011892961338162422,0.0004121701349504292,0.6604766845703125,0.4132021367549896,-9.925308227539062,0.0,0.0,32.81915283203125,1.0,1.0,8010.0,4005.0,1668050405.423181
233143993.0,0.0034069810062646866,0.002658227691426873,0.0073819393292069435,-0.3677637577056885,-0.2629913091659546,-9.759903907775879,0.0,0.0,32.8203239440918,1.0,1.0,8010.0,4005.0,1668050405.463014
233184478.0,7.696782995481044e-05,-0.0030187000520527363,-0.003683610586449504,0.5929950475692749,0.3756924271583557,-9.806405067443848,0.0,0.0,32.82160186767578,1.0,1.0,8010.0,4005.0,1668050405.503499
233224031.0,0.0025056106969714165,-0.0001782080071279779,0.0013844366185367107,-0.31098639965057373,-0.21641294658184052,-9.747037887573242,0.0,0.0,32.82326889038086,1.0,1.0,8010.0,4005.0,1668050405.543052
233264451.0,0.0011445798445492983,-0.0040518795140087605,-0.007078106515109539,0.5820579528808594,0.39951401948928833,-9.941777229309082,0.0,0.0,32.82506561279297,1.0,1.0,8010.0,4005.0,1668050405.583472
233304028.0,0.002287506591528654,0.0003067178186029196,-0.004587502684444189,-0.4084235429763794,-0.14094854891300201,-9.905378341674805,0.0,0.0,32.826114654541016,1.0,1.0,8010.0,4005.0,1668050405.623049
233344109.0,0.003036808455362916,-0.003963937051594257,-0.00023441931989509612,0.4914413094520569,-0.075895756483078,-9.803173065185547,0.0,0.0,32.826904296875,1.0,1.0,8010.0,4005.0,1668050405.66313
233385077.0,0.0019982699304819107,0.003085165284574032,-0.00399883883073926,-0.15760311484336853,0.478212833404541,-9.66866397857666,0.0,0.0,32.827369689941406,1.0,1.0,8010.0,4005.0,1668050405.704098
233424033.0,0.0011532685020938516,-0.001019749790430069,0.002829557517543435,-0.3765801787376404,-0.4614090919494629,-9.855703353881836,0.0,0.0,32.828102111816406,1.0,1.0,8010.0,4005.0,1668050405.743054
233464476.0,0.0011173279490321875,0.002337222220376134,0.008512960746884346,0.7750165462493896,0.28356680274009705,-9.675155639648438,0.0,0.0,32.828792572021484,1.0,1.0,8010.0,4005.0,1668050405.783497
233504381.0,-0.0001554483169456944,-0.002148635219782591,-0.00931874755769968,-0.44901102781295776,-0.0631379783153534,-9.977072715759277,0.0,0.0,32.829750061035156,1.0,1.0,8010.0,4005.0,1668050405.823402
233544083.0,0.0038813173305243254,-0.003074664855375886,0.004089321009814739,0.49880945682525635,-0.2505199611186981,-9.866769790649414,0.0,0.0,32.82977294921875,1.0,1.0,8010.0,4005.0,1668050405.863104
233584617.0,0.0011051748879253864,-0.001947065000422299,-0.004103320650756359,0.15445217490196228,0.5513886213302612,-9.752091407775879,0.0,0.0,32.829715728759766,1.0,1.0,8010.0,4005.0,1668050405.903638
233624111.0,0.0009303750703111291,0.0006820486159995198,-0.011039236560463905,-0.46421128511428833,-0.44518542289733887,-9.958242416381836,0.0,0.0,32.82981491088867,1.0,1.0,8010.0,4005.0,1668050405.943132
233664008.0,0.006300965324044228,-0.0026753791607916355,0.0074439626187086105,0.48916274309158325,0.07138530164957047,-9.805413246154785,0.0,0.0,32.8300666809082,1.0,1.0,8010.0,4005.0,1668050405.983029
233704041.0,-0.003777911188080907,-9.300242527388036e-05,-0.003067414741963148,0.11616440117359161,0.3331871032714844,-9.79721736907959,0.0,0.0,32.829986572265625,1.0,1.0,8010.0,4005.0,1668050406.023062
233744120.0,0.0005309440894052386,0.000325275759678334,-0.006384814623743296,-0.32202237844467163,-0.33445727825164795,-9.898079872131348,0.0,0.0,32.82990264892578,1.0,1.0,8010.0,4005.0,1668050406.0631409
233784422.0,0.008822368457913399,-0.00445166788995266,0.011725717224180698,0.4798886179924011,0.13213598728179932,-9.852365493774414,0.0,0.0,32.83071517944336,1.0,1.0,8010.0,4005.0,1668050406.103443
233824146.0,-0.005006854888051748,0.003924140240997076,-0.0019380610901862383,0.08524230122566223,0.09403487294912338,-9.750873565673828,0.0,0.0,32.83186340332031,1.0,1.0,8010.0,4005.0,1668050406.143167
233864328.0,0.0006301212124526501,-0.004905128851532936,-0.007659463211894035,-0.19551482796669006,-0.1022164523601532,-9.910635948181152,0.0,0.0,32.832950592041016,1.0,1.0,8010.0,4005.0,1668050406.183349
233903960.0,0.008278591558337212,-0.003130059689283371,-0.0016670572804287076,0.2657911479473114,0.007282689213752747,-9.841930389404297,0.0,0.0,32.83475875854492,1.0,1.0,8010.0,4005.0,1668050406.222981
233943996.0,-0.002692131558433175,0.0028737483080476522,-0.0002491405757609755,-0.013614585623145103,-0.12215761840343475,-9.742912292480469,0.0,0.0,32.836429595947266,1.0,1.0,8010.0,4005.0,1668050406.263017
233984877.0,-0.0018203089712187648,-0.000933138479012996,-0.0013807782670482993,0.20849114656448364,0.1917036473751068,-9.834200859069824,0.0,0.0,32.83729553222656,1.0,1.0,8010.0,4005.0,1668050406.303898
234024023.0,0.004392256028950214,-0.004002924542874098,-0.006534357089549303,-0.029330622404813766,-0.03594308719038963,-9.830832481384277,0.0,0.0,32.83842468261719,1.0,1.0,8010.0,4005.0,1668050406.343044
234064413.0,0.0030413034837692976,0.000899036880582571,0.001445538247935474,0.03228763863444328,-0.08243007212877274,-9.80439567565918,0.0,0.0,32.8398323059082,1.0,1.0,8010.0,4005.0,1668050406.383434
234104113.0,0.0006979774334467947,0.0011091677006334066,0.00871378742158413,0.23071697354316711,0.018471941351890564,-9.845149993896484,0.0,0.0,32.8409538269043,1.0,1.0,8010.0,4005.0,1668050406.423134
234144116.0,-0.0026887287385761738,-0.003114430233836174,-0.0031704274006187916,0.10857652872800827,-0.06573882699012756,-9.793020248413086,0.0,0.0,32.84175491333008,1.0,1.0,8010.0,4005.0,1668050406.463137
234184658.0,0.0013414295390248299,-0.003067090641707182,-0.007819429971277714,0.04473474621772766,0.21728329360485077,-9.815777778625488,0.0,0.0,32.84226989746094,1.0,1.0,8010.0,4005.0,1668050406.503679
234224033.0,0.006617467384785414,-0.0014776691095903516,-0.005153179168701172,-0.060000866651535034,0.02179989218711853,-9.881016731262207,0.0,0.0,32.842857360839844,1.0,1.0,8010.0,4005.0,1668050406.543054
234264418.0,0.0015425349120050669,0.0001581832766532898,0.0024420516565442085,0.1531129777431488,-0.20094870030879974,-9.810717582702637,0.0,0.0,32.844032287597656,1.0,1.0,8010.0,4005.0,1668050406.5834389
234304111.0,-0.002298538340255618,0.00015653084847144783,0.003402702510356903,0.19287610054016113,0.07832464575767517,-9.800215721130371,0.0,0.0,32.8449821472168,1.0,1.0,8010.0,4005.0,1668050406.623132
234344011.0,4.1458963096374646e-05,-0.0017548883333802223,-0.0021710435394197702,0.0871271938085556,0.014749346300959587,-9.860803604125977,0.0,0.0,32.84654998779297,1.0,1.0,8010.0,4005.0,1668050406.663032
234384839.0,0.003553439397364855,-0.003375433385372162,-0.0034719870891422033,0.050556670874357224,0.07674619555473328,-9.810742378234863,0.0,0.0,32.84819412231445,1.0,1.0,8010.0,4005.0,1668050406.70386
234424120.0,0.004994524642825127,-0.0005531999049708247,-0.00232351734302938,0.01380346529185772,-0.03935883194208145,-9.826419830322266,0.0,0.0,32.849571228027344,1.0,1.0,8010.0,4005.0,1668050406.743141
234464468.0,0.0018790627364069223,0.0010450726840645075,0.0016542532248422503,0.09942000359296799,-0.09670080244541168,-9.828169822692871,0.0,0.0,32.850791931152344,1.0,1.0,8010.0,4005.0,1668050406.783489
234504452.0,-0.0026763207279145718,0.0005650299717672169,0.002705767285078764,0.17282605171203613,0.028585415333509445,-9.81941032409668,0.0,0.0,32.85151672363281,1.0,1.0,8010.0,4005.0,1668050406.823473
234544064.0,-0.0010313712991774082,-0.001888089464046061,-0.0025249249301850796,0.08128060400485992,0.09218420088291168,-9.807190895080566,0.0,0.0,32.85223388671875,1.0,1.0,8010.0,4005.0,1668050406.863085
234584696.0,0.003237880067899823,-0.003156317863613367,-0.006554079242050648,0.07977432012557983,0.13992200791835785,-9.859929084777832,0.0,0.0,32.852134704589844,1.0,1.0,8010.0,4005.0,1668050406.903717
234624057.0,0.004237070679664612,-0.0012092713732272387,-0.005832239519804716,-0.011050986126065254,-0.01863027736544609,-9.807415008544922,0.0,0.0,32.852134704589844,1.0,1.0,8010.0,4005.0,1668050406.943078
234664365.0,0.004645221866667271,-0.0004435857408680022,-0.000341827399097383,0.008147871121764183,-0.1353786587715149,-9.863283157348633,0.0,0.0,32.8523063659668,1.0,1.0,8010.0,4005.0,1668050406.983386
234704034.0,-0.0003029135405085981,0.0008921322296373546,0.004098685923963785,0.13312944769859314,-0.06516166031360626,-9.832191467285156,0.0,0.0,32.85211944580078,1.0,1.0,8010.0,4005.0,1668050407.023055
234743977.0,-0.004668820183724165,0.001210483256727457,0.005072500556707382,0.11842382699251175,0.04257247596979141,-9.827699661254883,0.0,0.0,32.85289001464844,1.0,1.0,8010.0,4005.0,1668050407.062998
234784705.0,-0.0014850028092041612,-0.002435581525787711,0.0020135235972702503,0.1485111266374588,0.15952332317829132,-9.783843040466309,0.0,0.0,32.853694915771484,1.0,1.0,8010.0,4005.0,1668050407.103726
234824130.0,0.0037874893750995398,-0.003279043361544609,-0.005218953359872103,0.08712819218635559,0.045732494443655014,-9.860369682312012,0.0,0.0,32.854373931884766,1.0,1.0,8010.0,4005.0,1668050407.143151
234864088.0,0.006438991520553827,-0.003518887795507908,-0.008986041881144047,0.013107105158269405,-0.013745982199907303,-9.824932098388672,0.0,0.0,32.855796813964844,1.0,1.0,8010.0,4005.0,1668050407.183109
234904032.0,0.00486660236492753,-0.002091336529701948,-0.00782298669219017,0.017514584586024284,-0.09699251502752304,-9.853885650634766,0.0,0.0,32.857147216796875,1.0,1.0,8010.0,4005.0,1668050407.223053
234943993.0,-0.0018574700225144625,0.0007908140541985631,-0.001838770927861333,0.041511088609695435,-0.08020301163196564,-9.825103759765625,0.0,0.0,32.858638763427734,1.0,1.0,8010.0,4005.0,1668050407.263014
234984696.0,-0.004261740483343601,0.002750186715275049,0.0052474187687039375,0.10831620544195175,0.10206811875104904,-9.802875518798828,0.0,0.0,32.85990524291992,1.0,1.0,8010.0,4005.0,1668050407.303717
235024329.0,-0.001236473210155964,0.0005491574993357062,0.008564207702875137,0.14084410667419434,0.12466428428888321,-9.84088134765625,0.0,0.0,32.86161422729492,1.0,1.0,8010.0,4005.0,1668050407.34335
235064635.0,0.0024112241808325052,-0.0005373310414142907,0.005984567571431398,0.15838979184627533,0.05283486098051071,-9.803568840026855,0.0,0.0,32.863521575927734,1.0,1.0,8010.0,4005.0,1668050407.383656
235104078.0,0.005284342914819717,-0.003921099938452244,-0.002238475251942873,0.11108327656984329,-0.06539022922515869,-9.831725120544434,0.0,0.0,32.86469650268555,1.0,1.0,8010.0,4005.0,1668050407.423099
235143918.0,0.004403676372021437,-0.00449404027312994,-0.010650377720594406,0.054993629455566406,-0.11875160038471222,-9.826128005981445,0.0,0.0,32.865501403808594,1.0,1.0,8010.0,4005.0,1668050407.462939
235184737.0,0.00015923587488941848,-0.003210254479199648,-0.013860464096069336,0.023470865562558174,-0.009477190673351288,-9.846407890319824,0.0,0.0,32.8654899597168,1.0,1.0,8010.0,4005.0,1668050407.503758
235224044.0,-0.0017361390637233853,0.0006491083186119795,-0.008133692666888237,-0.002543800510466099,0.06895852833986282,-9.815590858459473,0.0,0.0,32.86552810668945,1.0,1.0,8010.0,4005.0,1668050407.543065
235264339.0,-0.00039410110912285745,0.0003990253317169845,0.002363939769566059,0.10145518183708191,0.10596729815006256,-9.856934547424316,0.0,0.0,32.86613082885742,1.0,1.0,8010.0,4005.0,1668050407.58336
235303955.0,0.0020481212995946407,0.0019628191366791725,0.010885445401072502,0.11384692788124084,0.05305427312850952,-9.805072784423828,0.0,0.0,32.86688232421875,1.0,1.0,8010.0,4005.0,1668050407.622976
235344148.0,0.0035250275395810604,0.0002418128278804943,0.011556806042790413,0.18251493573188782,-0.053796764463186264,-9.832791328430176,0.0,0.0,32.86744689941406,1.0,1.0,8010.0,4005.0,1668050407.663169
235384747.0,0.001541503006592393,-0.0017425111727789044,0.003821143414825201,0.12076447904109955,-0.07307719439268112,-9.798088073730469,0.0,0.0,32.86817169189453,1.0,1.0,8010.0,4005.0,1668050407.703768
235424107.0,7.546444976469502e-05,-0.0035018660128116608,-0.0071351369842886925,0.07792850583791733,-0.014688033610582352,-9.846878051757812,0.0,0.0,32.868873596191406,1.0,1.0,8010.0,4005.0,1668050407.743128
235464228.0,0.0005910263280384243,-0.0031953821890056133,-0.01365366205573082,0.004430973902344704,0.07876475155353546,-9.83631706237793,0.0,0.0,32.86945724487305,1.0,1.0,8010.0,4005.0,1668050407.783249
235504272.0,0.001652711071074009,-0.001952239777892828,-0.0126720629632473,0.039476893842220306,0.05580085143446922,-9.86181354522705,0.0,0.0,32.86916732788086,1.0,1.0,8010.0,4005.0,1668050407.823293
235544139.0,0.0026986515149474144,0.0003799897967837751,-0.004139631520956755,0.056082673370838165,0.02150944247841835,-9.824649810791016,0.0,0.0,32.86863708496094,1.0,1.0,8010.0,4005.0,1668050407.86316
235584629.0,0.002490927465260029,0.0006458836141973734,0.0044893682934343815,0.11540073156356812,-0.03717014938592911,-9.861445426940918,0.0,0.0,32.86858367919922,1.0,1.0,8010.0,4005.0,1668050407.90365
235624164.0,0.00033991067903116345,-8.965989400167018e-05,0.009007720276713371,0.12164771556854248,-0.035701051354408264,-9.785874366760254,0.0,0.0,32.86864471435547,1.0,1.0,8010.0,4005.0,1668050407.943185
235664031.0,-0.00037152800359763205,-0.0013718463014811277,0.006770320236682892,0.14177855849266052,0.01634826883673668,-9.827742576599121,0.0,0.0,32.868595123291016,1.0,1.0,8010.0,4005.0,1668050407.983052
235704029.0,0.0005360179347917438,-0.0022178569342941046,-0.0001250879286089912,0.0607634112238884,0.05571999400854111,-9.79460620880127,0.0,0.0,32.86859893798828,1.0,1.0,8010.0,4005.0,1668050408.02305
238343722.0,0.0004748182836920023,0.0013018454192206264,-0.004688733723014593,0.18440091609954834,0.1666439026594162,-9.994291305541992,0.0,0.0,32.92673873901367,1.0,1.0,8010.0,4005.0,1668050410.662743
238384640.0,0.0017062751576304436,0.0014990150230005383,0.005083716940134764,-0.03775829076766968,-0.4591398239135742,-9.883094787597656,0.0,0.0,32.92894744873047,1.0,1.0,8010.0,4005.0,1668050410.703661
238436014.0,-0.0006681465310975909,0.0005738789332099259,-0.00664115697145462,0.2455270141363144,0.3982257843017578,-9.725674629211426,0.0,0.0,32.9305419921875,1.0,1.0,8010.0,4005.0,1668050410.755035
238476271.0,0.0016019009053707123,-0.002088024280965328,4.7398767492268234e-05,0.10414379090070724,-0.260395348072052,-9.796375274658203,0.0,0.0,32.93107986450195,1.0,1.0,8010.0,4005.0,1668050410.795292
238515863.0,0.0016276510432362556,-0.003643544390797615,-2.5620196538511664e-05,0.07338825613260269,0.2998785376548767,-9.868307113647461,0.0,0.0,32.931602478027344,1.0,1.0,8010.0,4005.0,1668050410.834884
238556183.0,-0.000750091508962214,-0.002886166563257575,-0.005300560034811497,0.0058377645909786224,-0.17184002697467804,-9.993735313415527,0.0,0.0,32.932472229003906,1.0,1.0,8010.0,4005.0,1668050410.875204
238596477.0,0.003917493857443333,-0.0005250765825621784,0.0007545905536971986,0.1169743537902832,-0.05884541943669319,-9.934630393981934,0.0,0.0,32.932716369628906,1.0,1.0,8010.0,4005.0,1668050410.915498
238635737.0,0.0004916705074720085,-0.00011803967208834365,0.0007586135761812329,-0.14800456166267395,0.11013241112232208,-9.7511568069458,0.0,0.0,32.93275833129883,1.0,1.0,8010.0,4005.0,1668050410.954758
238676088.0,-0.0018234524177387357,0.0008466433500871062,-0.0034141296055167913,0.23584704101085663,0.04548991471529007,-9.676539421081543,0.0,0.0,32.932640075683594,1.0,1.0,8010.0,4005.0,1668050410.995109
238716202.0,0.003322782926261425,-0.001015123096294701,0.00037098326720297337,0.17377331852912903,-0.1673026978969574,-9.778322219848633,0.0,0.0,32.93279266357422,1.0,1.0,8010.0,4005.0,1668050411.035223
238755869.0,0.0004809663805644959,-0.0037001464515924454,-0.00045323994709178805,-0.03797127306461334,-0.004863984417170286,-9.919879913330078,0.0,0.0,32.93225860595703,1.0,1.0,8010.0,4005.0,1668050411.07489
238796477.0,1.3855576980859041e-05,-0.002231200924143195,0.00010238541290163994,0.1601947844028473,0.21025560796260834,-9.980304718017578,0.0,0.0,32.931861877441406,1.0,1.0,8010.0,4005.0,1668050411.115498
238835813.0,0.002451475476846099,-0.00018216566240880638,-0.0054055736400187016,0.06440538167953491,-0.0985533595085144,-9.733054161071777,0.0,0.0,32.931888580322266,1.0,1.0,8010.0,4005.0,1668050411.154834
238875870.0,0.00219108909368515,-0.0027150921523571014,-0.002303393092006445,-0.10808613896369934,-0.06388407945632935,-9.797202110290527,0.0,0.0,32.932254791259766,1.0,1.0,8010.0,4005.0,1668050411.194891
238915939.0,0.00024561822647228837,0.0016564617399126291,0.0027555807027965784,0.06975439190864563,0.170119971036911,-9.759170532226562,0.0,0.0,32.933292388916016,1.0,1.0,8010.0,4005.0,1668050411.23496
238956090.0,-0.0011689318343997002,0.0035659847781062126,-0.002963956678286195,0.16090074181556702,-0.03262067586183548,-9.887606620788574,0.0,0.0,32.93488693237305,1.0,1.0,8010.0,4005.0,1668050411.275111
238996598.0,0.003051339415833354,-0.003218038473278284,-0.0034065027721226215,0.24658316373825073,-0.011991824023425579,-10.0005464553833,0.0,0.0,32.936912536621094,1.0,1.0,8010.0,4005.0,1668050411.315619
239035829.0,0.003580959513783455,-0.0033876365050673485,0.0007641768897883594,0.054583288729190826,0.021937843412160873,-9.707830429077148,0.0,0.0,32.938880920410156,1.0,1.0,8010.0,4005.0,1668050411.35485
239076587.0,-0.001996526960283518,-0.0014575114473700523,0.003731261705979705,-0.07221526652574539,0.08135849237442017,-9.736289978027344,0.0,0.0,32.940006256103516,1.0,1.0,8010.0,4005.0,1668050411.395608
239116014.0,0.0007943033124320209,-0.00298065016977489,-0.0027289721183478832,0.14671581983566284,-0.014673006720840931,-9.887311935424805,0.0,0.0,32.941768646240234,1.0,1.0,8010.0,4005.0,1668050411.435035
239156079.0,0.006891798228025436,-0.00132440694142133,-0.007147184573113918,0.10159613192081451,-0.11279312521219254,-9.709918975830078,0.0,0.0,32.94341278076172,1.0,1.0,8010.0,4005.0,1668050411.4751
239196294.0,0.0015624812804162502,-0.0007072438020259142,-0.002211101120337844,0.05101209133863449,-0.009934444911777973,-9.971694946289062,0.0,0.0,32.9450798034668,1.0,1.0,8010.0,4005.0,1668050411.515315
239235838.0,-0.004495453089475632,0.00037692702608183026,0.0018407050520181656,0.016295909881591797,0.029543856158852577,-9.965299606323242,0.0,0.0,32.946720123291016,1.0,1.0,8010.0,4005.0,1668050411.554859
239276372.0,-0.0002802863600663841,0.0020416227634996176,0.0007490536663681269,0.14891384541988373,0.10171627253293991,-9.59029483795166,0.0,0.0,32.948062896728516,1.0,1.0,8010.0,4005.0,1668050411.595393
239315971.0,0.00522935576736927,-0.0009063554462045431,-0.0012759458040818572,0.2173008918762207,0.03481556847691536,-9.794679641723633,0.0,0.0,32.94956588745117,1.0,1.0,8010.0,4005.0,1668050411.634992
239356001.0,0.00525228027254343,-0.00373579328879714,-0.003497879719361663,0.1346445530653,-0.13692203164100647,-9.775550842285156,0.0,0.0,32.95042037963867,1.0,1.0,8010.0,4005.0,1668050411.675022
239396384.0,0.00016150061856023967,-0.00765277910977602,-0.001964875031262636,0.03605270758271217,-0.06246788799762726,-9.968339920043945,0.0,0.0,32.95082473754883,1.0,1.0,8010.0,4005.0,1668050411.715405
239435859.0,-0.0034833792597055435,-0.002788000740110874,0.0006176573224365711,-0.08871997892856598,0.07842648029327393,-9.96721076965332,0.0,0.0,32.95159149169922,1.0,1.0,8010.0,4005.0,1668050411.75488
239476044.0,-0.00044001132482662797,0.0026329425163567066,0.0010128832655027509,-0.008057641796767712,0.113137386739254,-9.620877265930176,0.0,0.0,32.95217514038086,1.0,1.0,8010.0,4005.0,1668050411.795065
239515840.0,0.004777636379003525,0.0032042688690125942,-0.003060976741835475,0.14646220207214355,0.07161145657300949,-9.713981628417969,0.0,0.0,32.95189666748047,1.0,1.0,8010.0,4005.0,1668050411.834861
239556021.0,0.004691357724368572,0.001931887585669756,-0.0058828373439610004,0.2172766774892807,-0.10074854642152786,-9.955509185791016,0.0,0.0,32.952213287353516,1.0,1.0,8010.0,4005.0,1668050411.875042
239596441.0,0.0008528372854925692,-0.002448317129164934,-0.004390150308609009,0.19917525351047516,-0.06934510916471481,-9.838542938232422,0.0,0.0,32.953369140625,1.0,1.0,8010.0,4005.0,1668050411.915462
239635936.0,-0.002381531987339258,-0.006928788032382727,0.0020109773613512516,0.10099616646766663,0.006474963389337063,-9.936262130737305,0.0,0.0,32.954654693603516,1.0,1.0,8010.0,4005.0,1668050411.954957
239676125.0,-0.0016784723848104477,-0.002826017327606678,0.004823599010705948,-0.08874396234750748,0.1902824342250824,-9.814023971557617,0.0,0.0,32.95541000366211,1.0,1.0,8010.0,4005.0,1668050411.995146
239716064.0,0.0023014575708657503,-0.0004573096230160445,0.002615065313875675,-0.0062946537509560585,0.13877150416374207,-9.582477569580078,0.0,0.0,32.956382751464844,1.0,1.0,8010.0,4005.0,1668050412.035085
239755813.0,0.006086691748350859,-0.00012010781210847199,-0.001993025653064251,0.09274265170097351,-0.1329692304134369,-9.80622386932373,0.0,0.0,32.95742416381836,1.0,1.0,8010.0,4005.0,1668050412.0748339
239796400.0,0.004657934885472059,0.0034575785975903273,-0.00854106992483139,0.16054727137088776,-0.15128272771835327,-9.98603343963623,0.0,0.0,32.9586181640625,1.0,1.0,8010.0,4005.0,1668050412.115421
239835975.0,-0.0010180065874010324,-0.0008570902864448726,-0.010163335129618645,0.15624099969863892,-0.07981231063604355,-9.854782104492188,0.0,0.0,32.96040344238281,1.0,1.0,8010.0,4005.0,1668050412.154996
239876129.0,-0.004609392955899239,-0.004139792639762163,-0.0027943947352468967,0.1422957479953766,0.09538771957159042,-9.944883346557617,0.0,0.0,32.96177291870117,1.0,1.0,8010.0,4005.0,1668050412.19515
239915915.0,-0.0016342310700565577,-0.0010343709727749228,0.005460415501147509,-0.03580767288804054,0.22242605686187744,-9.696802139282227,0.0,0.0,32.96277618408203,1.0,1.0,8010.0,4005.0,1668050412.234936
239955951.0,0.003732939250767231,-0.0031481883488595486,0.009733010083436966,0.004683388397097588,0.06420807540416718,-9.659032821655273,0.0,0.0,32.96366882324219,1.0,1.0,8010.0,4005.0,1668050412.274972
239996666.0,0.006056458689272404,-0.001656009117141366,0.006646071560680866,0.06297175586223602,-0.07214370369911194,-9.961745262145996,0.0,0.0,32.96469497680664,1.0,1.0,8010.0,4005.0,1668050412.315687
240035989.0,0.002807654906064272,0.003515798831358552,-0.004634912125766277,0.08474113047122955,-0.14311407506465912,-9.932432174682617,0.0,0.0,32.965728759765625,1.0,1.0,8010.0,4005.0,1668050412.35501
240076251.0,-0.0010977303609251976,-0.00027558449073694646,-0.013050468638539314,0.19028109312057495,-0.08080685138702393,-9.800433158874512,0.0,0.0,32.966102600097656,1.0,1.0,8010.0,4005.0,1668050412.395272
240115908.0,-0.0024445271119475365,-0.0022790529765188694,-0.014147594571113586,0.12832286953926086,0.12676957249641418,-9.812674522399902,0.0,0.0,32.96567916870117,1.0,1.0,8010.0,4005.0,1668050412.434929
240156024.0,0.00016194175987038761,-0.0015087026404216886,-0.005798524711281061,0.0650176852941513,0.16165180504322052,-9.707274436950684,0.0,0.0,32.96548080444336,1.0,1.0,8010.0,4005.0,1668050412.475045
240196351.0,0.003939206711947918,-0.004200715571641922,0.0054979482665658,0.04979719594120979,0.04592785984277725,-9.888803482055664,0.0,0.0,32.965396881103516,1.0,1.0,8010.0,4005.0,1668050412.515372
240235828.0,0.004662130959331989,-0.0037151528522372246,0.01186605729162693,0.047289617359638214,-0.0964844673871994,-9.960662841796875,0.0,0.0,32.966156005859375,1.0,1.0,8010.0,4005.0,1668050412.554849
240276081.0,0.0010833601700142026,0.0013955706963315606,0.010034224018454552,0.0131315216422081,-0.10413408279418945,-9.8294677734375,0.0,0.0,32.96692657470703,1.0,1.0,8010.0,4005.0,1668050412.595102
240315906.0,-0.0026070463936775923,0.0003236851189285517,0.0011618246790021658,0.08821593970060349,-0.015808500349521637,-9.763976097106934,0.0,0.0,32.96768569946289,1.0,1.0,8010.0,4005.0,1668050412.634927
240356129.0,-0.002063958439975977,0.0012739697704091668,-0.007856283336877823,0.1229335218667984,0.07454909384250641,-9.785192489624023,0.0,0.0,32.96875762939453,1.0,1.0,8010.0,4005.0,1668050412.67515
240396448.0,0.0019193367334082723,0.0005361643270589411,-0.012614424340426922,0.1374277025461197,0.09392683953046799,-9.785861015319824,0.0,0.0,32.96964645385742,1.0,1.0,8010.0,4005.0,1668050412.715469
240435948.0,0.004213102161884308,-0.0036345580592751503,-0.010407628491520882,0.1329190731048584,0.042271584272384644,-9.919032096862793,0.0,0.0,32.97108459472656,1.0,1.0,8010.0,4005.0,1668050412.754969
240476109.0,0.004320352338254452,-0.0033599103335291147,-0.0024351822212338448,0.10366903245449066,-0.0339377336204052,-9.903928756713867,0.0,0.0,32.97248077392578,1.0,1.0,8010.0,4005.0,1668050412.79513
240515881.0,0.0010221952106803656,-0.0015892540104687214,0.004359048325568438,0.0009664546814747155,-0.0485667884349823,-9.754091262817383,0.0,0.0,32.97265625,1.0,1.0,8010.0,4005.0,1668050412.834902
240556085.0,-0.0007867737440392375,-0.002594240941107273,0.007981882430613041,0.024670753628015518,0.004748399369418621,-9.786136627197266,0.0,0.0,32.972412109375,1.0,1.0,8010.0,4005.0,1668050412.875106
240596251.0,-0.0008642468601465225,0.00019847744260914624,0.0057732053101062775,0.058542974293231964,0.05143454670906067,-9.816740989685059,0.0,0.0,32.97309875488281,1.0,1.0,8010.0,4005.0,1668050412.915272
240635922.0,0.0008356040343642235,0.001517371740192175,-0.0002839270746335387,0.12110726535320282,0.04788993299007416,-9.91319465637207,0.0,0.0,32.97382354736328,1.0,1.0,8010.0,4005.0,1668050412.954943
240676320.0,0.0031632035970687866,-0.0010373520199209452,-0.006722192279994488,0.1540994495153427,-0.005868486128747463,-9.873617172241211,0.0,0.0,32.974361419677734,1.0,1.0,8010.0,4005.0,1668050412.995341
240716347.0,0.003138566855341196,-0.0017785055097192526,-0.009818649850785732,0.1330857127904892,-0.017746882513165474,-9.79294204711914,0.0,0.0,32.9752082824707,1.0,1.0,8010.0,4005.0,1668050413.035368
240756083.0,0.0016844009514898062,-0.002762424061074853,-0.006774939596652985,0.05544949322938919,-0.010660912841558456,-9.7203950881958,0.0,0.0,32.97645568847656,1.0,1.0,8010.0,4005.0,1668050413.075104
240796558.0,0.00025229479069821537,-0.00446504820138216,-0.0010128261055797338,0.04105705767869949,0.021982550621032715,-9.852177619934082,0.0,0.0,32.97760772705078,1.0,1.0,8010.0,4005.0,1668050413.115579
240835923.0,-0.00018302637909073383,-0.0017538099782541394,0.004689094144850969,0.027731172740459442,0.04256546497344971,-9.912237167358398,0.0,0.0,32.97859573364258,1.0,1.0,8010.0,4005.0,1668050413.154944
240875879.0,0.0008158742566592991,0.00046175526222214103,0.00675269216299057,0.05315368250012398,0.030326513573527336,-9.916179656982422,0.0,0.0,32.97887420654297,1.0,1.0,8010.0,4005.0,1668050413.1949
240915894.0,0.0012961175525560975,0.0007544949767179787,0.003938094712793827,0.09073371440172195,-0.01480143517255783,-9.769192695617676,0.0,0.0,32.978843688964844,1.0,1.0,8010.0,4005.0,1668050413.234915
240956211.0,0.0015841552522033453,0.0008832758176140487,-0.002532491460442543,0.13742640614509583,-0.029443373903632164,-9.749698638916016,0.0,0.0,32.97880172729492,1.0,1.0,8010.0,4005.0,1668050413.275232
240996710.0,0.0013223813148215413,-0.0008896361687220633,-0.008215632289648056,0.1253335177898407,-0.030191004276275635,-9.760172843933105,0.0,0.0,32.978843688964844,1.0,1.0,8010.0,4005.0,1668050413.315731
241035979.0,0.0006366287707351148,-0.003332772757858038,-0.008486415259540081,0.11426060646772385,0.02813054993748665,-9.88323974609375,0.0,0.0,32.97943115234375,1.0,1.0,8010.0,4005.0,1668050413.355
241076258.0,0.0011757081374526024,-0.003131980774924159,-0.00433595385402441,0.04567914456129074,0.039246816188097,-9.920608520507812,0.0,0.0,32.98072814941406,1.0,1.0,8010.0,4005.0,1668050413.395279
