TimeUS,Mem,TS,NPkt,Nerr,Nerr2,NDel,timestamp
221260526.0,336.0,225054.0,102882.0,0.0,0.0,0.0,1668050393.579547
222310531.0,336.0,226104.0,103391.0,0.0,0.0,0.0,1668050394.629552
223360532.0,336.0,227154.0,103898.0,0.0,0.0,0.0,1668050395.679553
227560034.0,336.0,231354.0,105924.0,0.0,0.0,0.0,1668050399.879055
228610004.0,336.0,232404.0,106433.0,0.0,0.0,0.0,1668050400.929025
229660016.0,336.0,233454.0,106940.0,0.0,0.0,0.0,1668050401.979037
233815982.0,336.0,237610.0,108946.0,0.0,0.0,0.0,1668050406.135003
234865987.0,336.0,238660.0,109453.0,0.0,0.0,0.0,1668050407.185008
239065587.0,336.0,242860.0,111481.0,0.0,0.0,0.0,1668050411.384608
240115559.0,336.0,243910.0,111988.0,0.0,0.0,0.0,1668050412.43458
241165570.0,336.0,244960.0,112495.0,0.0,0.0,0.0,1668050413.484591
242215561.0,336.0,246010.0,113002.0,0.0,0.0,0.0,1668050414.534582
243265565.0,336.0,247060.0,113509.0,0.0,0.0,0.0,1668050415.584586
247464938.0,336.0,251259.0,115541.0,0.0,0.0,0.0,1668050419.783959
248515379.0,336.0,252310.0,116048.0,0.0,0.0,0.0,1668050420.8344
249564940.0,336.0,253359.0,116554.0,0.0,0.0,0.0,1668050421.883961
253714375.0,336.0,257508.0,118559.0,0.0,0.0,0.0,1668050426.033396
254764382.0,336.0,258558.0,119066.0,0.0,0.0,0.0,1668050427.0834029
258961494.0,336.0,262756.0,121094.0,0.0,0.0,0.0,1668050431.280515
260011506.0,336.0,263806.0,121600.0,0.0,0.0,0.0,1668050432.330527
261061506.0,336.0,264856.0,122107.0,0.0,0.0,0.0,1668050433.380527
262111503.0,336.0,265906.0,122614.0,0.0,0.0,0.0,1668050434.4305239
263161507.0,336.0,266956.0,123120.0,0.0,0.0,0.0,1668050435.4805279
264211510.0,336.0,268006.0,123627.0,0.0,0.0,0.0,1668050436.530531
265261508.0,336.0,269056.0,124134.0,0.0,0.0,0.0,1668050437.580529
266311503.0,336.0,270106.0,124640.0,0.0,0.0,0.0,1668050438.630524
267361514.0,336.0,271156.0,125148.0,0.0,0.0,0.0,1668050439.680535
268411494.0,336.0,272206.0,125655.0,0.0,0.0,0.0,1668050440.730515
269461505.0,336.0,273256.0,126162.0,0.0,0.0,0.0,1668050441.780526
270511495.0,336.0,274306.0,126669.0,0.0,0.0,0.0,1668050442.830516
271561507.0,336.0,275356.0,127176.0,0.0,0.0,0.0,1668050443.880528
272611511.0,336.0,276406.0,127682.0,0.0,0.0,0.0,1668050444.930532
274709511.0,336.0,278504.0,128698.0,0.0,0.0,0.0,1668050447.028532
275759007.0,336.0,279553.0,129205.0,0.0,0.0,0.0,1668050448.078028
276809014.0,336.0,280603.0,129712.0,0.0,0.0,0.0,1668050449.128035
277859448.0,336.0,281654.0,130219.0,0.0,0.0,0.0,1668050450.178469
278909014.0,336.0,282703.0,130725.0,0.0,0.0,0.0,1668050451.228035
279959026.0,336.0,283753.0,131233.0,0.0,0.0,0.0,1668050452.278047
281009455.0,336.0,284804.0,131740.0,0.0,0.0,0.0,1668050453.328476
282059024.0,336.0,285853.0,132246.0,0.0,0.0,0.0,1668050454.378045
283109026.0,336.0,286903.0,132753.0,0.0,0.0,0.0,1668050455.428047
284159474.0,336.0,287954.0,133260.0,0.0,0.0,0.0,1668050456.478495
285209014.0,336.0,289003.0,133766.0,0.0,0.0,0.0,1668050457.528035
286259018.0,336.0,290053.0,134273.0,0.0,0.0,0.0,1668050458.578039
287309492.0,336.0,291104.0,134780.0,0.0,0.0,0.0,1668050459.628513
288359033.0,336.0,292153.0,135286.0,0.0,0.0,0.0,1668050460.678054
289409023.0,336.0,293203.0,135793.0,0.0,0.0,0.0,1668050461.728044
290458303.0,336.0,294253.0,136294.0,0.0,0.0,0.0,1668050462.777324
291508312.0,336.0,295303.0,136804.0,0.0,0.0,0.0,1668050463.827333
292558306.0,336.0,296353.0,137311.0,0.0,0.0,0.0,1668050464.877327
293608304.0,336.0,297403.0,137817.0,0.0,0.0,0.0,1668050465.927325
294658311.0,336.0,298453.0,138324.0,0.0,0.0,0.0,1668050466.9773319
295708309.0,336.0,299503.0,138831.0,0.0,0.0,0.0,1668050468.02733
296758308.0,336.0,300553.0,139339.0,0.0,0.0,0.0,1668050469.077329
297808341.0,336.0,301603.0,139846.0,0.0,0.0,0.0,1668050470.127362
298858310.0,336.0,302653.0,140353.0,0.0,0.0,0.0,1668050471.177331
299908321.0,336.0,303703.0,140859.0,0.0,0.0,0.0,1668050472.227342
300958348.0,336.0,304753.0,141366.0,0.0,0.0,0.0,1668050473.277369
302008315.0,336.0,305803.0,141873.0,0.0,0.0,0.0,1668050474.327336
303058327.0,336.0,306853.0,142379.0,0.0,0.0,0.0,1668050475.377348
304108328.0,336.0,307903.0,142886.0,0.0,0.0,0.0,1668050476.427349
305158326.0,336.0,308953.0,143393.0,0.0,0.0,0.0,1668050477.477347
306208334.0,336.0,310003.0,143899.0,0.0,0.0,0.0,1668050478.527355
307258324.0,336.0,311053.0,144406.0,0.0,0.0,0.0,1668050479.577345
308308319.0,336.0,312103.0,144913.0,0.0,0.0,0.0,1668050480.62734
309358340.0,336.0,313153.0,145419.0,0.0,0.0,0.0,1668050481.677361
310408327.0,336.0,314203.0,145926.0,0.0,0.0,0.0,1668050482.727348
311458324.0,336.0,315253.0,146433.0,0.0,0.0,0.0,1668050483.777345
312508329.0,336.0,316303.0,146939.0,0.0,0.0,0.0,1668050484.82735
313558348.0,336.0,317353.0,147447.0,0.0,0.0,0.0,1668050485.877369
314608314.0,336.0,318403.0,147954.0,0.0,0.0,0.0,1668050486.927335
315658320.0,336.0,319453.0,148460.0,0.0,0.0,0.0,1668050487.977341
316708332.0,336.0,320503.0,148967.0,0.0,0.0,0.0,1668050489.027353
317758316.0,336.0,321553.0,149474.0,0.0,0.0,0.0,1668050490.077337
318808337.0,336.0,322603.0,149980.0,0.0,0.0,0.0,1668050491.127358
319858333.0,336.0,323653.0,150487.0,0.0,0.0,0.0,1668050492.177354
320908319.0,336.0,324703.0,150995.0,0.0,0.0,0.0,1668050493.22734
321958322.0,336.0,325753.0,151501.0,0.0,0.0,0.0,1668050494.277343
323008319.0,336.0,326803.0,152008.0,0.0,0.0,0.0,1668050495.32734
324058320.0,336.0,327853.0,152515.0,0.0,0.0,0.0,1668050496.377341
325108318.0,336.0,328903.0,153021.0,0.0,0.0,0.0,1668050497.427339
326158324.0,336.0,329953.0,153528.0,0.0,0.0,0.0,1668050498.477345
327208328.0,336.0,331003.0,154035.0,0.0,0.0,0.0,1668050499.527349
328258318.0,336.0,332053.0,154541.0,0.0,0.0,0.0,1668050500.577339
329308324.0,336.0,333103.0,155048.0,0.0,0.0,0.0,1668050501.627345
330358336.0,336.0,334153.0,155555.0,0.0,0.0,0.0,1668050502.677357
331408332.0,336.0,335203.0,156061.0,0.0,0.0,0.0,1668050503.727353
332458349.0,336.0,336253.0,156568.0,0.0,0.0,0.0,1668050504.77737
333508324.0,336.0,337303.0,157075.0,0.0,0.0,0.0,1668050505.827345
334558341.0,336.0,338353.0,157581.0,0.0,0.0,0.0,1668050506.877362
335608327.0,336.0,339403.0,158089.0,0.0,0.0,0.0,1668050507.927348
336658341.0,336.0,340453.0,158596.0,0.0,0.0,0.0,1668050508.977362
337708774.0,336.0,341503.0,159103.0,0.0,0.0,0.0,1668050510.027795
338758312.0,336.0,342553.0,159609.0,0.0,0.0,0.0,1668050511.077333
339808325.0,336.0,343603.0,160116.0,0.0,0.0,0.0,1668050512.127346
340858781.0,336.0,344653.0,160623.0,0.0,0.0,0.0,1668050513.177802
341908325.0,336.0,345703.0,161130.0,0.0,0.0,0.0,1668050514.227346
342958344.0,336.0,346753.0,161637.0,0.0,0.0,0.0,1668050515.277365
344008784.0,336.0,347803.0,162144.0,0.0,0.0,0.0,1668050516.327805
345058324.0,336.0,348853.0,162650.0,0.0,0.0,0.0,1668050517.377345
346108326.0,336.0,349903.0,163157.0,0.0,0.0,0.0,1668050518.427347
347158784.0,336.0,350953.0,163664.0,0.0,0.0,0.0,1668050519.477805
348208335.0,336.0,352003.0,164170.0,0.0,0.0,0.0,1668050520.527356
349258313.0,336.0,353053.0,164677.0,0.0,0.0,0.0,1668050521.577334
350308775.0,336.0,354104.0,165184.0,0.0,0.0,0.0,1668050522.627796
351358323.0,336.0,355153.0,165690.0,0.0,0.0,0.0,1668050523.677344
352408332.0,336.0,356203.0,166197.0,0.0,0.0,0.0,1668050524.727353
353458778.0,336.0,357254.0,166704.0,0.0,0.0,0.0,1668050525.777799
354508327.0,336.0,358303.0,167210.0,0.0,0.0,0.0,1668050526.827348
355558342.0,336.0,359353.0,167717.0,0.0,0.0,0.0,1668050527.877363
356608781.0,336.0,360404.0,168224.0,0.0,0.0,0.0,1668050528.927802
357658341.0,336.0,361453.0,168730.0,0.0,0.0,0.0,1668050529.977362
358708326.0,336.0,362503.0,169237.0,0.0,0.0,0.0,1668050531.027347
359758764.0,336.0,363553.0,169744.0,0.0,0.0,0.0,1668050532.077785
360808332.0,336.0,364603.0,170250.0,0.0,0.0,0.0,1668050533.127353
361858337.0,336.0,365653.0,170757.0,0.0,0.0,0.0,1668050534.177358
362908777.0,336.0,366704.0,171264.0,0.0,0.0,0.0,1668050535.227798
363958338.0,336.0,367753.0,171770.0,0.0,0.0,0.0,1668050536.277359
365008328.0,336.0,368803.0,172277.0,0.0,0.0,0.0,1668050537.327349
366058772.0,336.0,369854.0,172784.0,0.0,0.0,0.0,1668050538.377793
367108324.0,336.0,370903.0,173290.0,0.0,0.0,0.0,1668050539.427345
368158312.0,336.0,371953.0,173797.0,0.0,0.0,0.0,1668050540.477333
369208765.0,336.0,373004.0,174304.0,0.0,0.0,0.0,1668050541.527786
370258328.0,336.0,374053.0,174810.0,0.0,0.0,0.0,1668050542.577349
371308337.0,336.0,375103.0,175317.0,0.0,0.0,0.0,1668050543.627358
372358770.0,336.0,376154.0,175824.0,0.0,0.0,0.0,1668050544.6777909
373408330.0,336.0,377203.0,176330.0,0.0,0.0,0.0,1668050545.727351
374458326.0,336.0,378253.0,176837.0,0.0,0.0,0.0,1668050546.777347
375508797.0,336.0,379304.0,177344.0,0.0,0.0,0.0,1668050547.827818
376558331.0,336.0,380353.0,177850.0,0.0,0.0,0.0,1668050548.877352
377608321.0,336.0,381403.0,178357.0,0.0,0.0,0.0,1668050549.927342
378658773.0,336.0,382454.0,178864.0,0.0,0.0,0.0,1668050550.977794
379708320.0,336.0,383503.0,179370.0,0.0,0.0,0.0,1668050552.027341
380758332.0,336.0,384553.0,179877.0,0.0,0.0,0.0,1668050553.077353
381808776.0,336.0,385604.0,180384.0,0.0,0.0,0.0,1668050554.127797
382858315.0,336.0,386653.0,180890.0,0.0,0.0,0.0,1668050555.177336
383908327.0,336.0,387703.0,181397.0,0.0,0.0,0.0,1668050556.227348
384958782.0,336.0,388754.0,181904.0,0.0,0.0,0.0,1668050557.277803
386008339.0,336.0,389803.0,182410.0,0.0,0.0,0.0,1668050558.32736
387058326.0,336.0,390853.0,182917.0,0.0,0.0,0.0,1668050559.377347
388108783.0,336.0,391904.0,183424.0,0.0,0.0,0.0,1668050560.427804
389158325.0,336.0,392953.0,183930.0,0.0,0.0,0.0,1668050561.477346
390208335.0,336.0,394003.0,184438.0,0.0,0.0,0.0,1668050562.527356
391258769.0,336.0,395054.0,184945.0,0.0,0.0,0.0,1668050563.57779
392308329.0,336.0,396103.0,185451.0,0.0,0.0,0.0,1668050564.62735
393358343.0,336.0,397153.0,185958.0,0.0,0.0,0.0,1668050565.6773639
394408795.0,336.0,398204.0,186465.0,0.0,0.0,0.0,1668050566.727816
395458320.0,336.0,399253.0,186971.0,0.0,0.0,0.0,1668050567.777341
396508318.0,336.0,400303.0,187478.0,0.0,0.0,0.0,1668050568.827339
397558784.0,336.0,401354.0,187985.0,0.0,0.0,0.0,1668050569.877805
398608330.0,336.0,402403.0,188491.0,0.0,0.0,0.0,1668050570.927351
399658382.0,336.0,403453.0,188998.0,0.0,0.0,0.0,1668050571.977403
400708761.0,336.0,404504.0,189506.0,0.0,0.0,0.0,1668050573.027782
401758309.0,336.0,405553.0,190013.0,0.0,0.0,0.0,1668050574.0773299
402808329.0,336.0,406603.0,190520.0,0.0,0.0,0.0,1668050575.12735
403858780.0,336.0,407654.0,191027.0,0.0,0.0,0.0,1668050576.177801
404908336.0,336.0,408703.0,191534.0,0.0,0.0,0.0,1668050577.227357
405958314.0,336.0,409753.0,192041.0,0.0,0.0,0.0,1668050578.277335
407008777.0,336.0,410804.0,192548.0,0.0,0.0,0.0,1668050579.327798
408058324.0,336.0,411853.0,193054.0,0.0,0.0,0.0,1668050580.377345
409108329.0,336.0,412903.0,193561.0,0.0,0.0,0.0,1668050581.42735
410158768.0,336.0,413954.0,194068.0,0.0,0.0,0.0,1668050582.477789
411208331.0,336.0,415003.0,194574.0,0.0,0.0,0.0,1668050583.527352
412258331.0,336.0,416053.0,195081.0,0.0,0.0,0.0,1668050584.577352
413308789.0,336.0,417104.0,195588.0,0.0,0.0,0.0,1668050585.62781
414358318.0,336.0,418153.0,196094.0,0.0,0.0,0.0,1668050586.677339
415408354.0,336.0,419203.0,196601.0,0.0,0.0,0.0,1668050587.727375
416458769.0,336.0,420254.0,197108.0,0.0,0.0,0.0,1668050588.77779
417508327.0,336.0,421303.0,197614.0,0.0,0.0,0.0,1668050589.827348
418558322.0,336.0,422353.0,198121.0,0.0,0.0,0.0,1668050590.877343
419608786.0,336.0,423404.0,198629.0,0.0,0.0,0.0,1668050591.927807
420658320.0,336.0,424453.0,199135.0,0.0,0.0,0.0,1668050592.977341
421708327.0,336.0,425503.0,199642.0,0.0,0.0,0.0,1668050594.027348
422758768.0,336.0,426554.0,200150.0,0.0,0.0,0.0,1668050595.077789
423808329.0,336.0,427603.0,200656.0,0.0,0.0,0.0,1668050596.12735
424858324.0,336.0,428653.0,201163.0,0.0,0.0,0.0,1668050597.177345
425908778.0,336.0,429704.0,201670.0,0.0,0.0,0.0,1668050598.227799
426958320.0,336.0,430753.0,202176.0,0.0,0.0,0.0,1668050599.277341
428008319.0,336.0,431803.0,202683.0,0.0,0.0,0.0,1668050600.32734
429058790.0,336.0,432854.0,203191.0,0.0,0.0,0.0,1668050601.377811
430108315.0,336.0,433903.0,203697.0,0.0,0.0,0.0,1668050602.427336
431158313.0,336.0,434953.0,204204.0,0.0,0.0,0.0,1668050603.477334
432208780.0,336.0,436004.0,204711.0,0.0,0.0,0.0,1668050604.527801
433258323.0,336.0,437053.0,205217.0,0.0,0.0,0.0,1668050605.577344
434308335.0,336.0,438103.0,205724.0,0.0,0.0,0.0,1668050606.627356
435358777.0,336.0,439154.0,206231.0,0.0,0.0,0.0,1668050607.677798
436408321.0,336.0,440203.0,206737.0,0.0,0.0,0.0,1668050608.727342
437458316.0,336.0,441254.0,207245.0,0.0,0.0,0.0,1668050609.777337
438508777.0,336.0,442304.0,207752.0,0.0,0.0,0.0,1668050610.827798
439558343.0,336.0,443353.0,208258.0,0.0,0.0,0.0,1668050611.877364
440608331.0,336.0,444403.0,208765.0,0.0,0.0,0.0,1668050612.927352
441658770.0,336.0,445454.0,209272.0,0.0,0.0,0.0,1668050613.977791
442708336.0,336.0,446503.0,209779.0,0.0,0.0,0.0,1668050615.027357
443758321.0,336.0,447553.0,210286.0,0.0,0.0,0.0,1668050616.077342
444808770.0,336.0,448604.0,210795.0,0.0,0.0,0.0,1668050617.127791
445858332.0,336.0,449653.0,211301.0,0.0,0.0,0.0,1668050618.177353
446908331.0,336.0,450704.0,211808.0,0.0,0.0,0.0,1668050619.227352
447958768.0,336.0,451754.0,212315.0,0.0,0.0,0.0,1668050620.2777889
449008328.0,336.0,452804.0,212822.0,0.0,0.0,0.0,1668050621.327349
450058352.0,336.0,453854.0,213329.0,0.0,0.0,0.0,1668050622.377373
451108774.0,336.0,454904.0,213836.0,0.0,0.0,0.0,1668050623.427795
452158323.0,336.0,455954.0,214343.0,0.0,0.0,0.0,1668050624.477344
453208330.0,336.0,457004.0,214850.0,0.0,0.0,0.0,1668050625.527351
454258787.0,336.0,458054.0,215357.0,0.0,0.0,0.0,1668050626.577808
455308325.0,336.0,459104.0,215863.0,0.0,0.0,0.0,1668050627.627346
456358327.0,336.0,460154.0,216370.0,0.0,0.0,0.0,1668050628.677348
457408794.0,336.0,461204.0,216877.0,0.0,0.0,0.0,1668050629.727815
458458317.0,336.0,462254.0,217383.0,0.0,0.0,0.0,1668050630.777338
459508317.0,336.0,463304.0,217890.0,0.0,0.0,0.0,1668050631.827338
460558781.0,336.0,464354.0,218397.0,0.0,0.0,0.0,1668050632.877802
461608327.0,336.0,465404.0,218903.0,0.0,0.0,0.0,1668050633.927348
462658332.0,336.0,466454.0,219410.0,0.0,0.0,0.0,1668050634.977353
463708758.0,336.0,467504.0,219917.0,0.0,0.0,0.0,1668050636.027779
464758313.0,336.0,468554.0,220423.0,0.0,0.0,0.0,1668050637.077334
465808320.0,336.0,469604.0,220930.0,0.0,0.0,0.0,1668050638.127341
466858776.0,336.0,470654.0,221437.0,0.0,0.0,0.0,1668050639.177797
467908325.0,336.0,471704.0,221943.0,0.0,0.0,0.0,1668050640.227346
468958316.0,336.0,472754.0,222450.0,0.0,0.0,0.0,1668050641.277337
470008775.0,336.0,473804.0,222957.0,0.0,0.0,0.0,1668050642.327796
471058322.0,336.0,474854.0,223464.0,0.0,0.0,0.0,1668050643.377343
472108332.0,336.0,475904.0,223971.0,0.0,0.0,0.0,1668050644.427353
473158772.0,336.0,476954.0,224478.0,0.0,0.0,0.0,1668050645.477793
474208343.0,336.0,478004.0,224985.0,0.0,0.0,0.0,1668050646.527364
475258322.0,336.0,479054.0,225492.0,0.0,0.0,0.0,1668050647.577343
476308772.0,336.0,480104.0,225999.0,0.0,0.0,0.0,1668050648.627793
477358318.0,336.0,481154.0,226505.0,0.0,0.0,0.0,1668050649.677339
478408317.0,336.0,482204.0,227012.0,0.0,0.0,0.0,1668050650.727338
479458769.0,336.0,483254.0,227519.0,0.0,0.0,0.0,1668050651.77779
480508331.0,336.0,484304.0,228025.0,0.0,0.0,0.0,1668050652.827352
481558325.0,336.0,485354.0,228532.0,0.0,0.0,0.0,1668050653.877346
482608771.0,336.0,486404.0,229039.0,0.0,0.0,0.0,1668050654.927792
483658310.0,336.0,487454.0,229545.0,0.0,0.0,0.0,1668050655.977331
484708328.0,336.0,488504.0,230053.0,0.0,0.0,0.0,1668050657.027349
485758765.0,336.0,489554.0,230560.0,0.0,0.0,0.0,1668050658.077786
486808331.0,336.0,490604.0,231066.0,0.0,0.0,0.0,1668050659.127352
487858372.0,336.0,491654.0,231573.0,0.0,0.0,0.0,1668050660.177393
488908781.0,336.0,492704.0,232080.0,0.0,0.0,0.0,1668050661.227802
489958316.0,336.0,493754.0,232587.0,0.0,0.0,0.0,1668050662.277337
491008339.0,336.0,494804.0,233094.0,0.0,0.0,0.0,1668050663.32736
492058776.0,336.0,495854.0,233602.0,0.0,0.0,0.0,1668050664.377797
493108322.0,336.0,496904.0,234108.0,0.0,0.0,0.0,1668050665.427343
494158317.0,336.0,497954.0,234615.0,0.0,0.0,0.0,1668050666.477338
495208783.0,336.0,499004.0,235122.0,0.0,0.0,0.0,1668050667.527804
496258378.0,336.0,500054.0,235629.0,0.0,0.0,0.0,1668050668.577399
497308321.0,336.0,501104.0,236137.0,0.0,0.0,0.0,1668050669.627342
498358760.0,336.0,502154.0,236644.0,0.0,0.0,0.0,1668050670.677781
499408332.0,336.0,503204.0,237150.0,0.0,0.0,0.0,1668050671.727353
500458326.0,336.0,504254.0,237657.0,0.0,0.0,0.0,1668050672.777347
501508771.0,336.0,505304.0,238164.0,0.0,0.0,0.0,1668050673.827792
502558317.0,336.0,506354.0,238670.0,0.0,0.0,0.0,1668050674.877338
503608323.0,336.0,507404.0,239177.0,0.0,0.0,0.0,1668050675.927344
504658760.0,336.0,508454.0,239684.0,0.0,0.0,0.0,1668050676.977781
505708315.0,336.0,509504.0,240190.0,0.0,0.0,0.0,1668050678.027336
506758319.0,336.0,510554.0,240697.0,0.0,0.0,0.0,1668050679.07734
507808789.0,336.0,511604.0,241204.0,0.0,0.0,0.0,1668050680.12781
508858306.0,336.0,512654.0,241710.0,0.0,0.0,0.0,1668050681.177327
509908347.0,336.0,513704.0,242218.0,0.0,0.0,0.0,1668050682.2273679
510956280.0,336.0,514752.0,242725.0,0.0,0.0,0.0,1668050683.275301
512005816.0,336.0,515801.0,243231.0,0.0,0.0,0.0,1668050684.324837
513055822.0,336.0,516851.0,243738.0,0.0,0.0,0.0,1668050685.374843
514106285.0,336.0,517902.0,244245.0,0.0,0.0,0.0,1668050686.425306
515155812.0,336.0,518951.0,244751.0,0.0,0.0,0.0,1668050687.474833
516205832.0,336.0,520001.0,245258.0,0.0,0.0,0.0,1668050688.524853
517256267.0,336.0,521052.0,245765.0,0.0,0.0,0.0,1668050689.575288
518305831.0,336.0,522101.0,246271.0,0.0,0.0,0.0,1668050690.624852
519355821.0,336.0,523152.0,246778.0,0.0,0.0,0.0,1668050691.674842
520406325.0,336.0,524202.0,247285.0,0.0,0.0,0.0,1668050692.725346
521454442.0,336.0,525250.0,247784.0,0.0,0.0,0.0,1668050693.773463
522504435.0,336.0,526300.0,248293.0,0.0,0.0,0.0,1668050694.823456
523554454.0,336.0,527350.0,248799.0,0.0,0.0,0.0,1668050695.873475
524604447.0,336.0,528400.0,249306.0,0.0,0.0,0.0,1668050696.9234679
525654440.0,336.0,529450.0,249813.0,0.0,0.0,0.0,1668050697.973461
526704443.0,336.0,530500.0,250319.0,0.0,0.0,0.0,1668050699.023464
527754440.0,336.0,531550.0,250826.0,0.0,0.0,0.0,1668050700.073461
528804453.0,336.0,532600.0,251333.0,0.0,0.0,0.0,1668050701.123474
529854437.0,336.0,533650.0,251839.0,0.0,0.0,0.0,1668050702.173458
530904445.0,336.0,534700.0,252346.0,0.0,0.0,0.0,1668050703.223466
531954444.0,336.0,535750.0,252853.0,0.0,0.0,0.0,1668050704.273465
533004452.0,336.0,536800.0,253359.0,0.0,0.0,0.0,1668050705.323473
534054458.0,336.0,537850.0,253866.0,0.0,0.0,0.0,1668050706.373479
535104470.0,336.0,538900.0,254373.0,0.0,0.0,0.0,1668050707.423491
536154454.0,336.0,539950.0,254880.0,0.0,0.0,0.0,1668050708.473475
739851954.0,336.0,743649.0,353186.0,0.0,0.0,0.0,1668050912.170975
740901955.0,336.0,744699.0,353692.0,0.0,0.0,0.0,1668050913.2209759
741951965.0,336.0,745749.0,354199.0,0.0,0.0,0.0,1668050914.270986
743001960.0,336.0,746799.0,354706.0,0.0,0.0,0.0,1668050915.320981
744051955.0,336.0,747849.0,355213.0,0.0,0.0,0.0,1668050916.370976
745101952.0,336.0,748899.0,355720.0,0.0,0.0,0.0,1668050917.420973
746151959.0,336.0,749949.0,356227.0,0.0,0.0,0.0,1668050918.47098
747201969.0,336.0,750999.0,356733.0,0.0,0.0,0.0,1668050919.52099
748251962.0,336.0,752049.0,357240.0,0.0,0.0,0.0,1668050920.570983
749301969.0,336.0,753099.0,357747.0,0.0,0.0,0.0,1668050921.62099
750351962.0,336.0,754149.0,358253.0,0.0,0.0,0.0,1668050922.670983
751401962.0,336.0,755199.0,358760.0,0.0,0.0,0.0,1668050923.720983
752451968.0,336.0,756249.0,359267.0,0.0,0.0,0.0,1668050924.770989
753501954.0,336.0,757299.0,359773.0,0.0,0.0,0.0,1668050925.820975
754551969.0,336.0,758349.0,360280.0,0.0,0.0,0.0,1668050926.87099
755601968.0,336.0,759399.0,360787.0,0.0,0.0,0.0,1668050927.920989
756651953.0,336.0,760449.0,361293.0,0.0,0.0,0.0,1668050928.970974
757701965.0,336.0,761499.0,361800.0,0.0,0.0,0.0,1668050930.020986
758751956.0,336.0,762549.0,362307.0,0.0,0.0,0.0,1668050931.070977
759801953.0,336.0,763599.0,362813.0,0.0,0.0,0.0,1668050932.120974
760851979.0,336.0,764649.0,363320.0,0.0,0.0,0.0,1668050933.171
761901963.0,336.0,765699.0,363827.0,0.0,0.0,0.0,1668050934.220984
762951952.0,336.0,766749.0,364333.0,0.0,0.0,0.0,1668050935.270973
764001972.0,336.0,767799.0,364840.0,0.0,0.0,0.0,1668050936.320993
765051957.0,336.0,768849.0,365347.0,0.0,0.0,0.0,1668050937.3709779
766101966.0,336.0,769899.0,365853.0,0.0,0.0,0.0,1668050938.420987
767151971.0,336.0,770949.0,366360.0,0.0,0.0,0.0,1668050939.470992
768201994.0,336.0,771999.0,366867.0,0.0,0.0,0.0,1668050940.521015
769251961.0,336.0,773049.0,367373.0,0.0,0.0,0.0,1668050941.570982
770301954.0,336.0,774099.0,367880.0,0.0,0.0,0.0,1668050942.620975
771351961.0,336.0,775149.0,368388.0,0.0,0.0,0.0,1668050943.670982
772401959.0,336.0,776199.0,368895.0,0.0,0.0,0.0,1668050944.72098
773451968.0,336.0,777249.0,369402.0,0.0,0.0,0.0,1668050945.770989
774501969.0,336.0,778299.0,369909.0,0.0,0.0,0.0,1668050946.82099
775551969.0,336.0,779349.0,370415.0,0.0,0.0,0.0,1668050947.87099
776601956.0,336.0,780399.0,370922.0,0.0,0.0,0.0,1668050948.9209769
777651955.0,336.0,781449.0,371429.0,0.0,0.0,0.0,1668050949.9709759
778701970.0,336.0,782499.0,371935.0,0.0,0.0,0.0,1668050951.020991
779751971.0,336.0,783549.0,372442.0,0.0,0.0,0.0,1668050952.070992
780801958.0,336.0,784599.0,372949.0,0.0,0.0,0.0,1668050953.120979
781851959.0,336.0,785649.0,373455.0,0.0,0.0,0.0,1668050954.17098
782901972.0,336.0,786699.0,373962.0,0.0,0.0,0.0,1668050955.220993
783951956.0,336.0,787749.0,374469.0,0.0,0.0,0.0,1668050956.270977
785001975.0,336.0,788799.0,374975.0,0.0,0.0,0.0,1668050957.320996
786051958.0,336.0,789849.0,375482.0,0.0,0.0,0.0,1668050958.370979
787101954.0,336.0,790899.0,375990.0,0.0,0.0,0.0,1668050959.420975
788151966.0,336.0,791949.0,376496.0,0.0,0.0,0.0,1668050960.470987
789201956.0,336.0,792999.0,377004.0,0.0,0.0,0.0,1668050961.520977
790251954.0,336.0,794049.0,377511.0,0.0,0.0,0.0,1668050962.570975
791301959.0,336.0,795099.0,378017.0,0.0,0.0,0.0,1668050963.62098
792351957.0,336.0,796149.0,378525.0,0.0,0.0,0.0,1668050964.670978
793401956.0,336.0,797199.0,379034.0,0.0,0.0,0.0,1668050965.720977
794451959.0,336.0,798249.0,379540.0,0.0,0.0,0.0,1668050966.77098
795501966.0,336.0,799299.0,380047.0,0.0,0.0,0.0,1668050967.820987
796551968.0,336.0,800349.0,380555.0,0.0,0.0,0.0,1668050968.870989
797601958.0,336.0,801399.0,381061.0,0.0,0.0,0.0,1668050969.920979
798651953.0,336.0,802449.0,381568.0,0.0,0.0,0.0,1668050970.970974
799701954.0,336.0,803499.0,382075.0,0.0,0.0,0.0,1668050972.0209749
800751961.0,336.0,804549.0,382581.0,0.0,0.0,0.0,1668050973.070982
801801960.0,336.0,805599.0,383088.0,0.0,0.0,0.0,1668050974.120981
802851964.0,336.0,806649.0,383595.0,0.0,0.0,0.0,1668050975.170985
803901971.0,336.0,807699.0,384101.0,0.0,0.0,0.0,1668050976.220992
804951962.0,336.0,808749.0,384608.0,0.0,0.0,0.0,1668050977.270983
806001960.0,336.0,809799.0,385115.0,0.0,0.0,0.0,1668050978.320981
807051954.0,336.0,810849.0,385622.0,0.0,0.0,0.0,1668050979.370975
808101972.0,336.0,811899.0,386129.0,0.0,0.0,0.0,1668050980.420993
809151971.0,336.0,812949.0,386636.0,0.0,0.0,0.0,1668050981.470992
810201964.0,336.0,813999.0,387142.0,0.0,0.0,0.0,1668050982.520985
811251973.0,336.0,815049.0,387649.0,0.0,0.0,0.0,1668050983.570994
812301968.0,336.0,816099.0,388156.0,0.0,0.0,0.0,1668050984.620989
813351950.0,336.0,817149.0,388662.0,0.0,0.0,0.0,1668050985.670971
814401956.0,336.0,818199.0,389169.0,0.0,0.0,0.0,1668050986.720977
815451962.0,336.0,819249.0,389676.0,0.0,0.0,0.0,1668050987.770983
816501961.0,336.0,820299.0,390182.0,0.0,0.0,0.0,1668050988.820982
817551975.0,336.0,821349.0,390689.0,0.0,0.0,0.0,1668050989.870996
818601959.0,336.0,822399.0,391196.0,0.0,0.0,0.0,1668050990.92098
819651959.0,336.0,823449.0,391703.0,0.0,0.0,0.0,1668050991.97098
820701962.0,336.0,824499.0,392210.0,0.0,0.0,0.0,1668050993.020983
821751965.0,336.0,825549.0,392717.0,0.0,0.0,0.0,1668050994.070986
822801978.0,336.0,826600.0,393223.0,0.0,0.0,0.0,1668050995.120999
823851953.0,336.0,827649.0,393731.0,0.0,0.0,0.0,1668050996.170974
824901992.0,336.0,828700.0,394238.0,0.0,0.0,0.0,1668050997.221013
825951963.0,336.0,829749.0,394744.0,0.0,0.0,0.0,1668050998.270984
827001980.0,336.0,830799.0,395251.0,0.0,0.0,0.0,1668050999.321001
828051978.0,336.0,831849.0,395758.0,0.0,0.0,0.0,1668051000.370999
829101964.0,336.0,832900.0,396264.0,0.0,0.0,0.0,1668051001.420985
830151959.0,336.0,833949.0,396772.0,0.0,0.0,0.0,1668051002.47098
831201974.0,336.0,835000.0,397279.0,0.0,0.0,0.0,1668051003.520995
832251960.0,336.0,836049.0,397785.0,0.0,0.0,0.0,1668051004.570981
833301971.0,336.0,837100.0,398292.0,0.0,0.0,0.0,1668051005.620992
834351962.0,336.0,838150.0,398799.0,0.0,0.0,0.0,1668051006.670983
835401962.0,336.0,839199.0,399305.0,0.0,0.0,0.0,1668051007.720983
836451972.0,336.0,840250.0,399812.0,0.0,0.0,0.0,1668051008.770993
837501988.0,336.0,841300.0,400319.0,0.0,0.0,0.0,1668051009.821009
838551959.0,336.0,842350.0,400825.0,0.0,0.0,0.0,1668051010.87098
839601963.0,336.0,843400.0,401333.0,0.0,0.0,0.0,1668051011.920984
840651956.0,336.0,844450.0,401840.0,0.0,0.0,0.0,1668051012.970977
841701975.0,336.0,845500.0,402346.0,0.0,0.0,0.0,1668051014.020996
842749458.0,336.0,846547.0,402853.0,0.0,0.0,0.0,1668051015.068479
843799480.0,336.0,847597.0,403360.0,0.0,0.0,0.0,1668051016.118501
844849474.0,336.0,848647.0,403866.0,0.0,0.0,0.0,1668051017.168495
845899483.0,336.0,849697.0,404373.0,0.0,0.0,0.0,1668051018.218504
846949454.0,336.0,850747.0,404880.0,0.0,0.0,0.0,1668051019.268475
847999467.0,336.0,851797.0,405386.0,0.0,0.0,0.0,1668051020.318488
849049448.0,336.0,852847.0,405893.0,0.0,0.0,0.0,1668051021.368469
850099464.0,336.0,853897.0,406400.0,0.0,0.0,0.0,1668051022.418485
851149468.0,336.0,854947.0,406906.0,0.0,0.0,0.0,1668051023.468489
852199453.0,336.0,855997.0,407413.0,0.0,0.0,0.0,1668051024.518474
853249453.0,336.0,857047.0,407920.0,0.0,0.0,0.0,1668051025.568474
854299458.0,336.0,858097.0,408426.0,0.0,0.0,0.0,1668051026.618479
855349454.0,336.0,859147.0,408934.0,0.0,0.0,0.0,1668051027.668475
856399457.0,336.0,860197.0,409443.0,0.0,0.0,0.0,1668051028.718478
857449470.0,336.0,861247.0,409949.0,0.0,0.0,0.0,1668051029.768491
858499485.0,336.0,862297.0,410456.0,0.0,0.0,0.0,1668051030.818506
859549462.0,336.0,863347.0,410963.0,0.0,0.0,0.0,1668051031.868483
860599495.0,336.0,864397.0,411469.0,0.0,0.0,0.0,1668051032.918516
861649467.0,336.0,865447.0,411976.0,0.0,0.0,0.0,1668051033.968488
862699453.0,336.0,866497.0,412483.0,0.0,0.0,0.0,1668051035.018474
863749462.0,336.0,867547.0,412989.0,0.0,0.0,0.0,1668051036.0684829
864799463.0,336.0,868597.0,413496.0,0.0,0.0,0.0,1668051037.118484
865849460.0,336.0,869647.0,414003.0,0.0,0.0,0.0,1668051038.1684809
866899454.0,336.0,870697.0,414509.0,0.0,0.0,0.0,1668051039.218475
867949458.0,336.0,871747.0,415016.0,0.0,0.0,0.0,1668051040.2684789
868999475.0,336.0,872797.0,415523.0,0.0,0.0,0.0,1668051041.318496
870049462.0,336.0,873847.0,416029.0,0.0,0.0,0.0,1668051042.368483
871099473.0,336.0,874897.0,416536.0,0.0,0.0,0.0,1668051043.418494
872149464.0,336.0,875947.0,417043.0,0.0,0.0,0.0,1668051044.4684849
873199459.0,336.0,876997.0,417549.0,0.0,0.0,0.0,1668051045.51848
874249466.0,336.0,878047.0,418056.0,0.0,0.0,0.0,1668051046.568487
875299454.0,336.0,879097.0,418563.0,0.0,0.0,0.0,1668051047.618475
876349461.0,336.0,880147.0,419069.0,0.0,0.0,0.0,1668051048.668482
877399458.0,336.0,881197.0,419577.0,0.0,0.0,0.0,1668051049.718479
878449469.0,336.0,882247.0,420084.0,0.0,0.0,0.0,1668051050.76849
879499465.0,336.0,883297.0,420590.0,0.0,0.0,0.0,1668051051.818486
880549469.0,336.0,884347.0,421097.0,0.0,0.0,0.0,1668051052.86849
881599452.0,336.0,885397.0,421604.0,0.0,0.0,0.0,1668051053.918473
882649469.0,336.0,886447.0,422110.0,0.0,0.0,0.0,1668051054.96849
883699463.0,336.0,887497.0,422617.0,0.0,0.0,0.0,1668051056.0184839
884749456.0,336.0,888547.0,423124.0,0.0,0.0,0.0,1668051057.068477
885799454.0,336.0,889597.0,423630.0,0.0,0.0,0.0,1668051058.118475
886849463.0,336.0,890647.0,424137.0,0.0,0.0,0.0,1668051059.168484
887899470.0,336.0,891697.0,424644.0,0.0,0.0,0.0,1668051060.218491
888949462.0,336.0,892747.0,425150.0,0.0,0.0,0.0,1668051061.268483
889999469.0,336.0,893797.0,425657.0,0.0,0.0,0.0,1668051062.31849
891049451.0,336.0,894847.0,426164.0,0.0,0.0,0.0,1668051063.368472
892099465.0,336.0,895897.0,426670.0,0.0,0.0,0.0,1668051064.4184859
893149473.0,336.0,896947.0,427177.0,0.0,0.0,0.0,1668051065.468494
894199527.0,336.0,897997.0,427684.0,0.0,0.0,0.0,1668051066.518548
895249460.0,336.0,899047.0,428190.0,0.0,0.0,0.0,1668051067.568481
896299449.0,336.0,900097.0,428697.0,0.0,0.0,0.0,1668051068.61847
897349463.0,336.0,901147.0,429204.0,0.0,0.0,0.0,1668051069.668484
898399466.0,336.0,902197.0,429710.0,0.0,0.0,0.0,1668051070.718487
899449467.0,336.0,903247.0,430217.0,0.0,0.0,0.0,1668051071.768488
900499456.0,336.0,904297.0,430725.0,0.0,0.0,0.0,1668051072.818477
901549462.0,336.0,905347.0,431231.0,0.0,0.0,0.0,1668051073.868483
902599476.0,336.0,906397.0,431738.0,0.0,0.0,0.0,1668051074.918497
903649461.0,336.0,907447.0,432245.0,0.0,0.0,0.0,1668051075.968482
904699462.0,336.0,908497.0,432751.0,0.0,0.0,0.0,1668051077.018483
905749472.0,336.0,909547.0,433258.0,0.0,0.0,0.0,1668051078.068493
906799487.0,336.0,910597.0,433765.0,0.0,0.0,0.0,1668051079.118508
907849455.0,336.0,911647.0,434271.0,0.0,0.0,0.0,1668051080.168476
908899463.0,336.0,912698.0,434778.0,0.0,0.0,0.0,1668051081.218484
909949450.0,336.0,913747.0,435285.0,0.0,0.0,0.0,1668051082.268471
910999466.0,336.0,914797.0,435791.0,0.0,0.0,0.0,1668051083.318487
912049463.0,336.0,915847.0,436298.0,0.0,0.0,0.0,1668051084.368484
913099460.0,336.0,916898.0,436805.0,0.0,0.0,0.0,1668051085.4184809
914149463.0,336.0,917948.0,437311.0,0.0,0.0,0.0,1668051086.468484
915199462.0,336.0,918998.0,437818.0,0.0,0.0,0.0,1668051087.518483
916249456.0,336.0,920048.0,438325.0,0.0,0.0,0.0,1668051088.568477
917299466.0,336.0,921098.0,438831.0,0.0,0.0,0.0,1668051089.618487
918349471.0,336.0,922148.0,439338.0,0.0,0.0,0.0,1668051090.668492
919399500.0,336.0,923198.0,439845.0,0.0,0.0,0.0,1668051091.7185209
920449461.0,336.0,924248.0,440351.0,0.0,0.0,0.0,1668051092.768482
921499467.0,336.0,925298.0,440858.0,0.0,0.0,0.0,1668051093.818488
922549458.0,336.0,926348.0,441365.0,0.0,0.0,0.0,1668051094.868479
923599449.0,336.0,927398.0,441871.0,0.0,0.0,0.0,1668051095.91847
924649461.0,336.0,928448.0,442378.0,0.0,0.0,0.0,1668051096.968482
925699472.0,336.0,929498.0,442886.0,0.0,0.0,0.0,1668051098.018493
926749460.0,336.0,930548.0,443392.0,0.0,0.0,0.0,1668051099.068481
927799465.0,336.0,931598.0,443899.0,0.0,0.0,0.0,1668051100.118486
928849456.0,336.0,932648.0,444406.0,0.0,0.0,0.0,1668051101.168477
929899457.0,336.0,933698.0,444912.0,0.0,0.0,0.0,1668051102.218478
930949463.0,336.0,934748.0,445419.0,0.0,0.0,0.0,1668051103.2684839
931999455.0,336.0,935798.0,445926.0,0.0,0.0,0.0,1668051104.318476
933049469.0,336.0,936848.0,446432.0,0.0,0.0,0.0,1668051105.36849
934099463.0,336.0,937898.0,446939.0,0.0,0.0,0.0,1668051106.418484
935149459.0,336.0,938948.0,447446.0,0.0,0.0,0.0,1668051107.4684799
936199465.0,336.0,939998.0,447953.0,0.0,0.0,0.0,1668051108.518486
937249461.0,336.0,941048.0,448460.0,0.0,0.0,0.0,1668051109.568482
938299462.0,336.0,942098.0,448967.0,0.0,0.0,0.0,1668051110.618483
939349461.0,336.0,943148.0,449473.0,0.0,0.0,0.0,1668051111.668482
940399453.0,336.0,944198.0,449980.0,0.0,0.0,0.0,1668051112.718474
941449456.0,336.0,945248.0,450487.0,0.0,0.0,0.0,1668051113.768477
942499481.0,336.0,946298.0,450993.0,0.0,0.0,0.0,1668051114.818502
943549469.0,336.0,947348.0,451500.0,0.0,0.0,0.0,1668051115.86849
944599474.0,336.0,948398.0,452007.0,0.0,0.0,0.0,1668051116.918495
945649458.0,336.0,949448.0,452513.0,0.0,0.0,0.0,1668051117.968479
946699503.0,336.0,950498.0,453020.0,0.0,0.0,0.0,1668051119.018524
947749459.0,336.0,951548.0,453527.0,0.0,0.0,0.0,1668051120.06848
948799476.0,336.0,952598.0,454033.0,0.0,0.0,0.0,1668051121.118497
949848680.0,336.0,953647.0,454535.0,0.0,0.0,0.0,1668051122.167701
950898683.0,336.0,954697.0,455044.0,0.0,0.0,0.0,1668051123.217704
951948681.0,336.0,955747.0,455550.0,0.0,0.0,0.0,1668051124.267702
952998679.0,336.0,956797.0,456057.0,0.0,0.0,0.0,1668051125.3177
954048675.0,336.0,957847.0,456564.0,0.0,0.0,0.0,1668051126.367696
955098689.0,336.0,958897.0,457071.0,0.0,0.0,0.0,1668051127.41771
956148676.0,336.0,959947.0,457578.0,0.0,0.0,0.0,1668051128.467697
957198681.0,336.0,960997.0,458085.0,0.0,0.0,0.0,1668051129.517702
958248683.0,336.0,962047.0,458592.0,0.0,0.0,0.0,1668051130.567704
959298669.0,336.0,963097.0,459099.0,0.0,0.0,0.0,1668051131.61769
960348704.0,336.0,964147.0,459606.0,0.0,0.0,0.0,1668051132.667725
961398674.0,336.0,965197.0,460112.0,0.0,0.0,0.0,1668051133.717695
962448673.0,336.0,966247.0,460619.0,0.0,0.0,0.0,1668051134.767694
963498681.0,336.0,967297.0,461126.0,0.0,0.0,0.0,1668051135.817702
964548680.0,336.0,968347.0,461632.0,0.0,0.0,0.0,1668051136.867701
969796190.0,336.0,973595.0,464168.0,0.0,0.0,0.0,1668051142.115211
970846176.0,336.0,974645.0,464674.0,0.0,0.0,0.0,1668051143.165197
971896199.0,336.0,975695.0,465181.0,0.0,0.0,0.0,1668051144.21522
972946188.0,336.0,976745.0,465688.0,0.0,0.0,0.0,1668051145.265209
973996211.0,336.0,977795.0,466194.0,0.0,0.0,0.0,1668051146.315232
975046200.0,336.0,978845.0,466701.0,0.0,0.0,0.0,1668051147.365221
976096205.0,336.0,979895.0,467208.0,0.0,0.0,0.0,1668051148.415226
977146197.0,336.0,980945.0,467714.0,0.0,0.0,0.0,1668051149.465218
978196204.0,336.0,981995.0,468221.0,0.0,0.0,0.0,1668051150.515225
979246208.0,336.0,983045.0,468728.0,0.0,0.0,0.0,1668051151.565229
980296222.0,336.0,984095.0,469234.0,0.0,0.0,0.0,1668051152.615243
981346187.0,336.0,985145.0,469741.0,0.0,0.0,0.0,1668051153.665208
982396208.0,336.0,986195.0,470249.0,0.0,0.0,0.0,1668051154.715229
983446196.0,336.0,987245.0,470755.0,0.0,0.0,0.0,1668051155.765217
984496190.0,336.0,988295.0,471262.0,0.0,0.0,0.0,1668051156.815211
985546200.0,336.0,989345.0,471769.0,0.0,0.0,0.0,1668051157.865221
986596195.0,336.0,990395.0,472275.0,0.0,0.0,0.0,1668051158.915216
987646200.0,336.0,991445.0,472783.0,0.0,0.0,0.0,1668051159.965221
988696204.0,336.0,992495.0,473290.0,0.0,0.0,0.0,1668051161.015225
989746182.0,336.0,993545.0,473796.0,0.0,0.0,0.0,1668051162.065203
990796192.0,336.0,994595.0,474303.0,0.0,0.0,0.0,1668051163.115213
991846201.0,336.0,995645.0,474810.0,0.0,0.0,0.0,1668051164.165222
992896213.0,336.0,996695.0,475316.0,0.0,0.0,0.0,1668051165.215234
993946197.0,336.0,997745.0,475823.0,0.0,0.0,0.0,1668051166.265218
994996201.0,336.0,998795.0,476330.0,0.0,0.0,0.0,1668051167.315222
996046199.0,336.0,999845.0,476836.0,0.0,0.0,0.0,1668051168.36522
997096189.0,336.0,1000895.0,477343.0,0.0,0.0,0.0,1668051169.41521
998146194.0,336.0,1001945.0,477850.0,0.0,0.0,0.0,1668051170.465215
999196189.0,336.0,1002995.0,478356.0,0.0,0.0,0.0,1668051171.51521
1000246191.0,336.0,1004045.0,478863.0,0.0,0.0,0.0,1668051172.565212
1001296198.0,336.0,1005095.0,479370.0,0.0,0.0,0.0,1668051173.6152189
1002346247.0,336.0,1006145.0,479876.0,0.0,0.0,0.0,1668051174.665268
1003396196.0,336.0,1007195.0,480383.0,0.0,0.0,0.0,1668051175.7152169
1004446191.0,336.0,1008245.0,480890.0,0.0,0.0,0.0,1668051176.765212
1005496195.0,336.0,1009295.0,481396.0,0.0,0.0,0.0,1668051177.815216
1006546200.0,336.0,1010345.0,481903.0,0.0,0.0,0.0,1668051178.865221
1007596210.0,336.0,1011395.0,482410.0,0.0,0.0,0.0,1668051179.915231
1008646197.0,336.0,1012445.0,482916.0,0.0,0.0,0.0,1668051180.965218
1009696223.0,336.0,1013495.0,483423.0,0.0,0.0,0.0,1668051182.015244
1010746189.0,336.0,1014545.0,483931.0,0.0,0.0,0.0,1668051183.06521
1011796205.0,336.0,1015595.0,484437.0,0.0,0.0,0.0,1668051184.115226
1012846190.0,336.0,1016645.0,484944.0,0.0,0.0,0.0,1668051185.165211
1013896199.0,336.0,1017695.0,485451.0,0.0,0.0,0.0,1668051186.21522
1014946203.0,336.0,1018745.0,485957.0,0.0,0.0,0.0,1668051187.265224
1015996193.0,336.0,1019795.0,486464.0,0.0,0.0,0.0,1668051188.315214
1017046202.0,336.0,1020845.0,486971.0,0.0,0.0,0.0,1668051189.365223
1018096190.0,336.0,1021895.0,487477.0,0.0,0.0,0.0,1668051190.415211
1019146187.0,336.0,1022945.0,487984.0,0.0,0.0,0.0,1668051191.465208
1020196203.0,336.0,1023995.0,488491.0,0.0,0.0,0.0,1668051192.515224
1021246187.0,336.0,1025045.0,488997.0,0.0,0.0,0.0,1668051193.565208
1022296205.0,336.0,1026095.0,489504.0,0.0,0.0,0.0,1668051194.615226
1023346203.0,336.0,1027145.0,490011.0,0.0,0.0,0.0,1668051195.665224
1024396211.0,336.0,1028195.0,490517.0,0.0,0.0,0.0,1668051196.715232
1025446198.0,336.0,1029245.0,491024.0,0.0,0.0,0.0,1668051197.765219
1026496203.0,336.0,1030295.0,491531.0,0.0,0.0,0.0,1668051198.815224
1027546203.0,336.0,1031345.0,492037.0,0.0,0.0,0.0,1668051199.865224
1028593721.0,336.0,1032392.0,492544.0,0.0,0.0,0.0,1668051200.912742
1029644155.0,336.0,1033443.0,493051.0,0.0,0.0,0.0,1668051201.963176
1030693702.0,336.0,1034492.0,493557.0,0.0,0.0,0.0,1668051203.012723
1031743695.0,336.0,1035543.0,494064.0,0.0,0.0,0.0,1668051204.062716
1032794150.0,336.0,1036593.0,494571.0,0.0,0.0,0.0,1668051205.113171
1033843692.0,336.0,1037642.0,495077.0,0.0,0.0,0.0,1668051206.162713
1034893692.0,336.0,1038693.0,495586.0,0.0,0.0,0.0,1668051207.212713
1035943714.0,336.0,1039743.0,496093.0,0.0,0.0,0.0,1668051208.262735
1036993695.0,336.0,1040793.0,496599.0,0.0,0.0,0.0,1668051209.312716
1038043691.0,336.0,1041843.0,497106.0,0.0,0.0,0.0,1668051210.362712
1039093718.0,336.0,1042893.0,497613.0,0.0,0.0,0.0,1668051211.412739
1040143685.0,336.0,1043943.0,498119.0,0.0,0.0,0.0,1668051212.462706
1041193685.0,336.0,1044993.0,498626.0,0.0,0.0,0.0,1668051213.512706
1042243702.0,336.0,1046043.0,499134.0,0.0,0.0,0.0,1668051214.562723
1043293695.0,336.0,1047093.0,499640.0,0.0,0.0,0.0,1668051215.612716
1044343701.0,336.0,1048143.0,500147.0,0.0,0.0,0.0,1668051216.6627219
1045393697.0,336.0,1049193.0,500654.0,0.0,0.0,0.0,1668051217.712718
1046443704.0,336.0,1050243.0,501160.0,0.0,0.0,0.0,1668051218.7627249
1047493698.0,336.0,1051293.0,501667.0,0.0,0.0,0.0,1668051219.8127189
1048543686.0,336.0,1052343.0,502174.0,0.0,0.0,0.0,1668051220.862707
1049593757.0,336.0,1053393.0,502680.0,0.0,0.0,0.0,1668051221.912778
1050643707.0,336.0,1054443.0,503187.0,0.0,0.0,0.0,1668051222.962728
1051693693.0,336.0,1055493.0,503694.0,0.0,0.0,0.0,1668051224.012714
1052743705.0,336.0,1056543.0,504200.0,0.0,0.0,0.0,1668051225.062726
1053793697.0,336.0,1057593.0,504707.0,0.0,0.0,0.0,1668051226.112718
1054843688.0,336.0,1058643.0,505214.0,0.0,0.0,0.0,1668051227.162709
1055893710.0,336.0,1059693.0,505720.0,0.0,0.0,0.0,1668051228.212731
1056943704.0,336.0,1060743.0,506227.0,0.0,0.0,0.0,1668051229.2627249
1057993715.0,336.0,1061793.0,506734.0,0.0,0.0,0.0,1668051230.312736
1059043731.0,336.0,1062843.0,507240.0,0.0,0.0,0.0,1668051231.362752
1060093691.0,336.0,1063893.0,507747.0,0.0,0.0,0.0,1668051232.412712
1061143694.0,336.0,1064943.0,508254.0,0.0,0.0,0.0,1668051233.462715
1062193705.0,336.0,1065993.0,508760.0,0.0,0.0,0.0,1668051234.512726
1063243717.0,336.0,1067043.0,509267.0,0.0,0.0,0.0,1668051235.562738
1064293688.0,336.0,1068093.0,509774.0,0.0,0.0,0.0,1668051236.612709
1065343697.0,336.0,1069143.0,510280.0,0.0,0.0,0.0,1668051237.662718
1066393697.0,336.0,1070193.0,510787.0,0.0,0.0,0.0,1668051238.712718
1067443693.0,336.0,1071243.0,511294.0,0.0,0.0,0.0,1668051239.762714
1068493698.0,336.0,1072293.0,511800.0,0.0,0.0,0.0,1668051240.8127189
1069543691.0,336.0,1073343.0,512308.0,0.0,0.0,0.0,1668051241.862712
1070593703.0,336.0,1074393.0,512815.0,0.0,0.0,0.0,1668051242.912724
1071643702.0,336.0,1075443.0,513321.0,0.0,0.0,0.0,1668051243.962723
1072693693.0,336.0,1076493.0,513828.0,0.0,0.0,0.0,1668051245.012714
1073743700.0,336.0,1077543.0,514335.0,0.0,0.0,0.0,1668051246.062721
1074793731.0,336.0,1078593.0,514841.0,0.0,0.0,0.0,1668051247.112752
1075843720.0,336.0,1079643.0,515348.0,0.0,0.0,0.0,1668051248.162741
1076893709.0,336.0,1080693.0,515856.0,0.0,0.0,0.0,1668051249.21273
1077943699.0,336.0,1081743.0,516362.0,0.0,0.0,0.0,1668051250.2627199
1078993702.0,336.0,1082793.0,516869.0,0.0,0.0,0.0,1668051251.312723
1080043694.0,336.0,1083843.0,517376.0,0.0,0.0,0.0,1668051252.362715
1081093697.0,336.0,1084893.0,517883.0,0.0,0.0,0.0,1668051253.412718
1082143695.0,336.0,1085943.0,518390.0,0.0,0.0,0.0,1668051254.462716
1083193718.0,336.0,1086993.0,518897.0,0.0,0.0,0.0,1668051255.512739
1084243706.0,336.0,1088043.0,519403.0,0.0,0.0,0.0,1668051256.562727
1085293714.0,336.0,1089093.0,519910.0,0.0,0.0,0.0,1668051257.612735
1086343694.0,336.0,1090143.0,520417.0,0.0,0.0,0.0,1668051258.662715
1087393719.0,336.0,1091193.0,520923.0,0.0,0.0,0.0,1668051259.71274
1088443694.0,336.0,1092243.0,521431.0,0.0,0.0,0.0,1668051260.762715
1089493695.0,336.0,1093293.0,521938.0,0.0,0.0,0.0,1668051261.812716
1090543715.0,336.0,1094343.0,522444.0,0.0,0.0,0.0,1668051262.862736
1091593697.0,336.0,1095393.0,522951.0,0.0,0.0,0.0,1668051263.912718
1092643698.0,336.0,1096443.0,523458.0,0.0,0.0,0.0,1668051264.962719
1093693698.0,336.0,1097493.0,523965.0,0.0,0.0,0.0,1668051266.012719
1094743688.0,336.0,1098543.0,524472.0,0.0,0.0,0.0,1668051267.062709
1095793740.0,336.0,1099593.0,524980.0,0.0,0.0,0.0,1668051268.112761
1096843693.0,336.0,1100643.0,525486.0,0.0,0.0,0.0,1668051269.162714
1097893692.0,336.0,1101693.0,525993.0,0.0,0.0,0.0,1668051270.212713
1098943705.0,336.0,1102743.0,526500.0,0.0,0.0,0.0,1668051271.262726
1099993697.0,336.0,1103793.0,527006.0,0.0,0.0,0.0,1668051272.312718
1101043708.0,336.0,1104843.0,527514.0,0.0,0.0,0.0,1668051273.362729
1102093695.0,336.0,1105893.0,528022.0,0.0,0.0,0.0,1668051274.412716
1103143700.0,336.0,1106943.0,528528.0,0.0,0.0,0.0,1668051275.4627209
1104193687.0,336.0,1107993.0,529035.0,0.0,0.0,0.0,1668051276.512708
1105243706.0,336.0,1109043.0,529542.0,0.0,0.0,0.0,1668051277.562727
1106293710.0,336.0,1110093.0,530048.0,0.0,0.0,0.0,1668051278.612731
1107343695.0,336.0,1111143.0,530555.0,0.0,0.0,0.0,1668051279.662716
1108393692.0,336.0,1112193.0,531062.0,0.0,0.0,0.0,1668051280.712713
1109443684.0,336.0,1113243.0,531568.0,0.0,0.0,0.0,1668051281.762705
1110493687.0,336.0,1114293.0,532075.0,0.0,0.0,0.0,1668051282.812708
1111543703.0,336.0,1115343.0,532582.0,0.0,0.0,0.0,1668051283.862724
1112593701.0,336.0,1116393.0,533088.0,0.0,0.0,0.0,1668051284.9127219
1113643687.0,336.0,1117443.0,533595.0,0.0,0.0,0.0,1668051285.962708
1114693691.0,336.0,1118493.0,534102.0,0.0,0.0,0.0,1668051287.012712
1115743702.0,336.0,1119543.0,534609.0,0.0,0.0,0.0,1668051288.062723
1116793695.0,336.0,1120593.0,535116.0,0.0,0.0,0.0,1668051289.112716
1117843693.0,336.0,1121643.0,535623.0,0.0,0.0,0.0,1668051290.162714
1118893697.0,336.0,1122693.0,536129.0,0.0,0.0,0.0,1668051291.212718
1119943700.0,336.0,1123743.0,536636.0,0.0,0.0,0.0,1668051292.262721
1120993699.0,336.0,1124793.0,537143.0,0.0,0.0,0.0,1668051293.31272
1122043700.0,336.0,1125843.0,537649.0,0.0,0.0,0.0,1668051294.362721
1123093701.0,336.0,1126893.0,538156.0,0.0,0.0,0.0,1668051295.4127219
1124143688.0,336.0,1127943.0,538663.0,0.0,0.0,0.0,1668051296.462709
1125193704.0,336.0,1128993.0,539169.0,0.0,0.0,0.0,1668051297.5127249
1126243693.0,336.0,1130043.0,539676.0,0.0,0.0,0.0,1668051298.562714
1127293692.0,336.0,1131093.0,540184.0,0.0,0.0,0.0,1668051299.612713
1128343702.0,336.0,1132143.0,540691.0,0.0,0.0,0.0,1668051300.662723
1129393693.0,336.0,1133193.0,541198.0,0.0,0.0,0.0,1668051301.712714
1130441640.0,336.0,1134241.0,541705.0,0.0,0.0,0.0,1668051302.760661
1131491194.0,336.0,1135291.0,542211.0,0.0,0.0,0.0,1668051303.810215
1132541200.0,336.0,1136341.0,542718.0,0.0,0.0,0.0,1668051304.860221
1133591672.0,336.0,1137391.0,543226.0,0.0,0.0,0.0,1668051305.910693
1134641205.0,336.0,1138441.0,543732.0,0.0,0.0,0.0,1668051306.960226
1135691197.0,336.0,1139491.0,544239.0,0.0,0.0,0.0,1668051308.010218
1136741651.0,336.0,1140541.0,544746.0,0.0,0.0,0.0,1668051309.060672
1137791199.0,336.0,1141591.0,545252.0,0.0,0.0,0.0,1668051310.11022
1138841210.0,336.0,1142641.0,545759.0,0.0,0.0,0.0,1668051311.1602309
1139891657.0,336.0,1143691.0,546266.0,0.0,0.0,0.0,1668051312.210678
1140941193.0,336.0,1144741.0,546772.0,0.0,0.0,0.0,1668051313.260214
1141991200.0,336.0,1145791.0,547280.0,0.0,0.0,0.0,1668051314.310221
1143041653.0,336.0,1146841.0,547787.0,0.0,0.0,0.0,1668051315.360674
1144091186.0,336.0,1147891.0,548293.0,0.0,0.0,0.0,1668051316.410207
1145141206.0,336.0,1148941.0,548800.0,0.0,0.0,0.0,1668051317.460227
1146191664.0,336.0,1149991.0,549307.0,0.0,0.0,0.0,1668051318.510685
1147241212.0,336.0,1151041.0,549813.0,0.0,0.0,0.0,1668051319.5602329
1148291198.0,336.0,1152091.0,550320.0,0.0,0.0,0.0,1668051320.610219
1149341646.0,336.0,1153141.0,550827.0,0.0,0.0,0.0,1668051321.660667
1150391192.0,336.0,1154191.0,551334.0,0.0,0.0,0.0,1668051322.710213
1151441188.0,336.0,1155241.0,551841.0,0.0,0.0,0.0,1668051323.760209
1152491648.0,336.0,1156291.0,552349.0,0.0,0.0,0.0,1668051324.810669
1153541197.0,336.0,1157341.0,552855.0,0.0,0.0,0.0,1668051325.860218
1154591197.0,336.0,1158391.0,553362.0,0.0,0.0,0.0,1668051326.910218
1155641649.0,336.0,1159441.0,553869.0,0.0,0.0,0.0,1668051327.96067
1156691200.0,336.0,1160491.0,554375.0,0.0,0.0,0.0,1668051329.010221
1157741199.0,336.0,1161541.0,554882.0,0.0,0.0,0.0,1668051330.06022
1158791680.0,336.0,1162591.0,555389.0,0.0,0.0,0.0,1668051331.110701
1159841238.0,336.0,1163641.0,555895.0,0.0,0.0,0.0,1668051332.160259
1160891203.0,336.0,1164691.0,556402.0,0.0,0.0,0.0,1668051333.210224
1161941659.0,336.0,1165741.0,556909.0,0.0,0.0,0.0,1668051334.26068
1162991191.0,336.0,1166791.0,557415.0,0.0,0.0,0.0,1668051335.310212
1164041207.0,336.0,1167841.0,557924.0,0.0,0.0,0.0,1668051336.360228
1165091641.0,336.0,1168891.0,558431.0,0.0,0.0,0.0,1668051337.410662
1166141199.0,336.0,1169941.0,558937.0,0.0,0.0,0.0,1668051338.46022
1167191207.0,336.0,1170991.0,559444.0,0.0,0.0,0.0,1668051339.510228
1168241654.0,336.0,1172041.0,559951.0,0.0,0.0,0.0,1668051340.560675
1169291194.0,336.0,1173091.0,560457.0,0.0,0.0,0.0,1668051341.610215
1170341200.0,336.0,1174141.0,560964.0,0.0,0.0,0.0,1668051342.660221
1171391636.0,336.0,1175191.0,561471.0,0.0,0.0,0.0,1668051343.710657
1172441191.0,336.0,1176241.0,561977.0,0.0,0.0,0.0,1668051344.760212
1173491192.0,336.0,1177291.0,562485.0,0.0,0.0,0.0,1668051345.810213
1174541074.0,336.0,1178341.0,562985.0,0.0,0.0,0.0,1668051346.860095
1175591077.0,336.0,1179391.0,563495.0,0.0,0.0,0.0,1668051347.910098
1176641078.0,336.0,1180441.0,564003.0,0.0,0.0,0.0,1668051348.960099
1177691075.0,336.0,1181491.0,564509.0,0.0,0.0,0.0,1668051350.010096
1178741070.0,336.0,1182541.0,565016.0,0.0,0.0,0.0,1668051351.060091
1179791072.0,336.0,1183591.0,565523.0,0.0,0.0,0.0,1668051352.1100929
1180841099.0,336.0,1184641.0,566029.0,0.0,0.0,0.0,1668051353.16012
1181891073.0,336.0,1185691.0,566536.0,0.0,0.0,0.0,1668051354.210094
1182941073.0,336.0,1186741.0,567043.0,0.0,0.0,0.0,1668051355.260094
1183991073.0,336.0,1187791.0,567549.0,0.0,0.0,0.0,1668051356.3100939
1185041058.0,336.0,1188841.0,568056.0,0.0,0.0,0.0,1668051357.360079
1186091062.0,336.0,1189891.0,568563.0,0.0,0.0,0.0,1668051358.410083
1187141088.0,336.0,1190941.0,569069.0,0.0,0.0,0.0,1668051359.460109
1188191061.0,336.0,1191991.0,569576.0,0.0,0.0,0.0,1668051360.510082
1189241082.0,336.0,1193041.0,570083.0,0.0,0.0,0.0,1668051361.560103
