TimeUS,MagX,MagY,MagZ,OfsX,OfsY,OfsZ,MOfsX,MOfsY,MOfsZ,Health,S,timestamp
221040809.0,-453.0,93.0,232.0,0.0,0.0,0.0,0.0,0.0,0.0,1.0,221040796.0,1668050393.35983
221158495.0,-446.0,92.0,248.0,0.0,0.0,0.0,0.0,0.0,0.0,1.0,221158482.0,1668050393.477516
221258452.0,-445.0,92.0,244.0,0.0,0.0,0.0,0.0,0.0,0.0,1.0,221258439.0,1668050393.577473
221358469.0,-452.0,93.0,227.0,0.0,0.0,0.0,0.0,0.0,0.0,1.0,221358456.0,1668050393.67749
221458618.0,-453.0,93.0,226.0,0.0,0.0,0.0,0.0,0.0,0.0,1.0,221458601.0,1668050393.777639
221558804.0,-453.0,93.0,228.0,0.0,0.0,0.0,0.0,0.0,0.0,1.0,221558792.0,1668050393.877825
221658408.0,-452.0,95.0,223.0,0.0,0.0,0.0,0.0,0.0,0.0,1.0,221658395.0,1668050393.977429
221758703.0,-453.0,93.0,225.0,0.0,0.0,0.0,0.0,0.0,0.0,1.0,221758645.0,1668050394.077724
221858863.0,-452.0,93.0,226.0,0.0,0.0,0.0,0.0,0.0,0.0,1.0,221858850.0,1668050394.177884
221958712.0,-452.0,93.0,226.0,0.0,0.0,0.0,0.0,0.0,0.0,1.0,221958699.0,1668050394.277733
222058682.0,-451.0,93.0,226.0,0.0,0.0,0.0,0.0,0.0,0.0,1.0,222058669.0,1668050394.377703
222158517.0,-451.0,93.0,229.0,0.0,0.0,0.0,0.0,0.0,0.0,1.0,222158498.0,1668050394.4775379
222258824.0,-452.0,93.0,228.0,0.0,0.0,0.0,0.0,0.0,0.0,1.0,222258811.0,1668050394.577845
222358655.0,-451.0,93.0,227.0,0.0,0.0,0.0,0.0,0.0,0.0,1.0,222358641.0,1668050394.677676
222458858.0,-452.0,93.0,227.0,0.0,0.0,0.0,0.0,0.0,0.0,1.0,222458786.0,1668050394.777879
222558655.0,-452.0,93.0,226.0,0.0,0.0,0.0,0.0,0.0,0.0,1.0,222558642.0,1668050394.877676
222658787.0,-452.0,94.0,224.0,0.0,0.0,0.0,0.0,0.0,0.0,1.0,222658774.0,1668050394.977808
222758663.0,-452.0,93.0,227.0,0.0,0.0,0.0,0.0,0.0,0.0,1.0,222758650.0,1668050395.077684
222858392.0,-452.0,93.0,226.0,0.0,0.0,0.0,0.0,0.0,0.0,1.0,222858379.0,1668050395.177413
222958878.0,-452.0,93.0,226.0,0.0,0.0,0.0,0.0,0.0,0.0,1.0,222958865.0,1668050395.277899
223058850.0,-451.0,93.0,229.0,0.0,0.0,0.0,0.0,0.0,0.0,1.0,223058834.0,1668050395.377871
223158786.0,-452.0,93.0,228.0,0.0,0.0,0.0,0.0,0.0,0.0,1.0,223158772.0,1668050395.477807
223258917.0,-452.0,93.0,228.0,0.0,0.0,0.0,0.0,0.0,0.0,1.0,223258892.0,1668050395.577938
223358477.0,-452.0,93.0,228.0,0.0,0.0,0.0,0.0,0.0,0.0,1.0,223358464.0,1668050395.677498
223458702.0,-451.0,92.0,228.0,0.0,0.0,0.0,0.0,0.0,0.0,1.0,223458685.0,1668050395.777723
223558719.0,-452.0,93.0,228.0,0.0,0.0,0.0,0.0,0.0,0.0,1.0,223558706.0,1668050395.87774
223658692.0,-453.0,93.0,224.0,0.0,0.0,0.0,0.0,0.0,0.0,1.0,223658678.0,1668050395.9777129
223758420.0,-453.0,93.0,224.0,0.0,0.0,0.0,0.0,0.0,0.0,1.0,223758407.0,1668050396.077441
223858736.0,-452.0,93.0,227.0,0.0,0.0,0.0,0.0,0.0,0.0,1.0,223858698.0,1668050396.177757
223958511.0,-452.0,93.0,224.0,0.0,0.0,0.0,0.0,0.0,0.0,1.0,223958498.0,1668050396.277532
224058734.0,-452.0,93.0,228.0,0.0,0.0,0.0,0.0,0.0,0.0,1.0,224058721.0,1668050396.377755
224158784.0,-452.0,93.0,229.0,0.0,0.0,0.0,0.0,0.0,0.0,1.0,224158767.0,1668050396.477805
224258791.0,-452.0,93.0,227.0,0.0,0.0,0.0,0.0,0.0,0.0,1.0,224258774.0,1668050396.577812
224358716.0,-452.0,93.0,230.0,0.0,0.0,0.0,0.0,0.0,0.0,1.0,224358703.0,1668050396.677737
227258617.0,-448.0,91.0,241.0,0.0,0.0,0.0,0.0,0.0,0.0,1.0,227258447.0,1668050399.577638
227370773.0,-446.0,93.0,244.0,0.0,0.0,0.0,0.0,0.0,0.0,1.0,227370760.0,1668050399.689794
227470696.0,-444.0,93.0,242.0,0.0,0.0,0.0,0.0,0.0,0.0,1.0,227470683.0,1668050399.789717
227571031.0,-452.0,93.0,227.0,0.0,0.0,0.0,0.0,0.0,0.0,1.0,227571017.0,1668050399.890052
227670404.0,-452.0,93.0,226.0,0.0,0.0,0.0,0.0,0.0,0.0,1.0,227670391.0,1668050399.989425
227770657.0,-452.0,93.0,228.0,0.0,0.0,0.0,0.0,0.0,0.0,1.0,227770644.0,1668050400.089678
227870421.0,-451.0,93.0,228.0,0.0,0.0,0.0,0.0,0.0,0.0,1.0,227870408.0,1668050400.189442
227970598.0,-452.0,93.0,227.0,0.0,0.0,0.0,0.0,0.0,0.0,1.0,227970585.0,1668050400.289619
228070853.0,-451.0,93.0,228.0,0.0,0.0,0.0,0.0,0.0,0.0,1.0,228070840.0,1668050400.389874
228170446.0,-452.0,93.0,227.0,0.0,0.0,0.0,0.0,0.0,0.0,1.0,228170433.0,1668050400.489467
228270546.0,-452.0,93.0,227.0,0.0,0.0,0.0,0.0,0.0,0.0,1.0,228270442.0,1668050400.589567
228370691.0,-452.0,92.0,229.0,0.0,0.0,0.0,0.0,0.0,0.0,1.0,228370678.0,1668050400.689712
228470779.0,-452.0,93.0,228.0,0.0,0.0,0.0,0.0,0.0,0.0,1.0,228470765.0,1668050400.7898
228570841.0,-452.0,93.0,228.0,0.0,0.0,0.0,0.0,0.0,0.0,1.0,228570828.0,1668050400.889862
228670875.0,-451.0,93.0,225.0,0.0,0.0,0.0,0.0,0.0,0.0,1.0,228670862.0,1668050400.989896
228770719.0,-452.0,93.0,228.0,0.0,0.0,0.0,0.0,0.0,0.0,1.0,228770706.0,1668050401.08974
228870568.0,-452.0,93.0,225.0,0.0,0.0,0.0,0.0,0.0,0.0,1.0,228870556.0,1668050401.189589
228970825.0,-452.0,93.0,226.0,0.0,0.0,0.0,0.0,0.0,0.0,1.0,228970812.0,1668050401.289846
229070816.0,-448.0,92.0,240.0,0.0,0.0,0.0,0.0,0.0,0.0,1.0,229070803.0,1668050401.389837
229170922.0,-445.0,91.0,249.0,0.0,0.0,0.0,0.0,0.0,0.0,1.0,229170909.0,1668050401.489943
229270735.0,-446.0,91.0,240.0,0.0,0.0,0.0,0.0,0.0,0.0,1.0,229270722.0,1668050401.589756
229370749.0,-446.0,93.0,236.0,0.0,0.0,0.0,0.0,0.0,0.0,1.0,229370730.0,1668050401.68977
229470391.0,-446.0,92.0,239.0,0.0,0.0,0.0,0.0,0.0,0.0,1.0,229470378.0,1668050401.789412
229570790.0,-448.0,92.0,240.0,0.0,0.0,0.0,0.0,0.0,0.0,1.0,229570776.0,1668050401.889811
229670886.0,-445.0,92.0,241.0,0.0,0.0,0.0,0.0,0.0,0.0,1.0,229670872.0,1668050401.989907
229770643.0,-451.0,94.0,227.0,0.0,0.0,0.0,0.0,0.0,0.0,1.0,229770630.0,1668050402.089664
229870601.0,-453.0,93.0,226.0,0.0,0.0,0.0,0.0,0.0,0.0,1.0,229870588.0,1668050402.189622
229970756.0,-453.0,94.0,229.0,0.0,0.0,0.0,0.0,0.0,0.0,1.0,229970743.0,1668050402.289777
230070803.0,-451.0,92.0,228.0,0.0,0.0,0.0,0.0,0.0,0.0,1.0,230070790.0,1668050402.389824
233070811.0,-452.0,92.0,227.0,0.0,0.0,0.0,0.0,0.0,0.0,1.0,233070739.0,1668050405.389832
233183825.0,-448.0,92.0,251.0,0.0,0.0,0.0,0.0,0.0,0.0,1.0,233183812.0,1668050405.502846
233284028.0,-443.0,91.0,237.0,0.0,0.0,0.0,0.0,0.0,0.0,1.0,233283911.0,1668050405.603049
233384141.0,-450.0,91.0,236.0,0.0,0.0,0.0,0.0,0.0,0.0,1.0,233384128.0,1668050405.703162
233483934.0,-452.0,91.0,228.0,0.0,0.0,0.0,0.0,0.0,0.0,1.0,233483921.0,1668050405.802955
233583979.0,-452.0,92.0,229.0,0.0,0.0,0.0,0.0,0.0,0.0,1.0,233583962.0,1668050405.9029999
233684224.0,-453.0,93.0,224.0,0.0,0.0,0.0,0.0,0.0,0.0,1.0,233684212.0,1668050406.0032449
233783857.0,-453.0,93.0,228.0,0.0,0.0,0.0,0.0,0.0,0.0,1.0,233783843.0,1668050406.102878
233883823.0,-451.0,93.0,227.0,0.0,0.0,0.0,0.0,0.0,0.0,1.0,233883811.0,1668050406.202844
233984109.0,-452.0,92.0,229.0,0.0,0.0,0.0,0.0,0.0,0.0,1.0,233984072.0,1668050406.30313
234084027.0,-451.0,93.0,228.0,0.0,0.0,0.0,0.0,0.0,0.0,1.0,234084013.0,1668050406.403048
234184124.0,-451.0,92.0,230.0,0.0,0.0,0.0,0.0,0.0,0.0,1.0,234184112.0,1668050406.503145
234284052.0,-452.0,92.0,231.0,0.0,0.0,0.0,0.0,0.0,0.0,1.0,234284015.0,1668050406.603073
234383916.0,-451.0,93.0,231.0,0.0,0.0,0.0,0.0,0.0,0.0,1.0,234383903.0,1668050406.702937
234483960.0,-451.0,93.0,229.0,0.0,0.0,0.0,0.0,0.0,0.0,1.0,234483895.0,1668050406.802981
234584157.0,-451.0,92.0,227.0,0.0,0.0,0.0,0.0,0.0,0.0,1.0,234584144.0,1668050406.903178
234684099.0,-451.0,93.0,224.0,0.0,0.0,0.0,0.0,0.0,0.0,1.0,234684086.0,1668050407.00312
234784177.0,-453.0,93.0,228.0,0.0,0.0,0.0,0.0,0.0,0.0,1.0,234784123.0,1668050407.103198
234883896.0,-452.0,93.0,227.0,0.0,0.0,0.0,0.0,0.0,0.0,1.0,234883883.0,1668050407.202917
234983901.0,-452.0,92.0,231.0,0.0,0.0,0.0,0.0,0.0,0.0,1.0,234983888.0,1668050407.302922
235084190.0,-448.0,92.0,244.0,0.0,0.0,0.0,0.0,0.0,0.0,1.0,235084086.0,1668050407.4032109
235184205.0,-444.0,91.0,248.0,0.0,0.0,0.0,0.0,0.0,0.0,1.0,235184089.0,1668050407.503226
235284102.0,-450.0,91.0,247.0,0.0,0.0,0.0,0.0,0.0,0.0,1.0,235284089.0,1668050407.603123
235384322.0,-447.0,92.0,236.0,0.0,0.0,0.0,0.0,0.0,0.0,1.0,235384267.0,1668050407.703343
235484125.0,-444.0,92.0,246.0,0.0,0.0,0.0,0.0,0.0,0.0,1.0,235484089.0,1668050407.803146
235583991.0,-447.0,91.0,241.0,0.0,0.0,0.0,0.0,0.0,0.0,1.0,235583917.0,1668050407.903012
235684141.0,-446.0,93.0,240.0,0.0,0.0,0.0,0.0,0.0,0.0,1.0,235684128.0,1668050408.003162
238383736.0,-449.0,91.0,237.0,0.0,0.0,0.0,0.0,0.0,0.0,1.0,238383723.0,1668050410.702757
238495706.0,-444.0,90.0,243.0,0.0,0.0,0.0,0.0,0.0,0.0,1.0,238495693.0,1668050410.814727
238595905.0,-447.0,93.0,244.0,0.0,0.0,0.0,0.0,0.0,0.0,1.0,238595888.0,1668050410.914926
238695790.0,-452.0,93.0,227.0,0.0,0.0,0.0,0.0,0.0,0.0,1.0,238695777.0,1668050411.014811
238795893.0,-451.0,93.0,228.0,0.0,0.0,0.0,0.0,0.0,0.0,1.0,238795879.0,1668050411.114914
238895828.0,-452.0,93.0,226.0,0.0,0.0,0.0,0.0,0.0,0.0,1.0,238895815.0,1668050411.214849
238995768.0,-453.0,92.0,228.0,0.0,0.0,0.0,0.0,0.0,0.0,1.0,238995708.0,1668050411.314789
239095906.0,-452.0,93.0,231.0,0.0,0.0,0.0,0.0,0.0,0.0,1.0,239095892.0,1668050411.414927
239195754.0,-451.0,92.0,232.0,0.0,0.0,0.0,0.0,0.0,0.0,1.0,239195741.0,1668050411.514775
239295948.0,-451.0,92.0,231.0,0.0,0.0,0.0,0.0,0.0,0.0,1.0,239295875.0,1668050411.614969
239395791.0,-451.0,92.0,229.0,0.0,0.0,0.0,0.0,0.0,0.0,1.0,239395775.0,1668050411.714812
239495916.0,-452.0,92.0,230.0,0.0,0.0,0.0,0.0,0.0,0.0,1.0,239495903.0,1668050411.8149369
239595846.0,-452.0,92.0,229.0,0.0,0.0,0.0,0.0,0.0,0.0,1.0,239595832.0,1668050411.914867
239695942.0,-451.0,93.0,224.0,0.0,0.0,0.0,0.0,0.0,0.0,1.0,239695929.0,1668050412.014963
239795797.0,-452.0,93.0,227.0,0.0,0.0,0.0,0.0,0.0,0.0,1.0,239795784.0,1668050412.114818
239895757.0,-453.0,92.0,228.0,0.0,0.0,0.0,0.0,0.0,0.0,1.0,239895743.0,1668050412.214778
239995814.0,-451.0,93.0,229.0,0.0,0.0,0.0,0.0,0.0,0.0,1.0,239995796.0,1668050412.314835
240095779.0,-452.0,93.0,230.0,0.0,0.0,0.0,0.0,0.0,0.0,1.0,240095766.0,1668050412.4148
240195755.0,-452.0,91.0,232.0,0.0,0.0,0.0,0.0,0.0,0.0,1.0,240195741.0,1668050412.514776
240295782.0,-452.0,92.0,230.0,0.0,0.0,0.0,0.0,0.0,0.0,1.0,240295768.0,1668050412.614803
240395865.0,-452.0,93.0,231.0,0.0,0.0,0.0,0.0,0.0,0.0,1.0,240395852.0,1668050412.714886
240495817.0,-451.0,92.0,231.0,0.0,0.0,0.0,0.0,0.0,0.0,1.0,240495804.0,1668050412.814838
240595744.0,-452.0,93.0,228.0,0.0,0.0,0.0,0.0,0.0,0.0,1.0,240595731.0,1668050412.914765
240695750.0,-452.0,93.0,225.0,0.0,0.0,0.0,0.0,0.0,0.0,1.0,240695737.0,1668050413.014771
240795929.0,-453.0,93.0,229.0,0.0,0.0,0.0,0.0,0.0,0.0,1.0,240795916.0,1668050413.11495
240895901.0,-453.0,93.0,228.0,0.0,0.0,0.0,0.0,0.0,0.0,1.0,240895888.0,1668050413.214922
240995850.0,-453.0,93.0,229.0,0.0,0.0,0.0,0.0,0.0,0.0,1.0,240995836.0,1668050413.314871
241095831.0,-447.0,91.0,242.0,0.0,0.0,0.0,0.0,0.0,0.0,1.0,241095817.0,1668050413.414852
241195763.0,-443.0,92.0,245.0,0.0,0.0,0.0,0.0,0.0,0.0,1.0,241195750.0,1668050413.514784
241296119.0,-446.0,92.0,247.0,0.0,0.0,0.0,0.0,0.0,0.0,1.0,241296106.0,1668050413.61514
241395818.0,-447.0,93.0,241.0,0.0,0.0,0.0,0.0,0.0,0.0,1.0,241395805.0,1668050413.714839
241495765.0,-445.0,91.0,245.0,0.0,0.0,0.0,0.0,0.0,0.0,1.0,241495708.0,1668050413.814786
241595900.0,-448.0,91.0,243.0,0.0,0.0,0.0,0.0,0.0,0.0,1.0,241595887.0,1668050413.914921
241695769.0,-446.0,92.0,244.0,0.0,0.0,0.0,0.0,0.0,0.0,1.0,241695756.0,1668050414.01479
241795872.0,-452.0,93.0,229.0,0.0,0.0,0.0,0.0,0.0,0.0,1.0,241795855.0,1668050414.114893
241895755.0,-452.0,93.0,228.0,0.0,0.0,0.0,0.0,0.0,0.0,1.0,241895742.0,1668050414.214776
241995864.0,-453.0,93.0,227.0,0.0,0.0,0.0,0.0,0.0,0.0,1.0,241995852.0,1668050414.314885
242095866.0,-452.0,91.0,229.0,0.0,0.0,0.0,0.0,0.0,0.0,1.0,242095853.0,1668050414.414887
242195832.0,-451.0,91.0,232.0,0.0,0.0,0.0,0.0,0.0,0.0,1.0,242195820.0,1668050414.514853
242295791.0,-451.0,93.0,230.0,0.0,0.0,0.0,0.0,0.0,0.0,1.0,242295778.0,1668050414.614812
242395804.0,-452.0,92.0,226.0,0.0,0.0,0.0,0.0,0.0,0.0,1.0,242395791.0,1668050414.714825
242495809.0,-452.0,91.0,232.0,0.0,0.0,0.0,0.0,0.0,0.0,1.0,242495780.0,1668050414.81483
242595726.0,-451.0,91.0,230.0,0.0,0.0,0.0,0.0,0.0,0.0,1.0,242595667.0,1668050414.914747
242695805.0,-452.0,91.0,228.0,0.0,0.0,0.0,0.0,0.0,0.0,1.0,242695792.0,1668050415.014826
242796161.0,-452.0,93.0,229.0,0.0,0.0,0.0,0.0,0.0,0.0,1.0,242796147.0,1668050415.115182
242895876.0,-452.0,93.0,229.0,0.0,0.0,0.0,0.0,0.0,0.0,1.0,242895808.0,1668050415.214897
242995751.0,-452.0,93.0,228.0,0.0,0.0,0.0,0.0,0.0,0.0,1.0,242995737.0,1668050415.314772
243095856.0,-452.0,91.0,232.0,0.0,0.0,0.0,0.0,0.0,0.0,1.0,243095843.0,1668050415.414877
243195803.0,-452.0,91.0,231.0,0.0,0.0,0.0,0.0,0.0,0.0,1.0,243195790.0,1668050415.514824
243295792.0,-451.0,91.0,231.0,0.0,0.0,0.0,0.0,0.0,0.0,1.0,243295734.0,1668050415.614813
243395926.0,-452.0,93.0,225.0,0.0,0.0,0.0,0.0,0.0,0.0,1.0,243395909.0,1668050415.714947
246495849.0,-448.0,91.0,237.0,0.0,0.0,0.0,0.0,0.0,0.0,1.0,246495836.0,1668050418.8148699
246607692.0,-442.0,92.0,240.0,0.0,0.0,0.0,0.0,0.0,0.0,1.0,246607679.0,1668050418.926713
246707618.0,-444.0,94.0,239.0,0.0,0.0,0.0,0.0,0.0,0.0,1.0,246707489.0,1668050419.026639
246807703.0,-453.0,92.0,228.0,0.0,0.0,0.0,0.0,0.0,0.0,1.0,246807687.0,1668050419.126724
246907646.0,-452.0,93.0,227.0,0.0,0.0,0.0,0.0,0.0,0.0,1.0,246907554.0,1668050419.226667
247007746.0,-451.0,93.0,228.0,0.0,0.0,0.0,0.0,0.0,0.0,1.0,247007732.0,1668050419.326767
247107832.0,-452.0,92.0,230.0,0.0,0.0,0.0,0.0,0.0,0.0,1.0,247107819.0,1668050419.426853
247207618.0,-452.0,92.0,231.0,0.0,0.0,0.0,0.0,0.0,0.0,1.0,247207517.0,1668050419.526639
247307747.0,-452.0,93.0,231.0,0.0,0.0,0.0,0.0,0.0,0.0,1.0,247307734.0,1668050419.6267679
247407636.0,-451.0,92.0,230.0,0.0,0.0,0.0,0.0,0.0,0.0,1.0,247407516.0,1668050419.726657
247507688.0,-451.0,93.0,233.0,0.0,0.0,0.0,0.0,0.0,0.0,1.0,247507675.0,1668050419.826709
247607677.0,-451.0,93.0,229.0,0.0,0.0,0.0,0.0,0.0,0.0,1.0,247607663.0,1668050419.926698
247707783.0,-452.0,93.0,227.0,0.0,0.0,0.0,0.0,0.0,0.0,1.0,247707770.0,1668050420.026804
247807574.0,-453.0,92.0,230.0,0.0,0.0,0.0,0.0,0.0,0.0,1.0,247807561.0,1668050420.126595
247907661.0,-452.0,92.0,233.0,0.0,0.0,0.0,0.0,0.0,0.0,1.0,247907648.0,1668050420.226682
248007673.0,-452.0,92.0,230.0,0.0,0.0,0.0,0.0,0.0,0.0,1.0,248007660.0,1668050420.326694
248107608.0,-452.0,92.0,231.0,0.0,0.0,0.0,0.0,0.0,0.0,1.0,248107595.0,1668050420.426629
248207668.0,-451.0,92.0,230.0,0.0,0.0,0.0,0.0,0.0,0.0,1.0,248207655.0,1668050420.526689
248307695.0,-451.0,93.0,233.0,0.0,0.0,0.0,0.0,0.0,0.0,1.0,248307682.0,1668050420.626716
248407710.0,-451.0,93.0,230.0,0.0,0.0,0.0,0.0,0.0,0.0,1.0,248407696.0,1668050420.726731
248507612.0,-452.0,93.0,231.0,0.0,0.0,0.0,0.0,0.0,0.0,1.0,248507598.0,1668050420.826633
248607672.0,-452.0,93.0,228.0,0.0,0.0,0.0,0.0,0.0,0.0,1.0,248607658.0,1668050420.926693
248707616.0,-451.0,93.0,226.0,0.0,0.0,0.0,0.0,0.0,0.0,1.0,248707599.0,1668050421.026637
248807688.0,-452.0,92.0,231.0,0.0,0.0,0.0,0.0,0.0,0.0,1.0,248807675.0,1668050421.126709
248907684.0,-452.0,93.0,230.0,0.0,0.0,0.0,0.0,0.0,0.0,1.0,248907671.0,1668050421.226705
249007604.0,-452.0,92.0,230.0,0.0,0.0,0.0,0.0,0.0,0.0,1.0,249007541.0,1668050421.3266249
249107674.0,-451.0,92.0,231.0,0.0,0.0,0.0,0.0,0.0,0.0,1.0,249107660.0,1668050421.4266949
249207695.0,-450.0,92.0,234.0,0.0,0.0,0.0,0.0,0.0,0.0,1.0,249207682.0,1668050421.526716
249307665.0,-450.0,93.0,230.0,0.0,0.0,0.0,0.0,0.0,0.0,1.0,249307651.0,1668050421.626686
249407733.0,-452.0,92.0,229.0,0.0,0.0,0.0,0.0,0.0,0.0,1.0,249407609.0,1668050421.726754
249507692.0,-452.0,92.0,233.0,0.0,0.0,0.0,0.0,0.0,0.0,1.0,249507679.0,1668050421.826713
249607610.0,-452.0,93.0,228.0,0.0,0.0,0.0,0.0,0.0,0.0,1.0,249607596.0,1668050421.926631
249707655.0,-451.0,93.0,227.0,0.0,0.0,0.0,0.0,0.0,0.0,1.0,249707639.0,1668050422.026676
249807658.0,-451.0,92.0,228.0,0.0,0.0,0.0,0.0,0.0,0.0,1.0,249807645.0,1668050422.126679
252807633.0,-452.0,91.0,229.0,0.0,0.0,0.0,0.0,0.0,0.0,1.0,252807620.0,1668050425.126654
252919492.0,-445.0,91.0,238.0,0.0,0.0,0.0,0.0,0.0,0.0,1.0,252919441.0,1668050425.238513
253019654.0,-445.0,92.0,242.0,0.0,0.0,0.0,0.0,0.0,0.0,1.0,253019641.0,1668050425.338675
253119598.0,-448.0,91.0,241.0,0.0,0.0,0.0,0.0,0.0,0.0,1.0,253119585.0,1668050425.438619
253219608.0,-452.0,93.0,230.0,0.0,0.0,0.0,0.0,0.0,0.0,1.0,253219596.0,1668050425.538629
253319619.0,-451.0,93.0,229.0,0.0,0.0,0.0,0.0,0.0,0.0,1.0,253319606.0,1668050425.63864
253419551.0,-451.0,92.0,230.0,0.0,0.0,0.0,0.0,0.0,0.0,1.0,253419537.0,1668050425.738572
253519643.0,-451.0,92.0,230.0,0.0,0.0,0.0,0.0,0.0,0.0,1.0,253519630.0,1668050425.838664
253619533.0,-452.0,93.0,227.0,0.0,0.0,0.0,0.0,0.0,0.0,1.0,253619504.0,1668050425.938554
253719610.0,-451.0,93.0,227.0,0.0,0.0,0.0,0.0,0.0,0.0,1.0,253719597.0,1668050426.038631
253819620.0,-451.0,93.0,227.0,0.0,0.0,0.0,0.0,0.0,0.0,1.0,253819604.0,1668050426.1386409
253919667.0,-453.0,93.0,228.0,0.0,0.0,0.0,0.0,0.0,0.0,1.0,253919654.0,1668050426.238688
254019680.0,-452.0,93.0,228.0,0.0,0.0,0.0,0.0,0.0,0.0,1.0,254019667.0,1668050426.338701
254119476.0,-450.0,92.0,229.0,0.0,0.0,0.0,0.0,0.0,0.0,1.0,254119463.0,1668050426.438497
254219620.0,-451.0,92.0,231.0,0.0,0.0,0.0,0.0,0.0,0.0,1.0,254219608.0,1668050426.538641
254319590.0,-451.0,93.0,229.0,0.0,0.0,0.0,0.0,0.0,0.0,1.0,254319577.0,1668050426.638611
254419605.0,-452.0,93.0,230.0,0.0,0.0,0.0,0.0,0.0,0.0,1.0,254419592.0,1668050426.738626
254519498.0,-451.0,92.0,229.0,0.0,0.0,0.0,0.0,0.0,0.0,1.0,254519485.0,1668050426.838519
254619654.0,-451.0,93.0,227.0,0.0,0.0,0.0,0.0,0.0,0.0,1.0,254619641.0,1668050426.938675
254719759.0,-453.0,92.0,227.0,0.0,0.0,0.0,0.0,0.0,0.0,1.0,254719745.0,1668050427.03878
254819693.0,-453.0,92.0,228.0,0.0,0.0,0.0,0.0,0.0,0.0,1.0,254819680.0,1668050427.138714
254919637.0,-453.0,93.0,227.0,0.0,0.0,0.0,0.0,0.0,0.0,1.0,254919625.0,1668050427.238658
255019570.0,-451.0,93.0,228.0,0.0,0.0,0.0,0.0,0.0,0.0,1.0,255019557.0,1668050427.338591
255119617.0,-452.0,93.0,231.0,0.0,0.0,0.0,0.0,0.0,0.0,1.0,255119604.0,1668050427.438638
255219503.0,-452.0,92.0,232.0,0.0,0.0,0.0,0.0,0.0,0.0,1.0,255219449.0,1668050427.538524
255319632.0,-451.0,93.0,232.0,0.0,0.0,0.0,0.0,0.0,0.0,1.0,255319619.0,1668050427.638653
255419589.0,-451.0,92.0,231.0,0.0,0.0,0.0,0.0,0.0,0.0,1.0,255419477.0,1668050427.73861
255519619.0,-451.0,93.0,230.0,0.0,0.0,0.0,0.0,0.0,0.0,1.0,255519605.0,1668050427.83864
258419667.0,-447.0,92.0,244.0,0.0,0.0,0.0,0.0,0.0,0.0,1.0,258419654.0,1668050430.738688
258531810.0,-444.0,91.0,240.0,0.0,0.0,0.0,0.0,0.0,0.0,1.0,258531797.0,1668050430.850831
258631748.0,-445.0,94.0,237.0,0.0,0.0,0.0,0.0,0.0,0.0,1.0,258631735.0,1668050430.950769
258731618.0,-450.0,93.0,233.0,0.0,0.0,0.0,0.0,0.0,0.0,1.0,258731577.0,1668050431.050639
258831762.0,-453.0,93.0,226.0,0.0,0.0,0.0,0.0,0.0,0.0,1.0,258831749.0,1668050431.150783
258931713.0,-452.0,93.0,226.0,0.0,0.0,0.0,0.0,0.0,0.0,1.0,258931655.0,1668050431.250734
259031751.0,-452.0,92.0,229.0,0.0,0.0,0.0,0.0,0.0,0.0,1.0,259031735.0,1668050431.350772
259131649.0,-452.0,92.0,230.0,0.0,0.0,0.0,0.0,0.0,0.0,1.0,259131589.0,1668050431.45067
259231697.0,-451.0,92.0,229.0,0.0,0.0,0.0,0.0,0.0,0.0,1.0,259231681.0,1668050431.550718
259331693.0,-452.0,93.0,231.0,0.0,0.0,0.0,0.0,0.0,0.0,1.0,259331681.0,1668050431.650714
259431801.0,-452.0,92.0,229.0,0.0,0.0,0.0,0.0,0.0,0.0,1.0,259431785.0,1668050431.750822
259531716.0,-451.0,92.0,230.0,0.0,0.0,0.0,0.0,0.0,0.0,1.0,259531703.0,1668050431.850737
259631703.0,-452.0,93.0,229.0,0.0,0.0,0.0,0.0,0.0,0.0,1.0,259631690.0,1668050431.950724
259731807.0,-452.0,92.0,227.0,0.0,0.0,0.0,0.0,0.0,0.0,1.0,259731783.0,1668050432.050828
259831729.0,-452.0,92.0,230.0,0.0,0.0,0.0,0.0,0.0,0.0,1.0,259831715.0,1668050432.15075
259931734.0,-452.0,93.0,227.0,0.0,0.0,0.0,0.0,0.0,0.0,1.0,259931721.0,1668050432.250755
260031668.0,-451.0,92.0,229.0,0.0,0.0,0.0,0.0,0.0,0.0,1.0,260031655.0,1668050432.350689
260131739.0,-451.0,93.0,229.0,0.0,0.0,0.0,0.0,0.0,0.0,1.0,260131725.0,1668050432.45076
260231819.0,-452.0,91.0,233.0,0.0,0.0,0.0,0.0,0.0,0.0,1.0,260231806.0,1668050432.55084
260331819.0,-452.0,92.0,231.0,0.0,0.0,0.0,0.0,0.0,0.0,1.0,260331806.0,1668050432.65084
260431784.0,-452.0,92.0,229.0,0.0,0.0,0.0,0.0,0.0,0.0,1.0,260431771.0,1668050432.750805
260531627.0,-451.0,92.0,231.0,0.0,0.0,0.0,0.0,0.0,0.0,1.0,260531614.0,1668050432.850648
260631741.0,-451.0,93.0,228.0,0.0,0.0,0.0,0.0,0.0,0.0,1.0,260631728.0,1668050432.950762
260731713.0,-452.0,92.0,228.0,0.0,0.0,0.0,0.0,0.0,0.0,1.0,260731700.0,1668050433.050734
260831769.0,-453.0,92.0,233.0,0.0,0.0,0.0,0.0,0.0,0.0,1.0,260831756.0,1668050433.15079
260931691.0,-451.0,92.0,230.0,0.0,0.0,0.0,0.0,0.0,0.0,1.0,260931678.0,1668050433.250712
261031719.0,-452.0,92.0,229.0,0.0,0.0,0.0,0.0,0.0,0.0,1.0,261031706.0,1668050433.35074
261131623.0,-451.0,92.0,232.0,0.0,0.0,0.0,0.0,0.0,0.0,1.0,261131591.0,1668050433.450644
261231777.0,-452.0,91.0,232.0,0.0,0.0,0.0,0.0,0.0,0.0,1.0,261231764.0,1668050433.550798
261331784.0,-452.0,92.0,232.0,0.0,0.0,0.0,0.0,0.0,0.0,1.0,261331770.0,1668050433.650805
261431695.0,-451.0,91.0,234.0,0.0,0.0,0.0,0.0,0.0,0.0,1.0,261431681.0,1668050433.750716
261531715.0,-453.0,92.0,233.0,0.0,0.0,0.0,0.0,0.0,0.0,1.0,261531702.0,1668050433.850736
261631591.0,-452.0,93.0,229.0,0.0,0.0,0.0,0.0,0.0,0.0,1.0,261631578.0,1668050433.950612
261731787.0,-453.0,92.0,230.0,0.0,0.0,0.0,0.0,0.0,0.0,1.0,261731774.0,1668050434.050808
261831701.0,-453.0,91.0,232.0,0.0,0.0,0.0,0.0,0.0,0.0,1.0,261831688.0,1668050434.150722
261931738.0,-453.0,92.0,231.0,0.0,0.0,0.0,0.0,0.0,0.0,1.0,261931725.0,1668050434.250759
262031678.0,-452.0,92.0,231.0,0.0,0.0,0.0,0.0,0.0,0.0,1.0,262031665.0,1668050434.350699
262131814.0,-452.0,93.0,234.0,0.0,0.0,0.0,0.0,0.0,0.0,1.0,262131801.0,1668050434.450835
262231740.0,-452.0,90.0,233.0,0.0,0.0,0.0,0.0,0.0,0.0,1.0,262231727.0,1668050434.550761
262331751.0,-451.0,91.0,235.0,0.0,0.0,0.0,0.0,0.0,0.0,1.0,262331688.0,1668050434.650772
262431747.0,-452.0,91.0,233.0,0.0,0.0,0.0,0.0,0.0,0.0,1.0,262431734.0,1668050434.750768
262531801.0,-451.0,91.0,233.0,0.0,0.0,0.0,0.0,0.0,0.0,1.0,262531788.0,1668050434.850822
262631762.0,-452.0,93.0,229.0,0.0,0.0,0.0,0.0,0.0,0.0,1.0,262631749.0,1668050434.950783
262731742.0,-452.0,93.0,228.0,0.0,0.0,0.0,0.0,0.0,0.0,1.0,262731729.0,1668050435.050763
262831681.0,-453.0,92.0,229.0,0.0,0.0,0.0,0.0,0.0,0.0,1.0,262831668.0,1668050435.150702
262931668.0,-453.0,91.0,231.0,0.0,0.0,0.0,0.0,0.0,0.0,1.0,262931655.0,1668050435.250689
263031867.0,-452.0,92.0,230.0,0.0,0.0,0.0,0.0,0.0,0.0,1.0,263031854.0,1668050435.350888
263131770.0,-452.0,91.0,233.0,0.0,0.0,0.0,0.0,0.0,0.0,1.0,263131757.0,1668050435.450791
263231758.0,-452.0,92.0,232.0,0.0,0.0,0.0,0.0,0.0,0.0,1.0,263231745.0,1668050435.550779
263331707.0,-452.0,92.0,231.0,0.0,0.0,0.0,0.0,0.0,0.0,1.0,263331693.0,1668050435.650728
263431769.0,-451.0,92.0,231.0,0.0,0.0,0.0,0.0,0.0,0.0,1.0,263431756.0,1668050435.7507899
263531689.0,-451.0,92.0,231.0,0.0,0.0,0.0,0.0,0.0,0.0,1.0,263531676.0,1668050435.85071
263631721.0,-452.0,93.0,227.0,0.0,0.0,0.0,0.0,0.0,0.0,1.0,263631708.0,1668050435.950742
263731776.0,-452.0,92.0,229.0,0.0,0.0,0.0,0.0,0.0,0.0,1.0,263731763.0,1668050436.050797
263831720.0,-453.0,91.0,232.0,0.0,0.0,0.0,0.0,0.0,0.0,1.0,263831707.0,1668050436.150741
263931839.0,-453.0,91.0,231.0,0.0,0.0,0.0,0.0,0.0,0.0,1.0,263931765.0,1668050436.25086
264031731.0,-452.0,92.0,231.0,0.0,0.0,0.0,0.0,0.0,0.0,1.0,264031718.0,1668050436.3507519
264131678.0,-451.0,91.0,232.0,0.0,0.0,0.0,0.0,0.0,0.0,1.0,264131666.0,1668050436.450699
264231772.0,-453.0,92.0,232.0,0.0,0.0,0.0,0.0,0.0,0.0,1.0,264231760.0,1668050436.550793
264331694.0,-452.0,91.0,232.0,0.0,0.0,0.0,0.0,0.0,0.0,1.0,264331680.0,1668050436.6507149
264431837.0,-452.0,91.0,234.0,0.0,0.0,0.0,0.0,0.0,0.0,1.0,264431824.0,1668050436.750858
264531672.0,-452.0,93.0,232.0,0.0,0.0,0.0,0.0,0.0,0.0,1.0,264531659.0,1668050436.850693
264631841.0,-452.0,93.0,229.0,0.0,0.0,0.0,0.0,0.0,0.0,1.0,264631825.0,1668050436.950862
264731755.0,-452.0,92.0,228.0,0.0,0.0,0.0,0.0,0.0,0.0,1.0,264731713.0,1668050437.050776
264831803.0,-453.0,92.0,230.0,0.0,0.0,0.0,0.0,0.0,0.0,1.0,264831744.0,1668050437.150824
264931755.0,-453.0,91.0,231.0,0.0,0.0,0.0,0.0,0.0,0.0,1.0,264931742.0,1668050437.250776
265031763.0,-452.0,91.0,231.0,0.0,0.0,0.0,0.0,0.0,0.0,1.0,265031703.0,1668050437.350784
265131802.0,-451.0,91.0,232.0,0.0,0.0,0.0,0.0,0.0,0.0,1.0,265131786.0,1668050437.450823
265231703.0,-452.0,92.0,234.0,0.0,0.0,0.0,0.0,0.0,0.0,1.0,265231690.0,1668050437.550724
265331703.0,-453.0,91.0,232.0,0.0,0.0,0.0,0.0,0.0,0.0,1.0,265331689.0,1668050437.650724
265431756.0,-452.0,91.0,232.0,0.0,0.0,0.0,0.0,0.0,0.0,1.0,265431691.0,1668050437.750777
265531803.0,-451.0,91.0,232.0,0.0,0.0,0.0,0.0,0.0,0.0,1.0,265531786.0,1668050437.8508239
265631729.0,-452.0,92.0,231.0,0.0,0.0,0.0,0.0,0.0,0.0,1.0,265631672.0,1668050437.9507499
265731806.0,-453.0,93.0,228.0,0.0,0.0,0.0,0.0,0.0,0.0,1.0,265731790.0,1668050438.050827
265831841.0,-452.0,93.0,230.0,0.0,0.0,0.0,0.0,0.0,0.0,1.0,265831829.0,1668050438.150862
265931611.0,-453.0,93.0,230.0,0.0,0.0,0.0,0.0,0.0,0.0,1.0,265931552.0,1668050438.250632
266031765.0,-452.0,92.0,230.0,0.0,0.0,0.0,0.0,0.0,0.0,1.0,266031748.0,1668050438.350786
266131710.0,-452.0,91.0,232.0,0.0,0.0,0.0,0.0,0.0,0.0,1.0,266131696.0,1668050438.450731
266231786.0,-452.0,92.0,234.0,0.0,0.0,0.0,0.0,0.0,0.0,1.0,266231773.0,1668050438.550807
266331647.0,-452.0,91.0,234.0,0.0,0.0,0.0,0.0,0.0,0.0,1.0,266331634.0,1668050438.650668
266431695.0,-452.0,92.0,233.0,0.0,0.0,0.0,0.0,0.0,0.0,1.0,266431682.0,1668050438.750716
266531761.0,-451.0,91.0,234.0,0.0,0.0,0.0,0.0,0.0,0.0,1.0,266531748.0,1668050438.850782
266631808.0,-453.0,93.0,228.0,0.0,0.0,0.0,0.0,0.0,0.0,1.0,266631794.0,1668050438.950829
266731830.0,-452.0,92.0,229.0,0.0,0.0,0.0,0.0,0.0,0.0,1.0,266731817.0,1668050439.0508509
266831633.0,-453.0,91.0,228.0,0.0,0.0,0.0,0.0,0.0,0.0,1.0,266831574.0,1668050439.150654
266931739.0,-453.0,91.0,229.0,0.0,0.0,0.0,0.0,0.0,0.0,1.0,266931723.0,1668050439.25076
267031685.0,-452.0,92.0,231.0,0.0,0.0,0.0,0.0,0.0,0.0,1.0,267031672.0,1668050439.350706
267131782.0,-452.0,92.0,231.0,0.0,0.0,0.0,0.0,0.0,0.0,1.0,267131768.0,1668050439.450803
267231713.0,-453.0,91.0,230.0,0.0,0.0,0.0,0.0,0.0,0.0,1.0,267231700.0,1668050439.550734
267331700.0,-452.0,91.0,234.0,0.0,0.0,0.0,0.0,0.0,0.0,1.0,267331687.0,1668050439.650721
267431700.0,-452.0,92.0,233.0,0.0,0.0,0.0,0.0,0.0,0.0,1.0,267431683.0,1668050439.750721
267531777.0,-452.0,91.0,234.0,0.0,0.0,0.0,0.0,0.0,0.0,1.0,267531764.0,1668050439.850798
267631778.0,-453.0,92.0,226.0,0.0,0.0,0.0,0.0,0.0,0.0,1.0,267631761.0,1668050439.950799
267731705.0,-452.0,91.0,230.0,0.0,0.0,0.0,0.0,0.0,0.0,1.0,267731692.0,1668050440.050726
267831814.0,-452.0,92.0,229.0,0.0,0.0,0.0,0.0,0.0,0.0,1.0,267831801.0,1668050440.150835
267931742.0,-452.0,91.0,231.0,0.0,0.0,0.0,0.0,0.0,0.0,1.0,267931660.0,1668050440.250763
268031719.0,-452.0,92.0,231.0,0.0,0.0,0.0,0.0,0.0,0.0,1.0,268031706.0,1668050440.35074
268131709.0,-453.0,91.0,232.0,0.0,0.0,0.0,0.0,0.0,0.0,1.0,268131695.0,1668050440.45073
268231689.0,-451.0,92.0,232.0,0.0,0.0,0.0,0.0,0.0,0.0,1.0,268231676.0,1668050440.55071
268331679.0,-452.0,92.0,230.0,0.0,0.0,0.0,0.0,0.0,0.0,1.0,268331667.0,1668050440.6507
268431798.0,-451.0,92.0,234.0,0.0,0.0,0.0,0.0,0.0,0.0,1.0,268431785.0,1668050440.750819
268531771.0,-452.0,91.0,232.0,0.0,0.0,0.0,0.0,0.0,0.0,1.0,268531758.0,1668050440.850792
268631806.0,-453.0,92.0,226.0,0.0,0.0,0.0,0.0,0.0,0.0,1.0,268631792.0,1668050440.950827
268731719.0,-453.0,93.0,228.0,0.0,0.0,0.0,0.0,0.0,0.0,1.0,268731707.0,1668050441.05074
268831799.0,-452.0,91.0,230.0,0.0,0.0,0.0,0.0,0.0,0.0,1.0,268831786.0,1668050441.15082
268931740.0,-453.0,92.0,229.0,0.0,0.0,0.0,0.0,0.0,0.0,1.0,268931726.0,1668050441.250761
269031703.0,-453.0,91.0,231.0,0.0,0.0,0.0,0.0,0.0,0.0,1.0,269031633.0,1668050441.350724
269131764.0,-451.0,91.0,231.0,0.0,0.0,0.0,0.0,0.0,0.0,1.0,269131752.0,1668050441.450785
269231702.0,-451.0,91.0,233.0,0.0,0.0,0.0,0.0,0.0,0.0,1.0,269231690.0,1668050441.550723
269331841.0,-451.0,91.0,231.0,0.0,0.0,0.0,0.0,0.0,0.0,1.0,269331827.0,1668050441.650862
269431726.0,-453.0,91.0,234.0,0.0,0.0,0.0,0.0,0.0,0.0,1.0,269431713.0,1668050441.750747
269531702.0,-451.0,91.0,234.0,0.0,0.0,0.0,0.0,0.0,0.0,1.0,269531689.0,1668050441.850723
269631787.0,-452.0,93.0,230.0,0.0,0.0,0.0,0.0,0.0,0.0,1.0,269631766.0,1668050441.950808
269731698.0,-452.0,92.0,229.0,0.0,0.0,0.0,0.0,0.0,0.0,1.0,269731685.0,1668050442.050719
269831817.0,-452.0,92.0,228.0,0.0,0.0,0.0,0.0,0.0,0.0,1.0,269831804.0,1668050442.150838
269931679.0,-452.0,91.0,232.0,0.0,0.0,0.0,0.0,0.0,0.0,1.0,269931666.0,1668050442.2507
270031720.0,-452.0,92.0,229.0,0.0,0.0,0.0,0.0,0.0,0.0,1.0,270031707.0,1668050442.350741
270131677.0,-453.0,92.0,233.0,0.0,0.0,0.0,0.0,0.0,0.0,1.0,270131663.0,1668050442.450698
270231772.0,-452.0,92.0,233.0,0.0,0.0,0.0,0.0,0.0,0.0,1.0,270231759.0,1668050442.550793
270331684.0,-452.0,91.0,233.0,0.0,0.0,0.0,0.0,0.0,0.0,1.0,270331671.0,1668050442.650705
270431726.0,-452.0,90.0,233.0,0.0,0.0,0.0,0.0,0.0,0.0,1.0,270431712.0,1668050442.750747
270531781.0,-452.0,92.0,232.0,0.0,0.0,0.0,0.0,0.0,0.0,1.0,270531767.0,1668050442.850802
270631674.0,-453.0,92.0,229.0,0.0,0.0,0.0,0.0,0.0,0.0,1.0,270631655.0,1668050442.950695
270731792.0,-452.0,91.0,231.0,0.0,0.0,0.0,0.0,0.0,0.0,1.0,270731776.0,1668050443.050813
270831682.0,-452.0,92.0,228.0,0.0,0.0,0.0,0.0,0.0,0.0,1.0,270831624.0,1668050443.150703
270931831.0,-453.0,91.0,229.0,0.0,0.0,0.0,0.0,0.0,0.0,1.0,270931818.0,1668050443.2508519
271031710.0,-453.0,92.0,228.0,0.0,0.0,0.0,0.0,0.0,0.0,1.0,271031652.0,1668050443.350731
271131804.0,-452.0,91.0,232.0,0.0,0.0,0.0,0.0,0.0,0.0,1.0,271131792.0,1668050443.450825
271231744.0,-451.0,92.0,233.0,0.0,0.0,0.0,0.0,0.0,0.0,1.0,271231730.0,1668050443.550765
271331711.0,-452.0,91.0,233.0,0.0,0.0,0.0,0.0,0.0,0.0,1.0,271331695.0,1668050443.650732
271431767.0,-453.0,91.0,231.0,0.0,0.0,0.0,0.0,0.0,0.0,1.0,271431754.0,1668050443.750788
271531729.0,-451.0,91.0,233.0,0.0,0.0,0.0,0.0,0.0,0.0,1.0,271531664.0,1668050443.85075
271631649.0,-452.0,91.0,229.0,0.0,0.0,0.0,0.0,0.0,0.0,1.0,271631636.0,1668050443.95067
271731666.0,-452.0,92.0,228.0,0.0,0.0,0.0,0.0,0.0,0.0,1.0,271731653.0,1668050444.050687
271831758.0,-452.0,92.0,229.0,0.0,0.0,0.0,0.0,0.0,0.0,1.0,271831745.0,1668050444.150779
271931715.0,-453.0,92.0,232.0,0.0,0.0,0.0,0.0,0.0,0.0,1.0,271931701.0,1668050444.250736
272031832.0,-451.0,91.0,231.0,0.0,0.0,0.0,0.0,0.0,0.0,1.0,272031819.0,1668050444.350853
272131741.0,-452.0,90.0,234.0,0.0,0.0,0.0,0.0,0.0,0.0,1.0,272131727.0,1668050444.450762
272231733.0,-451.0,91.0,236.0,0.0,0.0,0.0,0.0,0.0,0.0,1.0,272231675.0,1668050444.550754
272331750.0,-452.0,91.0,233.0,0.0,0.0,0.0,0.0,0.0,0.0,1.0,272331737.0,1668050444.650771
272431708.0,-451.0,91.0,234.0,0.0,0.0,0.0,0.0,0.0,0.0,1.0,272431695.0,1668050444.750729
272531711.0,-451.0,91.0,235.0,0.0,0.0,0.0,0.0,0.0,0.0,1.0,272531698.0,1668050444.850732
272631661.0,-453.0,92.0,228.0,0.0,0.0,0.0,0.0,0.0,0.0,1.0,272631648.0,1668050444.950682
272731748.0,-453.0,91.0,232.0,0.0,0.0,0.0,0.0,0.0,0.0,1.0,272731732.0,1668050445.050769
272831778.0,-452.0,91.0,231.0,0.0,0.0,0.0,0.0,0.0,0.0,1.0,272831764.0,1668050445.150799
272931842.0,-451.0,92.0,229.0,0.0,0.0,0.0,0.0,0.0,0.0,1.0,272931829.0,1668050445.250863
273031822.0,-453.0,91.0,231.0,0.0,0.0,0.0,0.0,0.0,0.0,1.0,273031809.0,1668050445.350843
273131711.0,-452.0,90.0,231.0,0.0,0.0,0.0,0.0,0.0,0.0,1.0,273131698.0,1668050445.450732
273231768.0,-452.0,91.0,232.0,0.0,0.0,0.0,0.0,0.0,0.0,1.0,273231755.0,1668050445.5507889
273331671.0,-452.0,91.0,234.0,0.0,0.0,0.0,0.0,0.0,0.0,1.0,273331658.0,1668050445.650692
274231736.0,-446.0,91.0,250.0,0.0,0.0,0.0,0.0,0.0,0.0,1.0,274231721.0,1668050446.550757
274331736.0,-447.0,91.0,247.0,0.0,0.0,0.0,0.0,0.0,0.0,1.0,274331724.0,1668050446.650757
274431748.0,-444.0,91.0,246.0,0.0,0.0,0.0,0.0,0.0,0.0,1.0,274431736.0,1668050446.750769
274531693.0,-445.0,91.0,246.0,0.0,0.0,0.0,0.0,0.0,0.0,1.0,274531682.0,1668050446.850714
274631692.0,-445.0,93.0,246.0,0.0,0.0,0.0,0.0,0.0,0.0,1.0,274631681.0,1668050446.950713
274731822.0,-445.0,91.0,246.0,0.0,0.0,0.0,0.0,0.0,0.0,1.0,274731810.0,1668050447.050843
274831696.0,-446.0,92.0,247.0,0.0,0.0,0.0,0.0,0.0,0.0,1.0,274831685.0,1668050447.150717
274931789.0,-445.0,92.0,245.0,0.0,0.0,0.0,0.0,0.0,0.0,1.0,274931778.0,1668050447.25081
275031753.0,-446.0,91.0,248.0,0.0,0.0,0.0,0.0,0.0,0.0,1.0,275031742.0,1668050447.350774
275131716.0,-443.0,91.0,246.0,0.0,0.0,0.0,0.0,0.0,0.0,1.0,275131705.0,1668050447.450737
275231730.0,-444.0,90.0,250.0,0.0,0.0,0.0,0.0,0.0,0.0,1.0,275231719.0,1668050447.550751
275331725.0,-445.0,90.0,248.0,0.0,0.0,0.0,0.0,0.0,0.0,1.0,275331694.0,1668050447.6507459
275431758.0,-446.0,91.0,249.0,0.0,0.0,0.0,0.0,0.0,0.0,1.0,275431747.0,1668050447.750779
275531672.0,-443.0,90.0,246.0,0.0,0.0,0.0,0.0,0.0,0.0,1.0,275531660.0,1668050447.850693
275631806.0,-445.0,91.0,244.0,0.0,0.0,0.0,0.0,0.0,0.0,1.0,275631795.0,1668050447.950827
275731749.0,-446.0,91.0,244.0,0.0,0.0,0.0,0.0,0.0,0.0,1.0,275731738.0,1668050448.05077
275831681.0,-448.0,89.0,245.0,0.0,0.0,0.0,0.0,0.0,0.0,1.0,275831670.0,1668050448.150702
275931739.0,-444.0,90.0,247.0,0.0,0.0,0.0,0.0,0.0,0.0,1.0,275931728.0,1668050448.25076
276031690.0,-445.0,91.0,243.0,0.0,0.0,0.0,0.0,0.0,0.0,1.0,276031679.0,1668050448.3507109
276131757.0,-445.0,90.0,248.0,0.0,0.0,0.0,0.0,0.0,0.0,1.0,276131746.0,1668050448.450778
276231770.0,-445.0,90.0,249.0,0.0,0.0,0.0,0.0,0.0,0.0,1.0,276231759.0,1668050448.550791
276331755.0,-445.0,90.0,246.0,0.0,0.0,0.0,0.0,0.0,0.0,1.0,276331744.0,1668050448.650776
276431779.0,-444.0,89.0,244.0,0.0,0.0,0.0,0.0,0.0,0.0,1.0,276431768.0,1668050448.7508
276531822.0,-444.0,90.0,247.0,0.0,0.0,0.0,0.0,0.0,0.0,1.0,276531750.0,1668050448.850843
276631736.0,-445.0,91.0,247.0,0.0,0.0,0.0,0.0,0.0,0.0,1.0,276631725.0,1668050448.950757
276731710.0,-444.0,91.0,244.0,0.0,0.0,0.0,0.0,0.0,0.0,1.0,276731699.0,1668050449.050731
276831761.0,-445.0,90.0,246.0,0.0,0.0,0.0,0.0,0.0,0.0,1.0,276831750.0,1668050449.1507819
276931730.0,-446.0,90.0,244.0,0.0,0.0,0.0,0.0,0.0,0.0,1.0,276931719.0,1668050449.250751
277031843.0,-453.0,91.0,233.0,0.0,0.0,0.0,0.0,0.0,0.0,1.0,277031831.0,1668050449.350864
277131713.0,-451.0,90.0,235.0,0.0,0.0,0.0,0.0,0.0,0.0,1.0,277131701.0,1668050449.450734
277231751.0,-451.0,90.0,232.0,0.0,0.0,0.0,0.0,0.0,0.0,1.0,277231737.0,1668050449.550772
277331767.0,-451.0,90.0,233.0,0.0,0.0,0.0,0.0,0.0,0.0,1.0,277331755.0,1668050449.650788
277431840.0,-451.0,90.0,234.0,0.0,0.0,0.0,0.0,0.0,0.0,1.0,277431771.0,1668050449.750861
277531741.0,-450.0,90.0,233.0,0.0,0.0,0.0,0.0,0.0,0.0,1.0,277531730.0,1668050449.850762
277631725.0,-451.0,91.0,225.0,0.0,0.0,0.0,0.0,0.0,0.0,1.0,277631714.0,1668050449.950746
277731790.0,-452.0,90.0,230.0,0.0,0.0,0.0,0.0,0.0,0.0,1.0,277731779.0,1668050450.050811
277831753.0,-452.0,90.0,232.0,0.0,0.0,0.0,0.0,0.0,0.0,1.0,277831741.0,1668050450.150774
277931749.0,-452.0,90.0,233.0,0.0,0.0,0.0,0.0,0.0,0.0,1.0,277931738.0,1668050450.25077
278031672.0,-452.0,90.0,234.0,0.0,0.0,0.0,0.0,0.0,0.0,1.0,278031660.0,1668050450.350693
278131731.0,-452.0,90.0,237.0,0.0,0.0,0.0,0.0,0.0,0.0,1.0,278131719.0,1668050450.450752
278231701.0,-453.0,90.0,235.0,0.0,0.0,0.0,0.0,0.0,0.0,1.0,278231690.0,1668050450.550722
278331852.0,-452.0,90.0,234.0,0.0,0.0,0.0,0.0,0.0,0.0,1.0,278331840.0,1668050450.650873
278431719.0,-451.0,90.0,234.0,0.0,0.0,0.0,0.0,0.0,0.0,1.0,278431707.0,1668050450.75074
278531736.0,-451.0,90.0,233.0,0.0,0.0,0.0,0.0,0.0,0.0,1.0,278531722.0,1668050450.850757
278631726.0,-453.0,90.0,232.0,0.0,0.0,0.0,0.0,0.0,0.0,1.0,278631710.0,1668050450.950747
278731707.0,-452.0,92.0,231.0,0.0,0.0,0.0,0.0,0.0,0.0,1.0,278731695.0,1668050451.050728
278831754.0,-453.0,91.0,232.0,0.0,0.0,0.0,0.0,0.0,0.0,1.0,278831742.0,1668050451.150775
278931660.0,-454.0,93.0,235.0,0.0,0.0,0.0,0.0,0.0,0.0,1.0,278931649.0,1668050451.250681
279031727.0,-454.0,92.0,237.0,0.0,0.0,0.0,0.0,0.0,0.0,1.0,279031716.0,1668050451.350748
279131837.0,-453.0,92.0,234.0,0.0,0.0,0.0,0.0,0.0,0.0,1.0,279131826.0,1668050451.4508579
279231834.0,-453.0,91.0,234.0,0.0,0.0,0.0,0.0,0.0,0.0,1.0,279231822.0,1668050451.550855
279331755.0,-453.0,91.0,236.0,0.0,0.0,0.0,0.0,0.0,0.0,1.0,279331744.0,1668050451.650776
279431729.0,-452.0,91.0,235.0,0.0,0.0,0.0,0.0,0.0,0.0,1.0,279431717.0,1668050451.75075
279531722.0,-453.0,91.0,237.0,0.0,0.0,0.0,0.0,0.0,0.0,1.0,279531711.0,1668050451.850743
279631685.0,-452.0,92.0,233.0,0.0,0.0,0.0,0.0,0.0,0.0,1.0,279631673.0,1668050451.950706
279731776.0,-453.0,90.0,235.0,0.0,0.0,0.0,0.0,0.0,0.0,1.0,279731765.0,1668050452.050797
279831687.0,-453.0,91.0,235.0,0.0,0.0,0.0,0.0,0.0,0.0,1.0,279831676.0,1668050452.150708
279931780.0,-453.0,91.0,233.0,0.0,0.0,0.0,0.0,0.0,0.0,1.0,279931764.0,1668050452.250801
280031710.0,-453.0,91.0,234.0,0.0,0.0,0.0,0.0,0.0,0.0,1.0,280031698.0,1668050452.350731
280131797.0,-453.0,90.0,239.0,0.0,0.0,0.0,0.0,0.0,0.0,1.0,280131756.0,1668050452.450818
280231744.0,-453.0,91.0,238.0,0.0,0.0,0.0,0.0,0.0,0.0,1.0,280231733.0,1668050452.550765
280331698.0,-453.0,90.0,236.0,0.0,0.0,0.0,0.0,0.0,0.0,1.0,280331686.0,1668050452.650719
280431827.0,-453.0,91.0,238.0,0.0,0.0,0.0,0.0,0.0,0.0,1.0,280431815.0,1668050452.750848
280531742.0,-453.0,91.0,238.0,0.0,0.0,0.0,0.0,0.0,0.0,1.0,280531685.0,1668050452.850763
280631726.0,-453.0,90.0,234.0,0.0,0.0,0.0,0.0,0.0,0.0,1.0,280631711.0,1668050452.950747
280731752.0,-453.0,91.0,234.0,0.0,0.0,0.0,0.0,0.0,0.0,1.0,280731733.0,1668050453.050773
280831727.0,-453.0,91.0,235.0,0.0,0.0,0.0,0.0,0.0,0.0,1.0,280831716.0,1668050453.150748
280931699.0,-453.0,92.0,235.0,0.0,0.0,0.0,0.0,0.0,0.0,1.0,280931668.0,1668050453.25072
281031753.0,-453.0,90.0,234.0,0.0,0.0,0.0,0.0,0.0,0.0,1.0,281031742.0,1668050453.350774
281131776.0,-452.0,90.0,238.0,0.0,0.0,0.0,0.0,0.0,0.0,1.0,281131765.0,1668050453.450797
281231811.0,-453.0,90.0,237.0,0.0,0.0,0.0,0.0,0.0,0.0,1.0,281231739.0,1668050453.550832
281331741.0,-454.0,91.0,236.0,0.0,0.0,0.0,0.0,0.0,0.0,1.0,281331729.0,1668050453.650762
281431713.0,-454.0,91.0,236.0,0.0,0.0,0.0,0.0,0.0,0.0,1.0,281431701.0,1668050453.750734
281531790.0,-452.0,91.0,236.0,0.0,0.0,0.0,0.0,0.0,0.0,1.0,281531778.0,1668050453.850811
281631714.0,-453.0,91.0,234.0,0.0,0.0,0.0,0.0,0.0,0.0,1.0,281631703.0,1668050453.950735
281731736.0,-453.0,91.0,236.0,0.0,0.0,0.0,0.0,0.0,0.0,1.0,281731725.0,1668050454.050757
281831680.0,-454.0,91.0,238.0,0.0,0.0,0.0,0.0,0.0,0.0,1.0,281831669.0,1668050454.150701
281931836.0,-454.0,92.0,235.0,0.0,0.0,0.0,0.0,0.0,0.0,1.0,281931822.0,1668050454.2508569
282031783.0,-454.0,91.0,235.0,0.0,0.0,0.0,0.0,0.0,0.0,1.0,282031771.0,1668050454.350804
282131743.0,-453.0,90.0,240.0,0.0,0.0,0.0,0.0,0.0,0.0,1.0,282131731.0,1668050454.450764
282231777.0,-453.0,92.0,237.0,0.0,0.0,0.0,0.0,0.0,0.0,1.0,282231766.0,1668050454.550798
282331697.0,-453.0,92.0,238.0,0.0,0.0,0.0,0.0,0.0,0.0,1.0,282331682.0,1668050454.650718
282431723.0,-454.0,91.0,238.0,0.0,0.0,0.0,0.0,0.0,0.0,1.0,282431712.0,1668050454.750744
282531878.0,-451.0,91.0,236.0,0.0,0.0,0.0,0.0,0.0,0.0,1.0,282531863.0,1668050454.850899
282631780.0,-453.0,92.0,237.0,0.0,0.0,0.0,0.0,0.0,0.0,1.0,282631769.0,1668050454.950801
282731705.0,-454.0,92.0,236.0,0.0,0.0,0.0,0.0,0.0,0.0,1.0,282731693.0,1668050455.050726
282831834.0,-455.0,92.0,234.0,0.0,0.0,0.0,0.0,0.0,0.0,1.0,282831822.0,1668050455.150855
282931810.0,-453.0,91.0,237.0,0.0,0.0,0.0,0.0,0.0,0.0,1.0,282931798.0,1668050455.250831
283031706.0,-453.0,92.0,235.0,0.0,0.0,0.0,0.0,0.0,0.0,1.0,283031694.0,1668050455.350727
283131721.0,-452.0,91.0,240.0,0.0,0.0,0.0,0.0,0.0,0.0,1.0,283131709.0,1668050455.450742
283231745.0,-455.0,92.0,239.0,0.0,0.0,0.0,0.0,0.0,0.0,1.0,283231734.0,1668050455.550766
283331850.0,-454.0,92.0,239.0,0.0,0.0,0.0,0.0,0.0,0.0,1.0,283331839.0,1668050455.650871
283431731.0,-452.0,91.0,238.0,0.0,0.0,0.0,0.0,0.0,0.0,1.0,283431720.0,1668050455.750752
283531803.0,-451.0,91.0,238.0,0.0,0.0,0.0,0.0,0.0,0.0,1.0,283531792.0,1668050455.8508239
283631667.0,-454.0,91.0,237.0,0.0,0.0,0.0,0.0,0.0,0.0,1.0,283631655.0,1668050455.950688
283731851.0,-454.0,92.0,235.0,0.0,0.0,0.0,0.0,0.0,0.0,1.0,283731780.0,1668050456.050872
283831786.0,-454.0,92.0,235.0,0.0,0.0,0.0,0.0,0.0,0.0,1.0,283831774.0,1668050456.150807
283931779.0,-452.0,91.0,237.0,0.0,0.0,0.0,0.0,0.0,0.0,1.0,283931764.0,1668050456.2508
284031740.0,-452.0,91.0,237.0,0.0,0.0,0.0,0.0,0.0,0.0,1.0,284031729.0,1668050456.350761
284131683.0,-453.0,91.0,241.0,0.0,0.0,0.0,0.0,0.0,0.0,1.0,284131623.0,1668050456.450704
284231746.0,-455.0,92.0,238.0,0.0,0.0,0.0,0.0,0.0,0.0,1.0,284231735.0,1668050456.550767
284331711.0,-454.0,92.0,241.0,0.0,0.0,0.0,0.0,0.0,0.0,1.0,284331700.0,1668050456.650732
284431772.0,-453.0,91.0,239.0,0.0,0.0,0.0,0.0,0.0,0.0,1.0,284431760.0,1668050456.750793
284531689.0,-451.0,91.0,236.0,0.0,0.0,0.0,0.0,0.0,0.0,1.0,284531678.0,1668050456.85071
284631881.0,-455.0,92.0,235.0,0.0,0.0,0.0,0.0,0.0,0.0,1.0,284631869.0,1668050456.950902
284731775.0,-456.0,93.0,236.0,0.0,0.0,0.0,0.0,0.0,0.0,1.0,284731763.0,1668050457.050796
284831745.0,-454.0,92.0,236.0,0.0,0.0,0.0,0.0,0.0,0.0,1.0,284831733.0,1668050457.150766
284931719.0,-451.0,90.0,237.0,0.0,0.0,0.0,0.0,0.0,0.0,1.0,284931705.0,1668050457.25074
285031655.0,-454.0,92.0,240.0,0.0,0.0,0.0,0.0,0.0,0.0,1.0,285031643.0,1668050457.350676
285131722.0,-454.0,92.0,240.0,0.0,0.0,0.0,0.0,0.0,0.0,1.0,285131711.0,1668050457.450743
285231700.0,-455.0,92.0,238.0,0.0,0.0,0.0,0.0,0.0,0.0,1.0,285231689.0,1668050457.550721
285331788.0,-451.0,90.0,237.0,0.0,0.0,0.0,0.0,0.0,0.0,1.0,285331777.0,1668050457.650809
285431842.0,-451.0,92.0,240.0,0.0,0.0,0.0,0.0,0.0,0.0,1.0,285431831.0,1668050457.750863
285531842.0,-454.0,92.0,242.0,0.0,0.0,0.0,0.0,0.0,0.0,1.0,285531831.0,1668050457.850863
285631741.0,-456.0,93.0,236.0,0.0,0.0,0.0,0.0,0.0,0.0,1.0,285631730.0,1668050457.950762
285731664.0,-453.0,91.0,234.0,0.0,0.0,0.0,0.0,0.0,0.0,1.0,285731653.0,1668050458.050685
285831762.0,-452.0,92.0,237.0,0.0,0.0,0.0,0.0,0.0,0.0,1.0,285831751.0,1668050458.150783
285931777.0,-456.0,93.0,236.0,0.0,0.0,0.0,0.0,0.0,0.0,1.0,285931766.0,1668050458.250798
286031722.0,-456.0,93.0,237.0,0.0,0.0,0.0,0.0,0.0,0.0,1.0,286031707.0,1668050458.350743
286131713.0,-454.0,91.0,239.0,0.0,0.0,0.0,0.0,0.0,0.0,1.0,286131702.0,1668050458.450734
286231760.0,-450.0,90.0,239.0,0.0,0.0,0.0,0.0,0.0,0.0,1.0,286231748.0,1668050458.550781
286331737.0,-453.0,93.0,240.0,0.0,0.0,0.0,0.0,0.0,0.0,1.0,286331726.0,1668050458.650758
286431898.0,-456.0,91.0,238.0,0.0,0.0,0.0,0.0,0.0,0.0,1.0,286431805.0,1668050458.750919
286531797.0,-455.0,91.0,235.0,0.0,0.0,0.0,0.0,0.0,0.0,1.0,286531782.0,1668050458.850818
286631718.0,-452.0,92.0,235.0,0.0,0.0,0.0,0.0,0.0,0.0,1.0,286631706.0,1668050458.950739
286731855.0,-453.0,93.0,234.0,0.0,0.0,0.0,0.0,0.0,0.0,1.0,286731844.0,1668050459.050876
286831751.0,-456.0,92.0,238.0,0.0,0.0,0.0,0.0,0.0,0.0,1.0,286831740.0,1668050459.150772
286931809.0,-458.0,91.0,237.0,0.0,0.0,0.0,0.0,0.0,0.0,1.0,286931797.0,1668050459.25083
287031718.0,-453.0,92.0,236.0,0.0,0.0,0.0,0.0,0.0,0.0,1.0,287031706.0,1668050459.350739
287131767.0,-451.0,90.0,241.0,0.0,0.0,0.0,0.0,0.0,0.0,1.0,287131752.0,1668050459.450788
287231746.0,-454.0,92.0,240.0,0.0,0.0,0.0,0.0,0.0,0.0,1.0,287231730.0,1668050459.550767
287331840.0,-456.0,92.0,240.0,0.0,0.0,0.0,0.0,0.0,0.0,1.0,287331825.0,1668050459.650861
287431762.0,-455.0,92.0,240.0,0.0,0.0,0.0,0.0,0.0,0.0,1.0,287431750.0,1668050459.750783
287531795.0,-450.0,91.0,240.0,0.0,0.0,0.0,0.0,0.0,0.0,1.0,287531783.0,1668050459.850816
287631821.0,-454.0,92.0,237.0,0.0,0.0,0.0,0.0,0.0,0.0,1.0,287631810.0,1668050459.950842
287731679.0,-456.0,93.0,237.0,0.0,0.0,0.0,0.0,0.0,0.0,1.0,287731668.0,1668050460.0507
287831736.0,-457.0,93.0,240.0,0.0,0.0,0.0,0.0,0.0,0.0,1.0,287831724.0,1668050460.150757
287931742.0,-452.0,91.0,238.0,0.0,0.0,0.0,0.0,0.0,0.0,1.0,287931704.0,1668050460.250763
288031786.0,-452.0,91.0,237.0,0.0,0.0,0.0,0.0,0.0,0.0,1.0,288031775.0,1668050460.350807
288131746.0,-455.0,92.0,240.0,0.0,0.0,0.0,0.0,0.0,0.0,1.0,288131734.0,1668050460.450767
288231854.0,-456.0,92.0,240.0,0.0,0.0,0.0,0.0,0.0,0.0,1.0,288231840.0,1668050460.550875
288331784.0,-453.0,91.0,237.0,0.0,0.0,0.0,0.0,0.0,0.0,1.0,288331773.0,1668050460.650805
288431669.0,-452.0,91.0,238.0,0.0,0.0,0.0,0.0,0.0,0.0,1.0,288431657.0,1668050460.75069
288531768.0,-454.0,91.0,240.0,0.0,0.0,0.0,0.0,0.0,0.0,1.0,288531753.0,1668050460.850789
288631740.0,-457.0,91.0,232.0,0.0,0.0,0.0,0.0,0.0,0.0,1.0,288631729.0,1668050460.950761
288731755.0,-465.0,93.0,241.0,0.0,0.0,0.0,0.0,0.0,0.0,1.0,288731744.0,1668050461.050776
288831823.0,-457.0,90.0,237.0,0.0,0.0,0.0,0.0,0.0,0.0,1.0,288831812.0,1668050461.150844
288931777.0,-449.0,90.0,231.0,0.0,0.0,0.0,0.0,0.0,0.0,1.0,288931766.0,1668050461.250798
289031682.0,-449.0,90.0,233.0,0.0,0.0,0.0,0.0,0.0,0.0,1.0,289031671.0,1668050461.350703
289131863.0,-451.0,90.0,237.0,0.0,0.0,0.0,0.0,0.0,0.0,1.0,289131848.0,1668050461.450884
289231759.0,-453.0,90.0,238.0,0.0,0.0,0.0,0.0,0.0,0.0,1.0,289231748.0,1668050461.55078
289331701.0,-453.0,91.0,239.0,0.0,0.0,0.0,0.0,0.0,0.0,1.0,289331690.0,1668050461.650722
289431734.0,-452.0,90.0,235.0,0.0,0.0,0.0,0.0,0.0,0.0,1.0,289431723.0,1668050461.750755
289531720.0,-452.0,90.0,239.0,0.0,0.0,0.0,0.0,0.0,0.0,1.0,289531709.0,1668050461.850741
289631952.0,-453.0,91.0,234.0,0.0,0.0,0.0,0.0,0.0,0.0,1.0,289631941.0,1668050461.950973
289731700.0,-454.0,91.0,235.0,0.0,0.0,0.0,0.0,0.0,0.0,1.0,289731689.0,1668050462.050721
289843448.0,-446.0,90.0,248.0,0.0,0.0,0.0,0.0,0.0,0.0,1.0,289843435.0,1668050462.162469
289943542.0,-447.0,93.0,249.0,0.0,0.0,0.0,0.0,0.0,0.0,1.0,289943529.0,1668050462.262563
290043524.0,-449.0,91.0,243.0,0.0,0.0,0.0,0.0,0.0,0.0,1.0,290043403.0,1668050462.362545
290143528.0,-452.0,91.0,236.0,0.0,0.0,0.0,0.0,0.0,0.0,1.0,290143476.0,1668050462.462549
290243548.0,-452.0,91.0,235.0,0.0,0.0,0.0,0.0,0.0,0.0,1.0,290243535.0,1668050462.562569
290343473.0,-451.0,91.0,238.0,0.0,0.0,0.0,0.0,0.0,0.0,1.0,290343460.0,1668050462.662494
290443525.0,-453.0,91.0,235.0,0.0,0.0,0.0,0.0,0.0,0.0,1.0,290443508.0,1668050462.762546
290543438.0,-452.0,91.0,236.0,0.0,0.0,0.0,0.0,0.0,0.0,1.0,290543334.0,1668050462.862459
290643518.0,-453.0,92.0,230.0,0.0,0.0,0.0,0.0,0.0,0.0,1.0,290643505.0,1668050462.962539
290743396.0,-453.0,90.0,232.0,0.0,0.0,0.0,0.0,0.0,0.0,1.0,290743382.0,1668050463.062417
290843498.0,-453.0,91.0,233.0,0.0,0.0,0.0,0.0,0.0,0.0,1.0,290843484.0,1668050463.162519
290943515.0,-452.0,92.0,233.0,0.0,0.0,0.0,0.0,0.0,0.0,1.0,290943502.0,1668050463.262536
291043350.0,-451.0,92.0,234.0,0.0,0.0,0.0,0.0,0.0,0.0,1.0,291043337.0,1668050463.362371
291143588.0,-450.0,90.0,235.0,0.0,0.0,0.0,0.0,0.0,0.0,1.0,291143538.0,1668050463.462609
291243379.0,-453.0,90.0,236.0,0.0,0.0,0.0,0.0,0.0,0.0,1.0,291243311.0,1668050463.5624
291343570.0,-452.0,90.0,238.0,0.0,0.0,0.0,0.0,0.0,0.0,1.0,291343557.0,1668050463.662591
291443444.0,-453.0,91.0,235.0,0.0,0.0,0.0,0.0,0.0,0.0,1.0,291443348.0,1668050463.762465
291543451.0,-452.0,91.0,234.0,0.0,0.0,0.0,0.0,0.0,0.0,1.0,291543438.0,1668050463.862472
291643429.0,-452.0,92.0,230.0,0.0,0.0,0.0,0.0,0.0,0.0,1.0,291643416.0,1668050463.96245
291743577.0,-451.0,92.0,233.0,0.0,0.0,0.0,0.0,0.0,0.0,1.0,291743564.0,1668050464.062598
291843658.0,-453.0,91.0,233.0,0.0,0.0,0.0,0.0,0.0,0.0,1.0,291843534.0,1668050464.162679
291943322.0,-452.0,90.0,233.0,0.0,0.0,0.0,0.0,0.0,0.0,1.0,291943309.0,1668050464.262343
292043633.0,-452.0,91.0,234.0,0.0,0.0,0.0,0.0,0.0,0.0,1.0,292043621.0,1668050464.362654
292143553.0,-451.0,90.0,235.0,0.0,0.0,0.0,0.0,0.0,0.0,1.0,292143540.0,1668050464.462574
292243648.0,-452.0,91.0,235.0,0.0,0.0,0.0,0.0,0.0,0.0,1.0,292243597.0,1668050464.562669
292343572.0,-452.0,91.0,234.0,0.0,0.0,0.0,0.0,0.0,0.0,1.0,292343559.0,1668050464.662593
292443550.0,-451.0,92.0,236.0,0.0,0.0,0.0,0.0,0.0,0.0,1.0,292443537.0,1668050464.762571
292543412.0,-452.0,91.0,234.0,0.0,0.0,0.0,0.0,0.0,0.0,1.0,292543395.0,1668050464.862433
292643546.0,-452.0,92.0,231.0,0.0,0.0,0.0,0.0,0.0,0.0,1.0,292643494.0,1668050464.962567
292743439.0,-452.0,92.0,233.0,0.0,0.0,0.0,0.0,0.0,0.0,1.0,292743426.0,1668050465.06246
292843320.0,-452.0,90.0,235.0,0.0,0.0,0.0,0.0,0.0,0.0,1.0,292843307.0,1668050465.1623409
292943424.0,-453.0,91.0,233.0,0.0,0.0,0.0,0.0,0.0,0.0,1.0,292943411.0,1668050465.262445
293043463.0,-453.0,91.0,235.0,0.0,0.0,0.0,0.0,0.0,0.0,1.0,293043450.0,1668050465.362484
293143444.0,-452.0,90.0,236.0,0.0,0.0,0.0,0.0,0.0,0.0,1.0,293143415.0,1668050465.462465
293243337.0,-452.0,91.0,234.0,0.0,0.0,0.0,0.0,0.0,0.0,1.0,293243324.0,1668050465.562358
293343553.0,-452.0,90.0,234.0,0.0,0.0,0.0,0.0,0.0,0.0,1.0,293343539.0,1668050465.662574
293443382.0,-452.0,92.0,234.0,0.0,0.0,0.0,0.0,0.0,0.0,1.0,293443369.0,1668050465.762403
293543596.0,-451.0,90.0,236.0,0.0,0.0,0.0,0.0,0.0,0.0,1.0,293543583.0,1668050465.862617
293643504.0,-452.0,91.0,233.0,0.0,0.0,0.0,0.0,0.0,0.0,1.0,293643491.0,1668050465.962525
293743425.0,-453.0,92.0,232.0,0.0,0.0,0.0,0.0,0.0,0.0,1.0,293743396.0,1668050466.0624459
293843510.0,-452.0,91.0,232.0,0.0,0.0,0.0,0.0,0.0,0.0,1.0,293843496.0,1668050466.162531
293943516.0,-451.0,91.0,232.0,0.0,0.0,0.0,0.0,0.0,0.0,1.0,293943503.0,1668050466.262537
294043429.0,-452.0,91.0,233.0,0.0,0.0,0.0,0.0,0.0,0.0,1.0,294043416.0,1668050466.36245
294143420.0,-452.0,91.0,236.0,0.0,0.0,0.0,0.0,0.0,0.0,1.0,294143404.0,1668050466.462441
294243547.0,-451.0,90.0,238.0,0.0,0.0,0.0,0.0,0.0,0.0,1.0,294243535.0,1668050466.562568
294343599.0,-451.0,91.0,238.0,0.0,0.0,0.0,0.0,0.0,0.0,1.0,294343585.0,1668050466.66262
294443493.0,-452.0,91.0,238.0,0.0,0.0,0.0,0.0,0.0,0.0,1.0,294443480.0,1668050466.7625139
294543594.0,-451.0,90.0,236.0,0.0,0.0,0.0,0.0,0.0,0.0,1.0,294543580.0,1668050466.8626149
294643424.0,-452.0,93.0,233.0,0.0,0.0,0.0,0.0,0.0,0.0,1.0,294643412.0,1668050466.962445
294743511.0,-452.0,91.0,233.0,0.0,0.0,0.0,0.0,0.0,0.0,1.0,294743499.0,1668050467.062532
294843406.0,-452.0,91.0,234.0,0.0,0.0,0.0,0.0,0.0,0.0,1.0,294843393.0,1668050467.162427
294943555.0,-453.0,91.0,236.0,0.0,0.0,0.0,0.0,0.0,0.0,1.0,294943538.0,1668050467.262576
295043408.0,-452.0,91.0,235.0,0.0,0.0,0.0,0.0,0.0,0.0,1.0,295043395.0,1668050467.362429
295143542.0,-444.0,91.0,252.0,0.0,0.0,0.0,0.0,0.0,0.0,1.0,295143531.0,1668050467.462563
295243415.0,-445.0,91.0,251.0,0.0,0.0,0.0,0.0,0.0,0.0,1.0,295243381.0,1668050467.562436
295343473.0,-447.0,91.0,247.0,0.0,0.0,0.0,0.0,0.0,0.0,1.0,295343461.0,1668050467.662494
295443568.0,-444.0,91.0,247.0,0.0,0.0,0.0,0.0,0.0,0.0,1.0,295443509.0,1668050467.762589
295543435.0,-447.0,91.0,249.0,0.0,0.0,0.0,0.0,0.0,0.0,1.0,295543424.0,1668050467.862456
295643506.0,-444.0,91.0,244.0,0.0,0.0,0.0,0.0,0.0,0.0,1.0,295643440.0,1668050467.962527
295743431.0,-445.0,92.0,247.0,0.0,0.0,0.0,0.0,0.0,0.0,1.0,295743420.0,1668050468.062452
295843629.0,-447.0,91.0,247.0,0.0,0.0,0.0,0.0,0.0,0.0,1.0,295843617.0,1668050468.1626499
295943338.0,-445.0,91.0,247.0,0.0,0.0,0.0,0.0,0.0,0.0,1.0,295943327.0,1668050468.262359
296043579.0,-445.0,91.0,249.0,0.0,0.0,0.0,0.0,0.0,0.0,1.0,296043567.0,1668050468.3626
296143416.0,-444.0,89.0,249.0,0.0,0.0,0.0,0.0,0.0,0.0,1.0,296143321.0,1668050468.462437
296243511.0,-446.0,90.0,248.0,0.0,0.0,0.0,0.0,0.0,0.0,1.0,296243500.0,1668050468.562532
296343605.0,-445.0,91.0,251.0,0.0,0.0,0.0,0.0,0.0,0.0,1.0,296343594.0,1668050468.662626
296443488.0,-445.0,90.0,250.0,0.0,0.0,0.0,0.0,0.0,0.0,1.0,296443476.0,1668050468.7625089
296543586.0,-445.0,91.0,247.0,0.0,0.0,0.0,0.0,0.0,0.0,1.0,296543575.0,1668050468.862607
296643447.0,-446.0,91.0,245.0,0.0,0.0,0.0,0.0,0.0,0.0,1.0,296643435.0,1668050468.962468
296743530.0,-446.0,91.0,248.0,0.0,0.0,0.0,0.0,0.0,0.0,1.0,296743465.0,1668050469.062551
296843423.0,-446.0,90.0,245.0,0.0,0.0,0.0,0.0,0.0,0.0,1.0,296843394.0,1668050469.1624439
296943583.0,-446.0,90.0,246.0,0.0,0.0,0.0,0.0,0.0,0.0,1.0,296943540.0,1668050469.262604
297043415.0,-447.0,91.0,248.0,0.0,0.0,0.0,0.0,0.0,0.0,1.0,297043404.0,1668050469.362436
297143576.0,-444.0,90.0,250.0,0.0,0.0,0.0,0.0,0.0,0.0,1.0,297143564.0,1668050469.462597
297243499.0,-444.0,90.0,249.0,0.0,0.0,0.0,0.0,0.0,0.0,1.0,297243487.0,1668050469.56252
297343434.0,-446.0,90.0,247.0,0.0,0.0,0.0,0.0,0.0,0.0,1.0,297343423.0,1668050469.662455
297443584.0,-445.0,90.0,249.0,0.0,0.0,0.0,0.0,0.0,0.0,1.0,297443573.0,1668050469.762605
297543518.0,-444.0,90.0,246.0,0.0,0.0,0.0,0.0,0.0,0.0,1.0,297543507.0,1668050469.862539
297643544.0,-446.0,90.0,246.0,0.0,0.0,0.0,0.0,0.0,0.0,1.0,297643533.0,1668050469.962565
297743377.0,-446.0,91.0,245.0,0.0,0.0,0.0,0.0,0.0,0.0,1.0,297743365.0,1668050470.062398
297843481.0,-447.0,91.0,247.0,0.0,0.0,0.0,0.0,0.0,0.0,1.0,297843449.0,1668050470.162502
297943451.0,-451.0,90.0,237.0,0.0,0.0,0.0,0.0,0.0,0.0,1.0,297943440.0,1668050470.262472
298043522.0,-452.0,90.0,237.0,0.0,0.0,0.0,0.0,0.0,0.0,1.0,298043511.0,1668050470.3625429
298143565.0,-452.0,89.0,238.0,0.0,0.0,0.0,0.0,0.0,0.0,1.0,298143553.0,1668050470.462586
298243465.0,-452.0,90.0,237.0,0.0,0.0,0.0,0.0,0.0,0.0,1.0,298243413.0,1668050470.562486
298343586.0,-451.0,90.0,237.0,0.0,0.0,0.0,0.0,0.0,0.0,1.0,298343574.0,1668050470.662607
298443455.0,-451.0,90.0,237.0,0.0,0.0,0.0,0.0,0.0,0.0,1.0,298443383.0,1668050470.762476
298543624.0,-451.0,89.0,236.0,0.0,0.0,0.0,0.0,0.0,0.0,1.0,298543610.0,1668050470.862645
298643426.0,-452.0,90.0,234.0,0.0,0.0,0.0,0.0,0.0,0.0,1.0,298643415.0,1668050470.962447
298743478.0,-453.0,90.0,234.0,0.0,0.0,0.0,0.0,0.0,0.0,1.0,298743467.0,1668050471.062499
298843558.0,-452.0,90.0,235.0,0.0,0.0,0.0,0.0,0.0,0.0,1.0,298843546.0,1668050471.162579
298943521.0,-453.0,90.0,233.0,0.0,0.0,0.0,0.0,0.0,0.0,1.0,298943510.0,1668050471.262542
299043583.0,-453.0,90.0,232.0,0.0,0.0,0.0,0.0,0.0,0.0,1.0,299043572.0,1668050471.362604
299143433.0,-451.0,90.0,235.0,0.0,0.0,0.0,0.0,0.0,0.0,1.0,299143421.0,1668050471.462454
299243646.0,-452.0,90.0,237.0,0.0,0.0,0.0,0.0,0.0,0.0,1.0,299243634.0,1668050471.562667
299343408.0,-451.0,90.0,237.0,0.0,0.0,0.0,0.0,0.0,0.0,1.0,299343397.0,1668050471.662429
299443496.0,-451.0,90.0,236.0,0.0,0.0,0.0,0.0,0.0,0.0,1.0,299443485.0,1668050471.762517
299543435.0,-453.0,90.0,238.0,0.0,0.0,0.0,0.0,0.0,0.0,1.0,299543423.0,1668050471.862456
299643566.0,-453.0,91.0,233.0,0.0,0.0,0.0,0.0,0.0,0.0,1.0,299643555.0,1668050471.9625869
299743470.0,-454.0,91.0,234.0,0.0,0.0,0.0,0.0,0.0,0.0,1.0,299743389.0,1668050472.062491
299843508.0,-453.0,91.0,237.0,0.0,0.0,0.0,0.0,0.0,0.0,1.0,299843497.0,1668050472.162529
299943556.0,-456.0,92.0,237.0,0.0,0.0,0.0,0.0,0.0,0.0,1.0,299943545.0,1668050472.262577
300043416.0,-456.0,92.0,237.0,0.0,0.0,0.0,0.0,0.0,0.0,1.0,300043405.0,1668050472.362437
300143592.0,-453.0,91.0,239.0,0.0,0.0,0.0,0.0,0.0,0.0,1.0,300143581.0,1668050472.4626129
300243423.0,-453.0,91.0,239.0,0.0,0.0,0.0,0.0,0.0,0.0,1.0,300243412.0,1668050472.562444
300343614.0,-453.0,91.0,237.0,0.0,0.0,0.0,0.0,0.0,0.0,1.0,300343547.0,1668050472.662635
300443316.0,-453.0,90.0,238.0,0.0,0.0,0.0,0.0,0.0,0.0,1.0,300443305.0,1668050472.762337
300543601.0,-453.0,91.0,238.0,0.0,0.0,0.0,0.0,0.0,0.0,1.0,300543589.0,1668050472.862622
300643490.0,-454.0,92.0,236.0,0.0,0.0,0.0,0.0,0.0,0.0,1.0,300643479.0,1668050472.962511
300743507.0,-453.0,91.0,235.0,0.0,0.0,0.0,0.0,0.0,0.0,1.0,300743495.0,1668050473.062528
300843555.0,-454.0,91.0,237.0,0.0,0.0,0.0,0.0,0.0,0.0,1.0,300843544.0,1668050473.162576
300943489.0,-454.0,91.0,236.0,0.0,0.0,0.0,0.0,0.0,0.0,1.0,300943422.0,1668050473.26251
301043613.0,-454.0,91.0,239.0,0.0,0.0,0.0,0.0,0.0,0.0,1.0,301043602.0,1668050473.362634
301143441.0,-456.0,91.0,236.0,0.0,0.0,0.0,0.0,0.0,0.0,1.0,301143430.0,1668050473.462462
301243502.0,-453.0,91.0,240.0,0.0,0.0,0.0,0.0,0.0,0.0,1.0,301243403.0,1668050473.562523
301343633.0,-453.0,90.0,238.0,0.0,0.0,0.0,0.0,0.0,0.0,1.0,301343613.0,1668050473.662654
301443564.0,-453.0,91.0,240.0,0.0,0.0,0.0,0.0,0.0,0.0,1.0,301443553.0,1668050473.762585
301543513.0,-454.0,91.0,240.0,0.0,0.0,0.0,0.0,0.0,0.0,1.0,301543502.0,1668050473.862534
301643629.0,-454.0,91.0,235.0,0.0,0.0,0.0,0.0,0.0,0.0,1.0,301643549.0,1668050473.96265
301743494.0,-455.0,91.0,235.0,0.0,0.0,0.0,0.0,0.0,0.0,1.0,301743483.0,1668050474.062515
301843492.0,-454.0,91.0,236.0,0.0,0.0,0.0,0.0,0.0,0.0,1.0,301843477.0,1668050474.162513
301943463.0,-453.0,91.0,237.0,0.0,0.0,0.0,0.0,0.0,0.0,1.0,301943451.0,1668050474.262484
302043417.0,-453.0,91.0,239.0,0.0,0.0,0.0,0.0,0.0,0.0,1.0,302043405.0,1668050474.362438
302143593.0,-454.0,91.0,239.0,0.0,0.0,0.0,0.0,0.0,0.0,1.0,302143581.0,1668050474.462614
302243426.0,-456.0,91.0,239.0,0.0,0.0,0.0,0.0,0.0,0.0,1.0,302243415.0,1668050474.562447
302343566.0,-455.0,91.0,240.0,0.0,0.0,0.0,0.0,0.0,0.0,1.0,302343555.0,1668050474.662587
302443391.0,-453.0,91.0,238.0,0.0,0.0,0.0,0.0,0.0,0.0,1.0,302443340.0,1668050474.762412
302543513.0,-453.0,91.0,239.0,0.0,0.0,0.0,0.0,0.0,0.0,1.0,302543502.0,1668050474.862534
302643559.0,-454.0,91.0,236.0,0.0,0.0,0.0,0.0,0.0,0.0,1.0,302643548.0,1668050474.96258
302743595.0,-455.0,91.0,238.0,0.0,0.0,0.0,0.0,0.0,0.0,1.0,302743584.0,1668050475.0626159
302843491.0,-455.0,92.0,238.0,0.0,0.0,0.0,0.0,0.0,0.0,1.0,302843480.0,1668050475.162512
302943461.0,-453.0,91.0,235.0,0.0,0.0,0.0,0.0,0.0,0.0,1.0,302943413.0,1668050475.262482
303043582.0,-452.0,91.0,238.0,0.0,0.0,0.0,0.0,0.0,0.0,1.0,303043571.0,1668050475.362603
303143521.0,-455.0,92.0,240.0,0.0,0.0,0.0,0.0,0.0,0.0,1.0,303143459.0,1668050475.462542
303243510.0,-455.0,92.0,241.0,0.0,0.0,0.0,0.0,0.0,0.0,1.0,303243499.0,1668050475.562531
303343456.0,-454.0,91.0,239.0,0.0,0.0,0.0,0.0,0.0,0.0,1.0,303343445.0,1668050475.662477
303443539.0,-453.0,91.0,239.0,0.0,0.0,0.0,0.0,0.0,0.0,1.0,303443527.0,1668050475.76256
303543629.0,-453.0,91.0,238.0,0.0,0.0,0.0,0.0,0.0,0.0,1.0,303543580.0,1668050475.86265
303643452.0,-457.0,93.0,235.0,0.0,0.0,0.0,0.0,0.0,0.0,1.0,303643403.0,1668050475.962473
303743455.0,-456.0,93.0,236.0,0.0,0.0,0.0,0.0,0.0,0.0,1.0,303743444.0,1668050476.062476
303843527.0,-454.0,91.0,235.0,0.0,0.0,0.0,0.0,0.0,0.0,1.0,303843516.0,1668050476.162548
303943577.0,-451.0,91.0,239.0,0.0,0.0,0.0,0.0,0.0,0.0,1.0,303943565.0,1668050476.262598
304043445.0,-456.0,92.0,240.0,0.0,0.0,0.0,0.0,0.0,0.0,1.0,304043356.0,1668050476.362466
304143599.0,-455.0,92.0,241.0,0.0,0.0,0.0,0.0,0.0,0.0,1.0,304143587.0,1668050476.46262
304243456.0,-456.0,92.0,239.0,0.0,0.0,0.0,0.0,0.0,0.0,1.0,304243444.0,1668050476.5624769
304343613.0,-450.0,91.0,238.0,0.0,0.0,0.0,0.0,0.0,0.0,1.0,304343601.0,1668050476.662634
304443446.0,-455.0,92.0,242.0,0.0,0.0,0.0,0.0,0.0,0.0,1.0,304443435.0,1668050476.762467
304543597.0,-457.0,91.0,237.0,0.0,0.0,0.0,0.0,0.0,0.0,1.0,304543585.0,1668050476.862618
304643480.0,-456.0,93.0,237.0,0.0,0.0,0.0,0.0,0.0,0.0,1.0,304643468.0,1668050476.962501
304743462.0,-452.0,91.0,235.0,0.0,0.0,0.0,0.0,0.0,0.0,1.0,304743451.0,1668050477.062483
304843645.0,-456.0,93.0,238.0,0.0,0.0,0.0,0.0,0.0,0.0,1.0,304843634.0,1668050477.162666
304943425.0,-457.0,92.0,239.0,0.0,0.0,0.0,0.0,0.0,0.0,1.0,304943414.0,1668050477.262446
305043638.0,-456.0,93.0,239.0,0.0,0.0,0.0,0.0,0.0,0.0,1.0,305043627.0,1668050477.362659
305143515.0,-450.0,90.0,238.0,0.0,0.0,0.0,0.0,0.0,0.0,1.0,305143504.0,1668050477.462536
305243602.0,-455.0,92.0,239.0,0.0,0.0,0.0,0.0,0.0,0.0,1.0,305243591.0,1668050477.562623
305343583.0,-456.0,91.0,239.0,0.0,0.0,0.0,0.0,0.0,0.0,1.0,305343572.0,1668050477.662604
305443418.0,-457.0,93.0,241.0,0.0,0.0,0.0,0.0,0.0,0.0,1.0,305443406.0,1668050477.762439
305543582.0,-453.0,91.0,240.0,0.0,0.0,0.0,0.0,0.0,0.0,1.0,305543534.0,1668050477.862603
305643500.0,-451.0,92.0,236.0,0.0,0.0,0.0,0.0,0.0,0.0,1.0,305643466.0,1668050477.962521
305743562.0,-456.0,93.0,237.0,0.0,0.0,0.0,0.0,0.0,0.0,1.0,305743550.0,1668050478.062583
305843527.0,-457.0,92.0,237.0,0.0,0.0,0.0,0.0,0.0,0.0,1.0,305843508.0,1668050478.162548
305943535.0,-454.0,92.0,237.0,0.0,0.0,0.0,0.0,0.0,0.0,1.0,305943524.0,1668050478.262556
306043551.0,-451.0,91.0,238.0,0.0,0.0,0.0,0.0,0.0,0.0,1.0,306043503.0,1668050478.362572
306143546.0,-456.0,92.0,241.0,0.0,0.0,0.0,0.0,0.0,0.0,1.0,306143535.0,1668050478.462567
306243447.0,-457.0,92.0,239.0,0.0,0.0,0.0,0.0,0.0,0.0,1.0,306243436.0,1668050478.562468
306343425.0,-455.0,92.0,239.0,0.0,0.0,0.0,0.0,0.0,0.0,1.0,306343414.0,1668050478.662446
306443597.0,-450.0,90.0,239.0,0.0,0.0,0.0,0.0,0.0,0.0,1.0,306443549.0,1668050478.762618
306543405.0,-455.0,92.0,241.0,0.0,0.0,0.0,0.0,0.0,0.0,1.0,306543394.0,1668050478.862426
306643549.0,-458.0,93.0,238.0,0.0,0.0,0.0,0.0,0.0,0.0,1.0,306643538.0,1668050478.96257
306743435.0,-454.0,93.0,236.0,0.0,0.0,0.0,0.0,0.0,0.0,1.0,306743424.0,1668050479.062456
306843571.0,-453.0,92.0,237.0,0.0,0.0,0.0,0.0,0.0,0.0,1.0,306843453.0,1668050479.162592
306943634.0,-454.0,93.0,239.0,0.0,0.0,0.0,0.0,0.0,0.0,1.0,306943530.0,1668050479.262655
