TimeUS,LiftMax,BatVolt,BatRes,ThLimit,timestamp
221061944.0,0.9630942940711975,0.9793065190315247,0.0,1.0,1668050393.380965
221161538.0,0.9628535509109497,0.9791702628135681,0.0,1.0,1668050393.4805589
221261550.0,0.9626137018203735,0.9790344834327698,0.0,1.0,1668050393.580571
221361365.0,0.9625563025474548,0.9790019989013672,0.0,1.0,1668050393.680386
221461355.0,0.9626296162605286,0.9790434837341309,0.0,1.0,1668050393.780376
221561416.0,0.9626938104629517,0.9790798425674438,0.0,1.0,1668050393.880437
221661351.0,0.9627646803855896,0.9791199564933777,0.0,1.0,1668050393.980372
221761347.0,0.9628477692604065,0.9791669845581055,0.0,1.0,1668050394.080368
221861302.0,0.9629460573196411,0.9792225956916809,0.0,1.0,1668050394.180323
221961698.0,0.9629955291748047,0.9792506098747253,0.0,1.0,1668050394.280719
222061422.0,0.9630530476570129,0.9792831540107727,0.0,1.0,1668050394.380443
222161403.0,0.9630451202392578,0.9792786836624146,0.0,1.0,1668050394.480424
222261363.0,0.9630562663078308,0.9792850017547607,0.0,1.0,1668050394.580384
222361533.0,0.963087260723114,0.9793025255203247,0.0,1.0,1668050394.680554
222461451.0,0.9631085395812988,0.9793145656585693,0.0,1.0,1668050394.780472
222561420.0,0.9631130695343018,0.9793171286582947,0.0,1.0,1668050394.880441
222661533.0,0.9631289839744568,0.9793261289596558,0.0,1.0,1668050394.980554
222761356.0,0.9631518125534058,0.979339063167572,0.0,1.0,1668050395.080377
222861527.0,0.9631563425064087,0.9793416261672974,0.0,1.0,1668050395.180548
222961487.0,0.9631717205047607,0.9793503284454346,0.0,1.0,1668050395.280508
223061764.0,0.9631720185279846,0.9793505072593689,0.0,1.0,1668050395.380785
223161695.0,0.9631827473640442,0.979356586933136,0.0,1.0,1668050395.480716
223261427.0,0.9631564617156982,0.9793416857719421,0.0,1.0,1668050395.580448
223361661.0,0.9631380438804626,0.9793312549591064,0.0,1.0,1668050395.680682
223461408.0,0.96314537525177,0.9793354272842407,0.0,1.0,1668050395.780429
223561402.0,0.9631184339523315,0.9793201684951782,0.0,1.0,1668050395.880423
223661369.0,0.9631329774856567,0.9793283939361572,0.0,1.0,1668050395.98039
223761449.0,0.9631558060646057,0.9793413281440735,0.0,1.0,1668050396.08047
223861411.0,0.9631832242012024,0.9793568253517151,0.0,1.0,1668050396.180432
223961419.0,0.9631916284561157,0.9793615937232971,0.0,1.0,1668050396.28044
224061778.0,0.9631977081298828,0.9793650507926941,0.0,1.0,1668050396.380799
224161381.0,0.9632019400596619,0.9793674349784851,0.0,1.0,1668050396.480402
224261421.0,0.9632053971290588,0.9793694019317627,0.0,1.0,1668050396.580442
227273600.0,0.9628825187683105,0.9791866540908813,0.0,1.0,1668050399.592621
227373344.0,0.9626617431640625,0.9790616631507874,0.0,1.0,1668050399.692365
227473368.0,0.9625673890113831,0.9790082573890686,0.0,1.0,1668050399.792389
227573412.0,0.9625589847564697,0.9790034890174866,0.0,1.0,1668050399.892433
227673320.0,0.9627130031585693,0.979090690612793,0.0,1.0,1668050399.992341
227773401.0,0.9628613591194153,0.9791746735572815,0.0,1.0,1668050400.092422
227873339.0,0.9629793167114258,0.9792414307594299,0.0,1.0,1668050400.19236
227973331.0,0.9630430340766907,0.979277491569519,0.0,1.0,1668050400.292352
228073412.0,0.963101863861084,0.9793108105659485,0.0,1.0,1668050400.392433
228173484.0,0.9631322026252747,0.9793279767036438,0.0,1.0,1668050400.492505
228273249.0,0.9631548523902893,0.9793407917022705,0.0,1.0,1668050400.59227
228373247.0,0.9631708860397339,0.9793498516082764,0.0,1.0,1668050400.692268
228473377.0,0.9631826877593994,0.9793565273284912,0.0,1.0,1668050400.792398
228573418.0,0.9631794095039368,0.9793546795845032,0.0,1.0,1668050400.892439
228673630.0,0.9632020592689514,0.9793674945831299,0.0,1.0,1668050400.992651
228773437.0,0.963257372379303,0.979398787021637,0.0,1.0,1668050401.092458
228873409.0,0.9632813334465027,0.9794123768806458,0.0,1.0,1668050401.19243
228973306.0,0.9633094668388367,0.9794282913208008,0.0,1.0,1668050401.292327
229073529.0,0.9632935523986816,0.9794192910194397,0.0,1.0,1668050401.39255
229173304.0,0.9631645679473877,0.9793462753295898,0.0,1.0,1668050401.492325
229273381.0,0.9629812836647034,0.9792425632476807,0.0,1.0,1668050401.592402
229373376.0,0.9629169702529907,0.9792061448097229,0.0,1.0,1668050401.6923969
229473411.0,0.9629169702529907,0.9792061448097229,0.0,1.0,1668050401.792432
229573367.0,0.9628685116767883,0.9791787266731262,0.0,1.0,1668050401.892388
229673354.0,0.9628334641456604,0.979158878326416,0.0,1.0,1668050401.992375
229773394.0,0.9628230333328247,0.9791529774665833,0.0,1.0,1668050402.092415
229873234.0,0.9629417061805725,0.9792201519012451,0.0,1.0,1668050402.192255
229973366.0,0.9630735516548157,0.9792947769165039,0.0,1.0,1668050402.292387
230073389.0,0.963162899017334,0.9793453216552734,0.0,1.0,1668050402.39241
233087086.0,0.9631298780441284,0.9793266654014587,0.0,1.0,1668050405.406107
233186782.0,0.962964653968811,0.9792331457138062,0.0,1.0,1668050405.5058029
233286734.0,0.9628193378448486,0.9791508913040161,0.0,1.0,1668050405.605755
233387089.0,0.9627184867858887,0.9790937900543213,0.0,1.0,1668050405.70611
233486868.0,0.9627636671066284,0.9791193604469299,0.0,1.0,1668050405.805889
233586885.0,0.9628846645355225,0.9791878461837769,0.0,1.0,1668050405.905906
233686791.0,0.9629624485969543,0.9792318940162659,0.0,1.0,1668050406.005812
233786785.0,0.9630426168441772,0.9792772531509399,0.0,1.0,1668050406.1058059
233886710.0,0.963114321231842,0.979317843914032,0.0,1.0,1668050406.205731
233986679.0,0.9631422162055969,0.9793336391448975,0.0,1.0,1668050406.3057
234086819.0,0.9631850719451904,0.979357898235321,0.0,1.0,1668050406.40584
234186743.0,0.9632059335708618,0.9793696999549866,0.0,1.0,1668050406.505764
234286726.0,0.9632084965705872,0.9793711304664612,0.0,1.0,1668050406.605747
234387233.0,0.9631994366645813,0.9793660044670105,0.0,1.0,1668050406.706254
234486757.0,0.9632033109664917,0.9793682098388672,0.0,1.0,1668050406.805778
234586865.0,0.9631956219673157,0.9793638586997986,0.0,1.0,1668050406.905886
234686797.0,0.9632126092910767,0.9793734550476074,0.0,1.0,1668050407.005818
234786757.0,0.963213324546814,0.9793738722801208,0.0,1.0,1668050407.105778
234886746.0,0.9632413387298584,0.9793897271156311,0.0,1.0,1668050407.205767
234986724.0,0.96330326795578,0.979424774646759,0.0,1.0,1668050407.305745
235086794.0,0.9632980823516846,0.979421854019165,0.0,1.0,1668050407.405815
235186833.0,0.963118314743042,0.9793201088905334,0.0,1.0,1668050407.505854
235286946.0,0.9629363417625427,0.9792171120643616,0.0,1.0,1668050407.605967
235387085.0,0.9628950357437134,0.9791937470436096,0.0,1.0,1668050407.706106
235486868.0,0.9628884196281433,0.9791899919509888,0.0,1.0,1668050407.805889
235586753.0,0.9628010392189026,0.9791405200958252,0.0,1.0,1668050407.9057739
235686783.0,0.9627499580383301,0.9791116118431091,0.0,1.0,1668050408.005804
238399077.0,0.9626615047454834,0.9790615439414978,0.0,1.0,1668050410.718098
238499439.0,0.9626216888427734,0.9790390133857727,0.0,1.0,1668050410.81846
238598827.0,0.9625495672225952,0.9789981842041016,0.0,1.0,1668050410.9178479
238698906.0,0.9625811576843262,0.9790160655975342,0.0,1.0,1668050411.017927
238798959.0,0.9627645015716553,0.9791198372840881,0.0,1.0,1668050411.11798
238898908.0,0.9628852605819702,0.9791882038116455,0.0,1.0,1668050411.217929
238998897.0,0.9629629850387573,0.9792321920394897,0.0,1.0,1668050411.317918
239098865.0,0.9630434513092041,0.9792777299880981,0.0,1.0,1668050411.417886
239198917.0,0.9630897045135498,0.9793038964271545,0.0,1.0,1668050411.517938
239298913.0,0.9631226658821106,0.9793225526809692,0.0,1.0,1668050411.617934
239398943.0,0.9631233811378479,0.9793229699134827,0.0,1.0,1668050411.717964
239499008.0,0.9631479978561401,0.9793369174003601,0.0,1.0,1668050411.818029
239598891.0,0.9631665349006653,0.9793474078178406,0.0,1.0,1668050411.917912
239698961.0,0.9631917476654053,0.9793616533279419,0.0,1.0,1668050412.017982
239798878.0,0.9632242918014526,0.9793800711631775,0.0,1.0,1668050412.117899
239898843.0,0.9632457494735718,0.9793922305107117,0.0,1.0,1668050412.217864
239999015.0,0.9632730484008789,0.9794076681137085,0.0,1.0,1668050412.318036
240098831.0,0.963295578956604,0.9794204235076904,0.0,1.0,1668050412.417852
240198847.0,0.9632858633995056,0.9794149398803711,0.0,1.0,1668050412.517868
240298841.0,0.9632667303085327,0.979404091835022,0.0,1.0,1668050412.617862
240398942.0,0.9632420539855957,0.9793901443481445,0.0,1.0,1668050412.717963
240499011.0,0.9632464051246643,0.9793925881385803,0.0,1.0,1668050412.818032
240599147.0,0.9632280468940735,0.9793822169303894,0.0,1.0,1668050412.918168
240698886.0,0.9632596373558044,0.979400098323822,0.0,1.0,1668050413.017907
240799108.0,0.9632738828659058,0.9794081449508667,0.0,1.0,1668050413.118129
240898920.0,0.9632937908172607,0.9794194102287292,0.0,1.0,1668050413.217941
240999000.0,0.9633303284645081,0.9794400930404663,0.0,1.0,1668050413.318021
241098924.0,0.9633171558380127,0.9794326424598694,0.0,1.0,1668050413.417945
241198858.0,0.9631317257881165,0.9793276786804199,0.0,1.0,1668050413.517879
241298901.0,0.9629349708557129,0.9792163372039795,0.0,1.0,1668050413.617922
241399070.0,0.9629058241844177,0.9791998267173767,0.0,1.0,1668050413.718091
241499153.0,0.9629074931144714,0.9792007803916931,0.0,1.0,1668050413.818174
241598854.0,0.9628269076347351,0.9791551828384399,0.0,1.0,1668050413.917875
241698840.0,0.9627907872200012,0.979134738445282,0.0,1.0,1668050414.017861
241798855.0,0.9627674221992493,0.9791215062141418,0.0,1.0,1668050414.117876
241898837.0,0.9629335999488831,0.9792155623435974,0.0,1.0,1668050414.217858
241999023.0,0.9630217552185059,0.9792654514312744,0.0,1.0,1668050414.318044
242098955.0,0.9631084203720093,0.9793145060539246,0.0,1.0,1668050414.417976
242198905.0,0.9631491899490356,0.9793375730514526,0.0,1.0,1668050414.517926
242298830.0,0.9631456136703491,0.9793355464935303,0.0,1.0,1668050414.617851
242399025.0,0.9631767868995667,0.9793531894683838,0.0,1.0,1668050414.718046
242499115.0,0.9632247090339661,0.9793803095817566,0.0,1.0,1668050414.818136
242598795.0,0.9632107019424438,0.9793723821640015,0.0,1.0,1668050414.917816
242699066.0,0.9632019400596619,0.9793674349784851,0.0,1.0,1668050415.018087
242799069.0,0.9632422924041748,0.9793902635574341,0.0,1.0,1668050415.11809
242899103.0,0.9633252620697021,0.9794372320175171,0.0,1.0,1668050415.218124
242999067.0,0.9633543491363525,0.9794536828994751,0.0,1.0,1668050415.318088
243098912.0,0.9633739590644836,0.9794647693634033,0.0,1.0,1668050415.417933
243198870.0,0.963331401348114,0.9794406890869141,0.0,1.0,1668050415.517891
243298971.0,0.9633016586303711,0.9794238805770874,0.0,1.0,1668050415.617992
243398854.0,0.9633255004882812,0.9794373512268066,0.0,1.0,1668050415.717875
246511109.0,0.9632406830787659,0.9793893694877625,0.0,1.0,1668050418.83013
246610847.0,0.9630769491195679,0.9792966842651367,0.0,1.0,1668050418.929868
246710971.0,0.9629239439964294,0.9792100787162781,0.0,1.0,1668050419.029992
246810751.0,0.9628661274909973,0.9791773557662964,0.0,1.0,1668050419.129772
246910843.0,0.9629717469215393,0.9792371392250061,0.0,1.0,1668050419.229864
247010732.0,0.9630504846572876,0.9792817234992981,0.0,1.0,1668050419.329753
247110787.0,0.9631175994873047,0.97931969165802,0.0,1.0,1668050419.429808
247210890.0,0.9631443619728088,0.979334831237793,0.0,1.0,1668050419.529911
247310778.0,0.9631762504577637,0.9793528914451599,0.0,1.0,1668050419.629799
247410671.0,0.9631865620613098,0.9793587327003479,0.0,1.0,1668050419.729692
247510698.0,0.9631949663162231,0.9793635010719299,0.0,1.0,1668050419.829719
247610724.0,0.9631997346878052,0.9793661832809448,0.0,1.0,1668050419.929745
247710919.0,0.9632157683372498,0.9793752431869507,0.0,1.0,1668050420.02994
247810751.0,0.9632387161254883,0.9793882369995117,0.0,1.0,1668050420.129772
247910751.0,0.9632457494735718,0.9793922305107117,0.0,1.0,1668050420.229772
248010699.0,0.963260293006897,0.9794004559516907,0.0,1.0,1668050420.32972
248110824.0,0.9632481932640076,0.9793936014175415,0.0,1.0,1668050420.429845
248211081.0,0.9632397294044495,0.9793888330459595,0.0,1.0,1668050420.530102
248310712.0,0.9632331132888794,0.9793850779533386,0.0,1.0,1668050420.629733
248410837.0,0.9632171988487244,0.9793760776519775,0.0,1.0,1668050420.729858
248510718.0,0.963217556476593,0.9793762564659119,0.0,1.0,1668050420.829739
248610754.0,0.9632307887077332,0.9793837666511536,0.0,1.0,1668050420.929775
248710949.0,0.9632610082626343,0.9794008731842041,0.0,1.0,1668050421.02997
248810749.0,0.9632626175880432,0.9794017672538757,0.0,1.0,1668050421.12977
248910680.0,0.9633141160011292,0.9794309139251709,0.0,1.0,1668050421.229701
249010841.0,0.9633215069770813,0.9794350862503052,0.0,1.0,1668050421.3298619
249110759.0,0.9632930755615234,0.9794189929962158,0.0,1.0,1668050421.42978
249210787.0,0.963271975517273,0.9794070720672607,0.0,1.0,1668050421.529808
249310832.0,0.9632454514503479,0.9793920516967773,0.0,1.0,1668050421.629853
249410795.0,0.9632369875907898,0.9793872833251953,0.0,1.0,1668050421.729816
249510700.0,0.963232159614563,0.9793845415115356,0.0,1.0,1668050421.829721
249610777.0,0.9632276296615601,0.9793819785118103,0.0,1.0,1668050421.929798
249710805.0,0.9632132053375244,0.9793738126754761,0.0,1.0,1668050422.029826
249810800.0,0.9632136225700378,0.9793740510940552,0.0,1.0,1668050422.129821
252822887.0,0.9631818532943726,0.979356050491333,0.0,1.0,1668050425.141908
252922718.0,0.9630372524261475,0.9792742133140564,0.0,1.0,1668050425.241739
253022712.0,0.9628843069076538,0.9791876673698425,0.0,1.0,1668050425.341733
253122726.0,0.9628215432167053,0.9791521430015564,0.0,1.0,1668050425.441747
253222826.0,0.9627881646156311,0.9791332483291626,0.0,1.0,1668050425.541847
253322722.0,0.962890088558197,0.9791909456253052,0.0,1.0,1668050425.641743
253422702.0,0.9629313945770264,0.9792143106460571,0.0,1.0,1668050425.741723
253522706.0,0.9629818201065063,0.9792428612709045,0.0,1.0,1668050425.841727
253622714.0,0.9630222916603088,0.9792657494544983,0.0,1.0,1668050425.941735
253722860.0,0.9630855917930603,0.9793015718460083,0.0,1.0,1668050426.041881
253822683.0,0.9631203413009644,0.9793212413787842,0.0,1.0,1668050426.141704
253922728.0,0.9631465673446655,0.9793360829353333,0.0,1.0,1668050426.241749
254022762.0,0.9631879329681396,0.97935950756073,0.0,1.0,1668050426.341783
254122827.0,0.9631958603858948,0.9793639779090881,0.0,1.0,1668050426.441848
254222625.0,0.9631997346878052,0.9793661832809448,0.0,1.0,1668050426.541646
254322640.0,0.9631920456886292,0.9793618321418762,0.0,1.0,1668050426.641661
254422741.0,0.963196873664856,0.9793645739555359,0.0,1.0,1668050426.741762
254522654.0,0.9631641507148743,0.9793460369110107,0.0,1.0,1668050426.841675
254622716.0,0.9631781578063965,0.9793539643287659,0.0,1.0,1668050426.941737
254722686.0,0.9631997346878052,0.9793661832809448,0.0,1.0,1668050427.041707
254822628.0,0.9632046818733215,0.9793689846992493,0.0,1.0,1668050427.141649
254922765.0,0.9632328152656555,0.9793848991394043,0.0,1.0,1668050427.241786
255022770.0,0.963229238986969,0.9793828725814819,0.0,1.0,1668050427.341791
255122722.0,0.963248074054718,0.9793935418128967,0.0,1.0,1668050427.441743
255222624.0,0.9632396697998047,0.9793887734413147,0.0,1.0,1668050427.541645
255322687.0,0.9632334113121033,0.979385256767273,0.0,1.0,1668050427.641708
255422721.0,0.9632284641265869,0.9793824553489685,0.0,1.0,1668050427.741742
255522683.0,0.9631994366645813,0.9793660044670105,0.0,1.0,1668050427.841704
258434888.0,0.9631348848342896,0.9793294668197632,0.0,1.0,1668050430.7539089
258534841.0,0.9629224538803101,0.9792092442512512,0.0,1.0,1668050430.853862
258634748.0,0.9627700448036194,0.9791229963302612,0.0,1.0,1668050430.953769
258734945.0,0.9627639651298523,0.9791195392608643,0.0,1.0,1668050431.053966
258834747.0,0.96284019947052,0.9791626930236816,0.0,1.0,1668050431.153768
258934852.0,0.9629532098770142,0.9792266488075256,0.0,1.0,1668050431.2538729
259034704.0,0.9630122780799866,0.9792600870132446,0.0,1.0,1668050431.353725
259134749.0,0.9630661010742188,0.9792905449867249,0.0,1.0,1668050431.45377
259234823.0,0.9630808234214783,0.9792988896369934,0.0,1.0,1668050431.553844
259334767.0,0.9631167650222778,0.9793192148208618,0.0,1.0,1668050431.653788
259434861.0,0.9631317257881165,0.9793276786804199,0.0,1.0,1668050431.753882
259534805.0,0.9631540179252625,0.9793403148651123,0.0,1.0,1668050431.853826
259634904.0,0.9631582498550415,0.9793426990509033,0.0,1.0,1668050431.953925
259734786.0,0.9631633758544922,0.9793456196784973,0.0,1.0,1668050432.053807
259834802.0,0.963200569152832,0.979366660118103,0.0,1.0,1668050432.153823
259934759.0,0.9632173180580139,0.9793761372566223,0.0,1.0,1668050432.25378
260034791.0,0.9632176160812378,0.9793763160705566,0.0,1.0,1668050432.353812
260134789.0,0.9632284045219421,0.9793823957443237,0.0,1.0,1668050432.45381
260234754.0,0.9632241725921631,0.9793800115585327,0.0,1.0,1668050432.553775
260334743.0,0.963221549987793,0.9793785214424133,0.0,1.0,1668050432.653764
260434782.0,0.9631972312927246,0.9793647527694702,0.0,1.0,1668050432.753803
260534918.0,0.963201105594635,0.9793669581413269,0.0,1.0,1668050432.853939
260634763.0,0.9631931185722351,0.979362428188324,0.0,1.0,1668050432.953784
260734822.0,0.9631989002227783,0.9793657064437866,0.0,1.0,1668050433.053843
260834758.0,0.9632148742675781,0.9793747663497925,0.0,1.0,1668050433.153779
260934745.0,0.9632273316383362,0.979381799697876,0.0,1.0,1668050433.253766
261034767.0,0.963213324546814,0.9793738722801208,0.0,1.0,1668050433.353788
261134907.0,0.9632255434989929,0.9793807864189148,0.0,1.0,1668050433.453928
261234742.0,0.963221549987793,0.9793785214424133,0.0,1.0,1668050433.553763
261334900.0,0.963197648525238,0.9793649911880493,0.0,1.0,1668050433.653921
261434901.0,0.9632141590118408,0.979374349117279,0.0,1.0,1668050433.753922
261534856.0,0.9632270336151123,0.9793816208839417,0.0,1.0,1668050433.853877
261634734.0,0.9632232189178467,0.9793794751167297,0.0,1.0,1668050433.953755
261734788.0,0.9632318615913391,0.9793843626976013,0.0,1.0,1668050434.053809
261834865.0,0.963217556476593,0.9793762564659119,0.0,1.0,1668050434.153886
261934761.0,0.9632555246353149,0.9793977737426758,0.0,1.0,1668050434.253782
262034823.0,0.963268518447876,0.9794051051139832,0.0,1.0,1668050434.353844
262134787.0,0.9632880091667175,0.9794161319732666,0.0,1.0,1668050434.453808
262234772.0,0.963255763053894,0.9793978929519653,0.0,1.0,1668050434.553793
262334937.0,0.963245153427124,0.979391872882843,0.0,1.0,1668050434.653958
262434772.0,0.963236391544342,0.9793869256973267,0.0,1.0,1668050434.753793
262534765.0,0.9632182717323303,0.9793766736984253,0.0,1.0,1668050434.853786
262634788.0,0.9632189273834229,0.979377031326294,0.0,1.0,1668050434.953809
262734799.0,0.9632422924041748,0.9793902635574341,0.0,1.0,1668050435.05382
262834801.0,0.9632811546325684,0.9794122576713562,0.0,1.0,1668050435.153822
262934763.0,0.9632900953292847,0.9794173240661621,0.0,1.0,1668050435.253784
263034821.0,0.9633173942565918,0.9794327616691589,0.0,1.0,1668050435.353842
263134775.0,0.9633461236953735,0.9794490337371826,0.0,1.0,1668050435.453796
263234914.0,0.9632856845855713,0.9794148206710815,0.0,1.0,1668050435.553935
263334795.0,0.9632666110992432,0.9794040322303772,0.0,1.0,1668050435.653816
263434871.0,0.9632418751716614,0.979390025138855,0.0,1.0,1668050435.753892
263534891.0,0.9632457494735718,0.9793922305107117,0.0,1.0,1668050435.8539119
263634849.0,0.9632387161254883,0.9793882369995117,0.0,1.0,1668050435.95387
263734780.0,0.963278591632843,0.9794108271598816,0.0,1.0,1668050436.053801
263834781.0,0.9632861018180847,0.9794150590896606,0.0,1.0,1668050436.153802
263934785.0,0.9633327722549438,0.9794414639472961,0.0,1.0,1668050436.2538059
264034832.0,0.9633822441101074,0.9794694781303406,0.0,1.0,1668050436.353853
264134830.0,0.9633826017379761,0.9794696569442749,0.0,1.0,1668050436.453851
264234719.0,0.9633634090423584,0.9794588088989258,0.0,1.0,1668050436.55374
264334736.0,0.9633350968360901,0.9794427752494812,0.0,1.0,1668050436.653757
264434786.0,0.9633028507232666,0.9794245362281799,0.0,1.0,1668050436.753807
264534815.0,0.9632792472839355,0.9794111847877502,0.0,1.0,1668050436.853836
264634758.0,0.9632517695426941,0.9793956279754639,0.0,1.0,1668050436.953779
264734806.0,0.9633108377456665,0.9794290661811829,0.0,1.0,1668050437.053827
264834733.0,0.9633103013038635,0.979428768157959,0.0,1.0,1668050437.153754
264934716.0,0.9633365273475647,0.9794436097145081,0.0,1.0,1668050437.253737
265034914.0,0.963339626789093,0.9794453382492065,0.0,1.0,1668050437.353935
265134785.0,0.9633386731147766,0.9794448018074036,0.0,1.0,1668050437.453806
265234786.0,0.9633048176765442,0.9794256687164307,0.0,1.0,1668050437.553807
265334786.0,0.9632555246353149,0.9793977737426758,0.0,1.0,1668050437.653807
265434733.0,0.9632453322410583,0.9793919920921326,0.0,1.0,1668050437.753754
265534957.0,0.9632495641708374,0.9793943762779236,0.0,1.0,1668050437.853978
265634770.0,0.9632540941238403,0.9793969392776489,0.0,1.0,1668050437.953791
265734939.0,0.9632671475410461,0.9794043302536011,0.0,1.0,1668050438.05396
265834773.0,0.9632773399353027,0.9794101119041443,0.0,1.0,1668050438.153794
265934889.0,0.9633191823959351,0.9794337749481201,0.0,1.0,1668050438.25391
266034778.0,0.9633421301841736,0.9794467687606812,0.0,1.0,1668050438.353799
266134823.0,0.9633193016052246,0.9794338345527649,0.0,1.0,1668050438.453844
266234819.0,0.9632906317710876,0.979417622089386,0.0,1.0,1668050438.55384
266334753.0,0.963245153427124,0.979391872882843,0.0,1.0,1668050438.653774
266434765.0,0.963236391544342,0.9793869256973267,0.0,1.0,1668050438.753786
266534778.0,0.9632195234298706,0.9793773889541626,0.0,1.0,1668050438.853799
266634744.0,0.9632325768470764,0.9793847799301147,0.0,1.0,1668050438.953765
266734809.0,0.9632749557495117,0.9794087409973145,0.0,1.0,1668050439.05383
266834955.0,0.9633069634437561,0.9794268608093262,0.0,1.0,1668050439.153976
266934783.0,0.9633718132972717,0.9794635772705078,0.0,1.0,1668050439.253804
267034743.0,0.9633649587631226,0.9794597029685974,0.0,1.0,1668050439.353764
267134784.0,0.9633597135543823,0.9794567227363586,0.0,1.0,1668050439.453805
267234770.0,0.9633207321166992,0.9794346690177917,0.0,1.0,1668050439.553791
267334710.0,0.963280200958252,0.9794117212295532,0.0,1.0,1668050439.6537309
267434736.0,0.9632745385169983,0.9794085025787354,0.0,1.0,1668050439.753757
267534798.0,0.9632359743118286,0.9793866872787476,0.0,1.0,1668050439.853819
267634830.0,0.9632319808006287,0.9793844223022461,0.0,1.0,1668050439.953851
267734934.0,0.9632405042648315,0.9793892502784729,0.0,1.0,1668050440.053955
267834761.0,0.9632686376571655,0.9794051647186279,0.0,1.0,1668050440.153782
267934801.0,0.9632807374000549,0.9794120192527771,0.0,1.0,1668050440.253822
268034833.0,0.9632986187934875,0.9794221520423889,0.0,1.0,1668050440.353854
268134759.0,0.9633100032806396,0.9794285893440247,0.0,1.0,1668050440.45378
268234806.0,0.9632731676101685,0.9794077277183533,0.0,1.0,1668050440.553827
268334708.0,0.9632578492164612,0.9793990850448608,0.0,1.0,1668050440.653729
268434759.0,0.9632454514503479,0.9793920516967773,0.0,1.0,1668050440.75378
268534905.0,0.9632033109664917,0.9793682098388672,0.0,1.0,1668050440.853926
268634868.0,0.9632081389427185,0.9793709516525269,0.0,1.0,1668050440.953889
268734782.0,0.963233232498169,0.9793851375579834,0.0,1.0,1668050441.053803
268834757.0,0.9632408022880554,0.9793894290924072,0.0,1.0,1668050441.153778
268934780.0,0.963258683681488,0.979399561882019,0.0,1.0,1668050441.2538009
269034745.0,0.9633105397224426,0.9794288873672485,0.0,1.0,1668050441.353766
269134805.0,0.9632958769798279,0.9794206023216248,0.0,1.0,1668050441.453826
269234771.0,0.9632516503334045,0.9793955683708191,0.0,1.0,1668050441.553792
269334742.0,0.9632417559623718,0.9793899655342102,0.0,1.0,1668050441.653763
269434787.0,0.9632123708724976,0.9793733358383179,0.0,1.0,1668050441.753808
269534950.0,0.9632242918014526,0.9793800711631775,0.0,1.0,1668050441.853971
269634779.0,0.9632105827331543,0.9793723225593567,0.0,1.0,1668050441.9538
269734848.0,0.963247537612915,0.9793932437896729,0.0,1.0,1668050442.053869
269834772.0,0.9632858037948608,0.9794148802757263,0.0,1.0,1668050442.153793
269934915.0,0.96331387758255,0.9794307947158813,0.0,1.0,1668050442.253936
270034809.0,0.96333909034729,0.9794450402259827,0.0,1.0,1668050442.35383
270134814.0,0.963338315486908,0.9794446229934692,0.0,1.0,1668050442.453835
270234761.0,0.9632948637008667,0.979420006275177,0.0,1.0,1668050442.553782
270334746.0,0.9632980227470398,0.9794217944145203,0.0,1.0,1668050442.6537669
270434916.0,0.9632645845413208,0.9794028997421265,0.0,1.0,1668050442.753937
270534793.0,0.9632518887519836,0.9793956875801086,0.0,1.0,1668050442.853814
270634770.0,0.9632567167282104,0.9793984293937683,0.0,1.0,1668050442.953791
270734812.0,0.9632809162139893,0.9794121384620667,0.0,1.0,1668050443.053833
270834729.0,0.9633110761642456,0.9794291853904724,0.0,1.0,1668050443.15375
270934727.0,0.9633628726005554,0.9794585108757019,0.0,1.0,1668050443.253748
271034774.0,0.9633809924125671,0.9794687628746033,0.0,1.0,1668050443.353795
271134782.0,0.963371217250824,0.9794632196426392,0.0,1.0,1668050443.453803
271234734.0,0.9633293747901917,0.9794395565986633,0.0,1.0,1668050443.553755
271334801.0,0.9632986187934875,0.9794221520423889,0.0,1.0,1668050443.653822
271434836.0,0.9632654786109924,0.9794033765792847,0.0,1.0,1668050443.753857
271534846.0,0.9632654786109924,0.9794033765792847,0.0,1.0,1668050443.853867
271634841.0,0.9632663726806641,0.9794039130210876,0.0,1.0,1668050443.953862
271734750.0,0.9632988572120667,0.9794222712516785,0.0,1.0,1668050444.053771
271834828.0,0.963298499584198,0.9794220924377441,0.0,1.0,1668050444.153849
271934783.0,0.9632911682128906,0.9794179201126099,0.0,1.0,1668050444.253804
272034876.0,0.9633283615112305,0.9794389605522156,0.0,1.0,1668050444.353897
272134850.0,0.9633207321166992,0.9794346690177917,0.0,1.0,1668050444.453871
272234850.0,0.9632921814918518,0.9794185161590576,0.0,1.0,1668050444.553871
272334771.0,0.9632591605186462,0.9793998003005981,0.0,1.0,1668050444.653792
272434730.0,0.9632473587989807,0.9793931245803833,0.0,1.0,1668050444.753751
272534832.0,0.9632388949394226,0.9793883562088013,0.0,1.0,1668050444.853853
272634718.0,0.9632340669631958,0.9793856143951416,0.0,1.0,1668050444.953739
272734784.0,0.9632644057273865,0.9794027805328369,0.0,1.0,1668050445.0538049
272834740.0,0.9632982015609741,0.9794219136238098,0.0,1.0,1668050445.153761
272934741.0,0.9633281230926514,0.979438841342926,0.0,1.0,1668050445.253762
273034864.0,0.963354766368866,0.9794539213180542,0.0,1.0,1668050445.353885
273134891.0,0.9633172750473022,0.9794327020645142,0.0,1.0,1668050445.453912
273234764.0,0.9632895588874817,0.9794170260429382,0.0,1.0,1668050445.553785
273334733.0,0.9632571339607239,0.9793986678123474,0.0,1.0,1668050445.653754
274134903.0,0.9633581638336182,0.979455828666687,0.0,1.0,1668050446.453924
274234690.0,0.9633146524429321,0.9794312119483948,0.0,1.0,1668050446.553711
274334751.0,0.9631067514419556,0.9793135523796082,0.0,1.0,1668050446.6537719
274434659.0,0.9629822373390198,0.9792430996894836,0.0,1.0,1668050446.75368
274534704.0,0.9628471732139587,0.9791666269302368,0.0,1.0,1668050446.853725
274634661.0,0.9627900719642639,0.9791343212127686,0.0,1.0,1668050446.953682
274734717.0,0.9627529978752136,0.9791133403778076,0.0,1.0,1668050447.0537379
274834670.0,0.9627484083175659,0.9791107177734375,0.0,1.0,1668050447.153691
274934773.0,0.9627307057380676,0.9791007041931152,0.0,1.0,1668050447.253794
275034707.0,0.9627211093902588,0.9790952801704407,0.0,1.0,1668050447.353728
275134749.0,0.9627225995063782,0.9790961146354675,0.0,1.0,1668050447.45377
275234786.0,0.9626343250274658,0.9790461659431458,0.0,1.0,1668050447.553807
275334685.0,0.9625797867774963,0.9790152907371521,0.0,1.0,1668050447.653706
275434667.0,0.9625400304794312,0.978992760181427,0.0,1.0,1668050447.753688
275534738.0,0.9625105261802673,0.9789760708808899,0.0,1.0,1668050447.853759
275634722.0,0.9624810814857483,0.9789593815803528,0.0,1.0,1668050447.953743
275734701.0,0.9625383019447327,0.9789918065071106,0.0,1.0,1668050448.053722
275834840.0,0.9625910520553589,0.9790216684341431,0.0,1.0,1668050448.153861
275934687.0,0.9626160264015198,0.9790357947349548,0.0,1.0,1668050448.253708
276034836.0,0.9626473784446716,0.9790535569190979,0.0,1.0,1668050448.353857
276134750.0,0.9626349806785583,0.9790465235710144,0.0,1.0,1668050448.4537709
276234751.0,0.9625828862190247,0.9790170192718506,0.0,1.0,1668050448.553772
276334758.0,0.9625427722930908,0.9789943099021912,0.0,1.0,1668050448.653779
276434773.0,0.9625353813171387,0.9789901375770569,0.0,1.0,1668050448.753794
276534726.0,0.9624985456466675,0.9789692759513855,0.0,1.0,1668050448.853747
276634702.0,0.9625161290168762,0.978979229927063,0.0,1.0,1668050448.953723
276734978.0,0.9625380039215088,0.9789916276931763,0.0,1.0,1668050449.053999
276834709.0,0.9624855518341064,0.9789619445800781,0.0,1.0,1668050449.15373
276934685.0,0.9624346494674683,0.9789330959320068,0.0,1.0,1668050449.253706
277034724.0,0.9623981714248657,0.9789124727249146,0.0,1.0,1668050449.353745
277134779.0,0.9623613357543945,0.9788916110992432,0.0,1.0,1668050449.4538
277234755.0,0.9623727202415466,0.9788980484008789,0.0,1.0,1668050449.553776
277334793.0,0.9624817967414856,0.9789597988128662,0.0,1.0,1668050449.653814
277434725.0,0.9625504612922668,0.9789986610412598,0.0,1.0,1668050449.753746
277534704.0,0.9626117944717407,0.9790334105491638,0.0,1.0,1668050449.853725
277634768.0,0.9626455903053284,0.9790525436401367,0.0,1.0,1668050449.953789
277734701.0,0.9626827836036682,0.9790735840797424,0.0,1.0,1668050450.053722
277834688.0,0.9627465009689331,0.9791096448898315,0.0,1.0,1668050450.153709
277934721.0,0.9627436399459839,0.9791080355644226,0.0,1.0,1668050450.253742
278034726.0,0.9627647995948792,0.9791200160980225,0.0,1.0,1668050450.353747
278134848.0,0.9627678394317627,0.979121744632721,0.0,1.0,1668050450.453869
278234693.0,0.9627292156219482,0.9790998697280884,0.0,1.0,1668050450.553714
278334663.0,0.9626063704490662,0.9790303111076355,0.0,1.0,1668050450.653684
278434712.0,0.9626528024673462,0.9790565967559814,0.0,1.0,1668050450.753733
278534889.0,0.9626739621162415,0.9790685772895813,0.0,1.0,1668050450.85391
278634692.0,0.9626858234405518,0.9790753126144409,0.0,1.0,1668050450.953713
278734741.0,0.9625236988067627,0.9789835214614868,0.0,1.0,1668050451.053762
278834698.0,0.9620015621185303,0.9786878824234009,0.0,1.0,1668050451.153719
278934737.0,0.9614267349243164,0.9783623218536377,0.0,1.0,1668050451.253758
279034677.0,0.960614025592804,0.9779018759727478,0.0,1.0,1668050451.353698
279134749.0,0.9594206213951111,0.9772253632545471,0.0,1.0,1668050451.45377
279234782.0,0.958713710308075,0.9768244624137878,0.0,1.0,1668050451.553803
279334666.0,0.9587277770042419,0.9768324494361877,0.0,1.0,1668050451.653687
279435012.0,0.959062397480011,0.9770222306251526,0.0,1.0,1668050451.754033
279534763.0,0.9591243267059326,0.9770573377609253,0.0,1.0,1668050451.853784
279634834.0,0.9591357707977295,0.9770638346672058,0.0,1.0,1668050451.953855
279734728.0,0.9591485857963562,0.9770711064338684,0.0,1.0,1668050452.053749
279834692.0,0.9593052864074707,0.9771599769592285,0.0,1.0,1668050452.153713
279934681.0,0.9594138860702515,0.9772215485572815,0.0,1.0,1668050452.253702
280034719.0,0.959291398525238,0.9771521091461182,0.0,1.0,1668050452.35374
280134744.0,0.9592790007591248,0.9771450757980347,0.0,1.0,1668050452.453765
280234807.0,0.9592382311820984,0.9771219491958618,0.0,1.0,1668050452.553828
280334804.0,0.9592434763908386,0.9771249294281006,0.0,1.0,1668050452.653825
280434702.0,0.9592753648757935,0.9771429896354675,0.0,1.0,1668050452.753723
280534706.0,0.9591040015220642,0.9770458340644836,0.0,1.0,1668050452.853727
280634682.0,0.959134578704834,0.9770631790161133,0.0,1.0,1668050452.953703
280734732.0,0.9592230916023254,0.9771133661270142,0.0,1.0,1668050453.053753
280834697.0,0.9592140316963196,0.9771082401275635,0.0,1.0,1668050453.153718
280934726.0,0.9590827822685242,0.977033793926239,0.0,1.0,1668050453.253747
281034758.0,0.958935022354126,0.9769499897956848,0.0,1.0,1668050453.353779
281134811.0,0.9589945077896118,0.9769837260246277,0.0,1.0,1668050453.453832
281234780.0,0.9590717554092407,0.9770275354385376,0.0,1.0,1668050453.553801
281334650.0,0.9589887261390686,0.976980447769165,0.0,1.0,1668050453.653671
281434684.0,0.9588138461112976,0.9768812656402588,0.0,1.0,1668050453.753705
281534826.0,0.9587509036064148,0.9768455624580383,0.0,1.0,1668050453.853847
281634798.0,0.958891749382019,0.9769254326820374,0.0,1.0,1668050453.953819
281734672.0,0.9587931632995605,0.976869523525238,0.0,1.0,1668050454.053693
281834694.0,0.9588096737861633,0.9768788814544678,0.0,1.0,1668050454.153715
281934698.0,0.9587507843971252,0.9768455028533936,0.0,1.0,1668050454.253719
282034794.0,0.9586082100868225,0.9767646193504333,0.0,1.0,1668050454.353815
282134865.0,0.9585888981819153,0.9767536520957947,0.0,1.0,1668050454.453886
282234685.0,0.9586793780326843,0.9768049716949463,0.0,1.0,1668050454.553706
282335210.0,0.9585310816764832,0.9767208695411682,0.0,1.0,1668050454.654231
282434695.0,0.9584601521492004,0.9766806364059448,0.0,1.0,1668050454.753716
282534738.0,0.9582700133323669,0.9765727519989014,0.0,1.0,1668050454.853759
282634764.0,0.9583158493041992,0.9765987396240234,0.0,1.0,1668050454.953785
282734742.0,0.9584586024284363,0.9766797423362732,0.0,1.0,1668050455.053763
282834680.0,0.95842444896698,0.9766603708267212,0.0,1.0,1668050455.153701
282934733.0,0.9583157300949097,0.9765986800193787,0.0,1.0,1668050455.253754
283034877.0,0.9580958485603333,0.9764739274978638,0.0,1.0,1668050455.353898
283134698.0,0.9582558274269104,0.9765647053718567,0.0,1.0,1668050455.453719
283234707.0,0.9583832621574402,0.9766370058059692,0.0,1.0,1668050455.553728
283334813.0,0.9580709338188171,0.976459801197052,0.0,1.0,1668050455.653834
283434676.0,0.9578592777252197,0.9763396978378296,0.0,1.0,1668050455.753697
283534779.0,0.9579639434814453,0.9763990640640259,0.0,1.0,1668050455.8538
283634822.0,0.9579955339431763,0.9764170050621033,0.0,1.0,1668050455.9538429
283734680.0,0.9580311179161072,0.9764372110366821,0.0,1.0,1668050456.053701
283834762.0,0.9579663276672363,0.9764004349708557,0.0,1.0,1668050456.153783
283934905.0,0.9576682448387146,0.9762312769889832,0.0,1.0,1668050456.253926
284034815.0,0.9577817916870117,0.9762957096099854,0.0,1.0,1668050456.353836
284134711.0,0.9578658938407898,0.9763434529304504,0.0,1.0,1668050456.453732
284234697.0,0.9576690196990967,0.9762316942214966,0.0,1.0,1668050456.553718
284335015.0,0.9576079845428467,0.9761970639228821,0.0,1.0,1668050456.654036
284434775.0,0.9573943018913269,0.9760757684707642,0.0,1.0,1668050456.753796
284534699.0,0.9575586318969727,0.9761690497398376,0.0,1.0,1668050456.85372
284634693.0,0.9574085474014282,0.9760838747024536,0.0,1.0,1668050456.953714
284734749.0,0.9574774503707886,0.9761229753494263,0.0,1.0,1668050457.05377
284834811.0,0.9573182463645935,0.9760326147079468,0.0,1.0,1668050457.153832
284934724.0,0.9573925137519836,0.976074755191803,0.0,1.0,1668050457.253745
285034720.0,0.9573333859443665,0.9760411977767944,0.0,1.0,1668050457.353741
285134703.0,0.9569494128227234,0.9758232235908508,0.0,1.0,1668050457.453724
285234672.0,0.957029402256012,0.9758686423301697,0.0,1.0,1668050457.553693
285335203.0,0.9568980932235718,0.9757940769195557,0.0,1.0,1668050457.654224
285434676.0,0.9570213556289673,0.975864052772522,0.0,1.0,1668050457.753697
285534822.0,0.9568615555763245,0.9757733345031738,0.0,1.0,1668050457.853843
285634653.0,0.9567254781723022,0.9756960868835449,0.0,1.0,1668050457.953674
285734951.0,0.9566604495048523,0.9756591320037842,0.0,1.0,1668050458.053972
285834744.0,0.9567119479179382,0.9756883978843689,0.0,1.0,1668050458.153765
285934714.0,0.9566451907157898,0.9756504893302917,0.0,1.0,1668050458.253735
286034798.0,0.9563116431236267,0.9754610657691956,0.0,1.0,1668050458.353819
286134706.0,0.9565974473953247,0.975623369216919,0.0,1.0,1668050458.453727
286234675.0,0.9563413262367249,0.975477933883667,0.0,1.0,1668050458.553696
286334914.0,0.9567118287086487,0.9756883382797241,0.0,1.0,1668050458.653935
286434679.0,0.9561195969581604,0.9753519892692566,0.0,1.0,1668050458.7537
286534957.0,0.9563670754432678,0.975492537021637,0.0,1.0,1668050458.853978
286634764.0,0.956240177154541,0.9754204750061035,0.0,1.0,1668050458.953785
286734717.0,0.956403911113739,0.9755134582519531,0.0,1.0,1668050459.0537379
286834731.0,0.9560239911079407,0.9752976894378662,0.0,1.0,1668050459.153752
286934735.0,0.9560922980308533,0.975336492061615,0.0,1.0,1668050459.253756
287034711.0,0.9563328623771667,0.9754731059074402,0.0,1.0,1668050459.3537319
287134766.0,0.9560795426368713,0.9753292202949524,0.0,1.0,1668050459.453787
287234699.0,0.9562873244285583,0.9754472374916077,0.0,1.0,1668050459.55372
287334860.0,0.9557626247406006,0.9751492142677307,0.0,1.0,1668050459.653881
287434678.0,0.9560567140579224,0.9753162860870361,0.0,1.0,1668050459.753699
287534908.0,0.9558324217796326,0.9751888513565063,0.0,1.0,1668050459.853929
287634642.0,0.9559161067008972,0.9752364158630371,0.0,1.0,1668050459.9536629
287734707.0,0.9557576775550842,0.9751464128494263,0.0,1.0,1668050460.053728
287834817.0,0.9558730125427246,0.9752119183540344,0.0,1.0,1668050460.153838
287934720.0,0.9557783603668213,0.975158154964447,0.0,1.0,1668050460.253741
288034746.0,0.9557510018348694,0.9751425981521606,0.0,1.0,1668050460.353767
288134785.0,0.9559729099273682,0.9752686619758606,0.0,1.0,1668050460.453806
288234760.0,0.9555337429046631,0.9750191569328308,0.0,1.0,1668050460.553781
288334943.0,0.9557526707649231,0.975143551826477,0.0,1.0,1668050460.653964
288434887.0,0.9555959105491638,0.9750545024871826,0.0,1.0,1668050460.753908
288534735.0,0.9558544158935547,0.9752013683319092,0.0,1.0,1668050460.853756
288634817.0,0.9557746052742004,0.9751560091972351,0.0,1.0,1668050460.9538379
288734771.0,0.9567863941192627,0.9757306575775146,0.0,1.0,1668050461.053792
288834764.0,0.9550809860229492,0.9747619032859802,0.0,1.0,1668050461.153785
288934730.0,0.9554054141044617,0.9749462604522705,0.0,1.0,1668050461.253751
289034708.0,0.9578858613967896,0.9763547778129578,0.0,1.0,1668050461.353729
289134699.0,0.9592708945274353,0.977140486240387,0.0,1.0,1668050461.45372
289234706.0,0.9596186280250549,0.977337658405304,0.0,1.0,1668050461.553727
289334922.0,0.9595441222190857,0.9772953987121582,0.0,1.0,1668050461.653943
289434727.0,0.9594905972480774,0.9772650599479675,0.0,1.0,1668050461.753748
289534706.0,0.9594389796257019,0.9772357940673828,0.0,1.0,1668050461.853727
289634750.0,0.9594135880470276,0.9772213697433472,0.0,1.0,1668050461.9537709
289746736.0,0.9594286680221558,0.9772299528121948,0.0,1.0,1668050462.065757
289846469.0,0.9594384431838989,0.9772354960441589,0.0,1.0,1668050462.16549
289946622.0,0.9596378803253174,0.9773485660552979,0.0,1.0,1668050462.265643
290046651.0,0.9599106311798096,0.9775031805038452,0.0,1.0,1668050462.3656719
290146671.0,0.9601759314537048,0.9776535630226135,0.0,1.0,1668050462.465692
290246586.0,0.9604207277297974,0.9777923226356506,0.0,1.0,1668050462.565607
290346601.0,0.9606462121009827,0.9779201149940491,0.0,1.0,1668050462.665622
290446601.0,0.9608566164970398,0.9780393242835999,0.0,1.0,1668050462.765622
290546629.0,0.9610090255737305,0.9781256914138794,0.0,1.0,1668050462.86565
290646535.0,0.9611109495162964,0.9781834483146667,0.0,1.0,1668050462.965556
290746701.0,0.9612090587615967,0.9782389998435974,0.0,1.0,1668050463.065722
290846677.0,0.9613052010536194,0.9782934784889221,0.0,1.0,1668050463.165698
290946681.0,0.9613515734672546,0.9783197641372681,0.0,1.0,1668050463.265702
291046831.0,0.9614312648773193,0.978364884853363,0.0,1.0,1668050463.3658519
291146705.0,0.9614928960800171,0.9783998131752014,0.0,1.0,1668050463.465726
291246670.0,0.9614893198013306,0.978397786617279,0.0,1.0,1668050463.565691
291346641.0,0.9615075588226318,0.9784080982208252,0.0,1.0,1668050463.665662
291446633.0,0.9614999890327454,0.9784038066864014,0.0,1.0,1668050463.765654
291546653.0,0.9615314602851868,0.9784216284751892,0.0,1.0,1668050463.865674
291646644.0,0.9615415334701538,0.9784273505210876,0.0,1.0,1668050463.965665
291746605.0,0.9616061449050903,0.9784639477729797,0.0,1.0,1668050464.065626
291846592.0,0.9616867303848267,0.9785096049308777,0.0,1.0,1668050464.165613
291946713.0,0.9617230892181396,0.9785301685333252,0.0,1.0,1668050464.265734
292046738.0,0.9617478847503662,0.9785442352294922,0.0,1.0,1668050464.365759
292146635.0,0.9617130756378174,0.9785245060920715,0.0,1.0,1668050464.465656
292246587.0,0.9616838097572327,0.978507936000824,0.0,1.0,1668050464.565608
292346636.0,0.9616623520851135,0.9784957766532898,0.0,1.0,1668050464.665657
292446560.0,0.961651623249054,0.9784896969795227,0.0,1.0,1668050464.765581
292546626.0,0.9616851806640625,0.978508710861206,0.0,1.0,1668050464.865647
292646689.0,0.9616997241973877,0.9785169363021851,0.0,1.0,1668050464.96571
292746589.0,0.9617550373077393,0.9785482883453369,0.0,1.0,1668050465.06561
292846650.0,0.9617708325386047,0.9785572290420532,0.0,1.0,1668050465.1656709
292946674.0,0.9618075489997864,0.9785780310630798,0.0,1.0,1668050465.265695
293046762.0,0.9618223905563354,0.9785864353179932,0.0,1.0,1668050465.365783
293146741.0,0.9618166089057922,0.9785831570625305,0.0,1.0,1668050465.465762
293246624.0,0.9617494940757751,0.9785451292991638,0.0,1.0,1668050465.565645
293346741.0,0.9617573618888855,0.978549599647522,0.0,1.0,1668050465.665762
293446629.0,0.9617469310760498,0.9785436987876892,0.0,1.0,1668050465.76565
293546611.0,0.9617674946784973,0.9785553216934204,0.0,1.0,1668050465.865632
293646619.0,0.9618053436279297,0.9785767793655396,0.0,1.0,1668050465.96564
293746708.0,0.9618337750434875,0.9785928726196289,0.0,1.0,1668050466.065729
293846597.0,0.9618792533874512,0.9786186218261719,0.0,1.0,1668050466.165618
293946596.0,0.9619802832603455,0.9786758422851562,0.0,1.0,1668050466.265617
294046667.0,0.9620428085327148,0.9787112474441528,0.0,1.0,1668050466.365688
294146677.0,0.9620832204818726,0.9787341356277466,0.0,1.0,1668050466.465698
294246623.0,0.962060272693634,0.9787211418151855,0.0,1.0,1668050466.565644
294346709.0,0.9620572328567505,0.9787194132804871,0.0,1.0,1668050466.66573
294446665.0,0.9621074199676514,0.9787478446960449,0.0,1.0,1668050466.765686
294546643.0,0.9621116518974304,0.9787502288818359,0.0,1.0,1668050466.865664
294646724.0,0.9621172547340393,0.978753387928009,0.0,1.0,1668050466.965745
294746599.0,0.9621659517288208,0.97878098487854,0.0,1.0,1668050467.06562
294846609.0,0.9621888399124146,0.9787939190864563,0.0,1.0,1668050467.16563
294946578.0,0.9622302651405334,0.9788174033164978,0.0,1.0,1668050467.265599
295046842.0,0.962249219417572,0.9788281321525574,0.0,1.0,1668050467.365863
295146557.0,0.9622557759284973,0.9788318276405334,0.0,1.0,1668050467.465578
295246479.0,0.9620566964149475,0.9787191152572632,0.0,1.0,1668050467.5655
295346620.0,0.9618997573852539,0.9786302447319031,0.0,1.0,1668050467.665641
295446607.0,0.9617857933044434,0.9785656929016113,0.0,1.0,1668050467.765628
295546713.0,0.9617261290550232,0.9785318970680237,0.0,1.0,1668050467.865734
295646450.0,0.9617166519165039,0.9785265326499939,0.0,1.0,1668050467.965471
295746552.0,0.9616904258728027,0.9785116910934448,0.0,1.0,1668050468.065573
295846559.0,0.961678147315979,0.9785047173500061,0.0,1.0,1668050468.16558
295946566.0,0.961646318435669,0.9784867167472839,0.0,1.0,1668050468.265587
296046555.0,0.9616234302520752,0.9784737229347229,0.0,1.0,1668050468.365576
296146596.0,0.9616087675094604,0.9784654378890991,0.0,1.0,1668050468.465617
296246593.0,0.9615838527679443,0.9784513115882874,0.0,1.0,1668050468.565614
296346619.0,0.9615541696548462,0.9784345030784607,0.0,1.0,1668050468.6656399
296446657.0,0.9615322947502136,0.9784221053123474,0.0,1.0,1668050468.765678
296546429.0,0.9615175127983093,0.9784137606620789,0.0,1.0,1668050468.86545
296646512.0,0.9615411162376404,0.9784271121025085,0.0,1.0,1668050468.965533
296746552.0,0.9615753293037415,0.9784464836120605,0.0,1.0,1668050469.065573
296846479.0,0.961617112159729,0.9784701466560364,0.0,1.0,1668050469.1655
296946423.0,0.9616138339042664,0.9784682989120483,0.0,1.0,1668050469.265444
297046462.0,0.9616409540176392,0.9784836769104004,0.0,1.0,1668050469.365483
297146602.0,0.9616532921791077,0.9784906506538391,0.0,1.0,1668050469.465623
297246477.0,0.9616280198097229,0.978476345539093,0.0,1.0,1668050469.5654979
297346760.0,0.9615997076034546,0.9784603118896484,0.0,1.0,1668050469.665781
297446443.0,0.961588978767395,0.9784542322158813,0.0,1.0,1668050469.765464
297546768.0,0.9615691900253296,0.9784430265426636,0.0,1.0,1668050469.865789
297646593.0,0.9615323543548584,0.9784221649169922,0.0,1.0,1668050469.965614
297746578.0,0.961527943611145,0.9784196615219116,0.0,1.0,1668050470.065599
297846603.0,0.9615123867988586,0.9784108400344849,0.0,1.0,1668050470.165624
297946435.0,0.961467444896698,0.9783853888511658,0.0,1.0,1668050470.265456
298046587.0,0.9614579677581787,0.978380024433136,0.0,1.0,1668050470.365608
298146478.0,0.9615219831466675,0.9784162640571594,0.0,1.0,1668050470.465499
298246741.0,0.9616131782531738,0.9784679412841797,0.0,1.0,1668050470.565762
298346574.0,0.961654782295227,0.978491485118866,0.0,1.0,1668050470.665595
298446480.0,0.961722731590271,0.9785299897193909,0.0,1.0,1668050470.765501
298546591.0,0.9617605209350586,0.9785513877868652,0.0,1.0,1668050470.865612
298646478.0,0.9617729783058167,0.9785584211349487,0.0,1.0,1668050470.965499
298746456.0,0.9617416858673096,0.9785407185554504,0.0,1.0,1668050471.065477
298846457.0,0.9617984294891357,0.9785728454589844,0.0,1.0,1668050471.165478
298946501.0,0.9618403315544128,0.978596568107605,0.0,1.0,1668050471.265522
299046581.0,0.9618475437164307,0.9786006808280945,0.0,1.0,1668050471.365602
299146683.0,0.9618738889694214,0.9786155819892883,0.0,1.0,1668050471.465704
299246612.0,0.9618313908576965,0.9785915017127991,0.0,1.0,1668050471.565633
299346459.0,0.9618067145347595,0.9785775542259216,0.0,1.0,1668050471.66548
299446476.0,0.9618322253227234,0.9785919785499573,0.0,1.0,1668050471.765497
299546570.0,0.9617841839790344,0.9785647988319397,0.0,1.0,1668050471.865591
299646648.0,0.9616208672523499,0.9784722924232483,0.0,1.0,1668050471.965669
299746550.0,0.9611718058586121,0.9782178997993469,0.0,1.0,1668050472.065571
299846440.0,0.9604535102844238,0.9778109192848206,0.0,1.0,1668050472.165461
299946444.0,0.9596986770629883,0.977383017539978,0.0,1.0,1668050472.265465
300046687.0,0.9587557315826416,0.976848304271698,0.0,1.0,1668050472.3657079
300146592.0,0.9579004645347595,0.9763630628585815,0.0,1.0,1668050472.465613
300246466.0,0.9578070044517517,0.9763100147247314,0.0,1.0,1668050472.565487
300346642.0,0.9581177234649658,0.976486325263977,0.0,1.0,1668050472.665663
300446597.0,0.9580892324447632,0.9764701724052429,0.0,1.0,1668050472.765618
300546514.0,0.9582314491271973,0.9765508770942688,0.0,1.0,1668050472.865535
300646432.0,0.9583161473274231,0.9765989184379578,0.0,1.0,1668050472.965453
300746458.0,0.9582792520523071,0.9765779972076416,0.0,1.0,1668050473.065479
300846604.0,0.9583534598350525,0.976620078086853,0.0,1.0,1668050473.165625
300946668.0,0.9582601189613342,0.9765671491622925,0.0,1.0,1668050473.265689
301046706.0,0.9583057165145874,0.976593017578125,0.0,1.0,1668050473.365727
301146662.0,0.958359956741333,0.9766237735748291,0.0,1.0,1668050473.465683
301246562.0,0.9582496285438538,0.9765611886978149,0.0,1.0,1668050473.565583
301346574.0,0.9581712484359741,0.9765167236328125,0.0,1.0,1668050473.665595
301446476.0,0.958187460899353,0.9765259027481079,0.0,1.0,1668050473.765497
301546558.0,0.9581730365753174,0.9765177369117737,0.0,1.0,1668050473.865579
301646457.0,0.9582604765892029,0.9765673279762268,0.0,1.0,1668050473.965478
301746649.0,0.9581725597381592,0.9765174388885498,0.0,1.0,1668050474.06567
301846687.0,0.9579735994338989,0.9764045476913452,0.0,1.0,1668050474.165708
301946454.0,0.9579946994781494,0.9764165282249451,0.0,1.0,1668050474.265475
302046578.0,0.958143949508667,0.9765012264251709,0.0,1.0,1668050474.365599
302146593.0,0.9581749439239502,0.9765188097953796,0.0,1.0,1668050474.465614
302246562.0,0.9579837918281555,0.9764103293418884,0.0,1.0,1668050474.565583
302346587.0,0.9577732086181641,0.9762908220291138,0.0,1.0,1668050474.665608
302446761.0,0.9575302600860596,0.9761529564857483,0.0,1.0,1668050474.7657819
302546544.0,0.9576621651649475,0.9762278199195862,0.0,1.0,1668050474.865565
302646538.0,0.95762038230896,0.9762040972709656,0.0,1.0,1668050474.965559
302746672.0,0.9575121998786926,0.9761427044868469,0.0,1.0,1668050475.065693
302846563.0,0.9574035406112671,0.9760810136795044,0.0,1.0,1668050475.165584
302946459.0,0.957187294960022,0.9759582877159119,0.0,1.0,1668050475.26548
303046479.0,0.9573816657066345,0.9760686159133911,0.0,1.0,1668050475.3655
303146596.0,0.9572116732597351,0.9759721159934998,0.0,1.0,1668050475.465617
303246496.0,0.9568579792976379,0.9757713079452515,0.0,1.0,1668050475.565517
303346478.0,0.9568687081336975,0.9757773876190186,0.0,1.0,1668050475.665499
303446459.0,0.956596314907074,0.9756227135658264,0.0,1.0,1668050475.76548
303546672.0,0.9566876888275146,0.9756746292114258,0.0,1.0,1668050475.865693
303646905.0,0.9562610387802124,0.9754323363304138,0.0,1.0,1668050475.965926
303746597.0,0.956404447555542,0.975513756275177,0.0,1.0,1668050476.065618
303846616.0,0.9562807083129883,0.9754434823989868,0.0,1.0,1668050476.165637
303946430.0,0.9561254978179932,0.975355327129364,0.0,1.0,1668050476.265451
304046549.0,0.9561102390289307,0.9753466844558716,0.0,1.0,1668050476.36557
304146470.0,0.9557471871376038,0.9751404523849487,0.0,1.0,1668050476.465491
304246475.0,0.9560613632202148,0.9753189086914062,0.0,1.0,1668050476.565496
304346536.0,0.9556127190589905,0.9750640392303467,0.0,1.0,1668050476.665557
304446480.0,0.9558542370796204,0.9752012491226196,0.0,1.0,1668050476.765501
304546867.0,0.95524662733078,0.9748560190200806,0.0,1.0,1668050476.8658879
304646764.0,0.9558171033859253,0.9751801490783691,0.0,1.0,1668050476.965785
304746472.0,0.955437958240509,0.9749647378921509,0.0,1.0,1668050477.0654929
304846534.0,0.9556820392608643,0.9751034379005432,0.0,1.0,1668050477.165555
304946465.0,0.9551466703414917,0.9747992157936096,0.0,1.0,1668050477.265486
305046743.0,0.955513060092926,0.9750074148178101,0.0,1.0,1668050477.365764
305146531.0,0.9553504586219788,0.9749150276184082,0.0,1.0,1668050477.465552
305246523.0,0.9555860757827759,0.9750488996505737,0.0,1.0,1668050477.565544
305346483.0,0.9550942182540894,0.9747694134712219,0.0,1.0,1668050477.665504
305446667.0,0.9552716612815857,0.9748702645301819,0.0,1.0,1668050477.765688
305546613.0,0.9552034139633179,0.9748314619064331,0.0,1.0,1668050477.865634
305646674.0,0.9552953839302063,0.9748837351799011,0.0,1.0,1668050477.965695
305746440.0,0.9552257657051086,0.9748441576957703,0.0,1.0,1668050478.065461
305846458.0,0.9551435112953186,0.9747974276542664,0.0,1.0,1668050478.165479
305946618.0,0.9552169442176819,0.9748391509056091,0.0,1.0,1668050478.265639
306046671.0,0.9551478028297424,0.9747998714447021,0.0,1.0,1668050478.365692
306146510.0,0.955151379108429,0.9748018980026245,0.0,1.0,1668050478.4655309
306246579.0,0.9548708200454712,0.9746424555778503,0.0,1.0,1668050478.5656
306346753.0,0.9552379846572876,0.974851131439209,0.0,1.0,1668050478.6657739
306446467.0,0.9549664855003357,0.9746968150138855,0.0,1.0,1668050478.765488
306546578.0,0.9551650881767273,0.9748097062110901,0.0,1.0,1668050478.865599
306646990.0,0.9546898007392883,0.974539577960968,0.0,1.0,1668050478.966011
306746446.0,0.955157995223999,0.9748056530952454,0.0,1.0,1668050479.065467
306846597.0,0.9549369812011719,0.9746800661087036,0.0,1.0,1668050479.165618
306946449.0,0.9550614953041077,0.974750816822052,0.0,1.0,1668050479.26547
307046639.0,0.9545170068740845,0.9744413495063782,0.0,1.0,1668050479.36566
307146531.0,0.9550589919090271,0.9747493863105774,0.0,1.0,1668050479.465552
307246696.0,0.9548534154891968,0.9746325612068176,0.0,1.0,1668050479.565717
307346628.0,0.9550052881240845,0.9747188687324524,0.0,1.0,1668050479.665649
307446445.0,0.9545508623123169,0.9744606018066406,0.0,1.0,1668050479.765466
307546522.0,0.9547057747840881,0.9745486378669739,0.0,1.0,1668050479.865543
307646846.0,0.9548220634460449,0.9746147394180298,0.0,1.0,1668050479.965867
307746583.0,0.954831063747406,0.9746198654174805,0.0,1.0,1668050480.065604
307846570.0,0.9543811678886414,0.9743641018867493,0.0,1.0,1668050480.165591
307946598.0,0.9546927809715271,0.9745412468910217,0.0,1.0,1668050480.265619
308046731.0,0.9551153182983398,0.9747813940048218,0.0,1.0,1668050480.365752
308146670.0,0.954659104347229,0.9745221138000488,0.0,1.0,1668050480.465691
308246581.0,0.9545726776123047,0.9744729995727539,0.0,1.0,1668050480.565602
308346576.0,0.954831063747406,0.9746198654174805,0.0,1.0,1668050480.665597
308446544.0,0.9550385475158691,0.9747377634048462,0.0,1.0,1668050480.765565
308546661.0,0.954780638217926,0.9745911955833435,0.0,1.0,1668050480.865682
308646719.0,0.9541720151901245,0.9742451906204224,0.0,1.0,1668050480.96574
308746558.0,0.9543502330780029,0.9743465185165405,0.0,1.0,1668050481.065579
308846558.0,0.9545841217041016,0.9744794964790344,0.0,1.0,1668050481.165579
308946479.0,0.9544302225112915,0.9743919968605042,0.0,1.0,1668050481.2655
309046790.0,0.9541025757789612,0.974205732345581,0.0,1.0,1668050481.3658109
309146503.0,0.9545671343803406,0.9744698405265808,0.0,1.0,1668050481.465524
309246561.0,0.9542405605316162,0.9742841720581055,0.0,1.0,1668050481.565582
309346521.0,0.9543265104293823,0.9743330478668213,0.0,1.0,1668050481.665542
309446496.0,0.9539878964424133,0.9741405248641968,0.0,1.0,1668050481.765517
309546498.0,0.9539501667022705,0.9741190671920776,0.0,1.0,1668050481.865519
309646656.0,0.9543642401695251,0.9743545055389404,0.0,1.0,1668050481.965677
309746569.0,0.9540590643882751,0.9741809964179993,0.0,1.0,1668050482.06559
309846427.0,0.9543100595474243,0.9743236899375916,0.0,1.0,1668050482.165448
309946672.0,0.9540953636169434,0.9742016196250916,0.0,1.0,1668050482.265693
310046707.0,0.9543959498405457,0.9743725061416626,0.0,1.0,1668050482.365728
310146732.0,0.954238772392273,0.9742831587791443,0.0,1.0,1668050482.465753
310246471.0,0.9543734788894653,0.9743597507476807,0.0,1.0,1668050482.565492
310346541.0,0.9538770914077759,0.9740775227546692,0.0,1.0,1668050482.665562
310446462.0,0.9539111852645874,0.9740968942642212,0.0,1.0,1668050482.765483
310546475.0,0.9536215662956238,0.9739322066307068,0.0,1.0,1668050482.865496
310646657.0,0.9542630910873413,0.9742969870567322,0.0,1.0,1668050482.965678
310746550.0,0.954090416431427,0.9741988182067871,0.0,1.0,1668050483.065571
310846745.0,0.9540773034095764,0.9741913676261902,0.0,1.0,1668050483.165766
310946571.0,0.9540999531745911,0.9742042422294617,0.0,1.0,1668050483.265592
311046577.0,0.9540131688117981,0.9741548895835876,0.0,1.0,1668050483.365598
311146559.0,0.9535314440727234,0.9738809466362,0.0,1.0,1668050483.46558
311246471.0,0.9537532329559326,0.9740070700645447,0.0,1.0,1668050483.565492
311346618.0,0.9536346197128296,0.9739395976066589,0.0,1.0,1668050483.665639
311446462.0,0.9536213874816895,0.9739320874214172,0.0,1.0,1668050483.765483
311546694.0,0.9538766145706177,0.9740772247314453,0.0,1.0,1668050483.865715
311646654.0,0.9537511467933655,0.9740058779716492,0.0,1.0,1668050483.9656749
311746726.0,0.9538114070892334,0.974040150642395,0.0,1.0,1668050484.065747
311846456.0,0.9533164501190186,0.9737586379051208,0.0,1.0,1668050484.165477
311946430.0,0.9534013271331787,0.9738069176673889,0.0,1.0,1668050484.265451
312046489.0,0.9529163241386414,0.9735310077667236,0.0,1.0,1668050484.36551
312146565.0,0.953151285648346,0.9736647009849548,0.0,1.0,1668050484.465586
312246675.0,0.9530258774757385,0.9735933542251587,0.0,1.0,1668050484.565696
312346556.0,0.9531900882720947,0.9736867547035217,0.0,1.0,1668050484.665577
312446580.0,0.9528020024299622,0.9734659790992737,0.0,1.0,1668050484.765601
312546599.0,0.9531403183937073,0.9736584424972534,0.0,1.0,1668050484.86562
312646765.0,0.9531519412994385,0.9736650586128235,0.0,1.0,1668050484.965786
312746450.0,0.9524659514427185,0.9732747673988342,0.0,1.0,1668050485.065471
312846453.0,0.9522479176521301,0.9731506705284119,0.0,1.0,1668050485.165474
312946729.0,0.9524677395820618,0.9732757806777954,0.0,1.0,1668050485.26575
313046722.0,0.9532104730606079,0.9736983776092529,0.0,1.0,1668050485.365743
313146602.0,0.9536616206169128,0.973954975605011,0.0,1.0,1668050485.465623
313246620.0,0.9534077048301697,0.9738105535507202,0.0,1.0,1668050485.565641
313346561.0,0.9530200362205505,0.9735900163650513,0.0,1.0,1668050485.665582
313446449.0,0.9535916447639465,0.973915159702301,0.0,1.0,1668050485.76547
313546727.0,0.9538128972053528,0.9740409851074219,0.0,1.0,1668050485.865748
313646610.0,0.9538261890411377,0.9740485548973083,0.0,1.0,1668050485.965631
313746449.0,0.95400071144104,0.9741477966308594,0.0,1.0,1668050486.06547
313846467.0,0.9541251063346863,0.9742185473442078,0.0,1.0,1668050486.165488
313946451.0,0.9541139006614685,0.9742121696472168,0.0,1.0,1668050486.265472
314046582.0,0.9540849924087524,0.9741957187652588,0.0,1.0,1668050486.365603
314146607.0,0.9541345834732056,0.9742239117622375,0.0,1.0,1668050486.465628
314246626.0,0.9542556405067444,0.9742927551269531,0.0,1.0,1668050486.565647
314346670.0,0.9540757536888123,0.9741904735565186,0.0,1.0,1668050486.665691
314446709.0,0.9541376233100891,0.974225640296936,0.0,1.0,1668050486.76573
314546622.0,0.9542099237442017,0.974266767501831,0.0,1.0,1668050486.865643
314646549.0,0.9540402293205261,0.9741702675819397,0.0,1.0,1668050486.96557
314746576.0,0.954118013381958,0.974214494228363,0.0,1.0,1668050487.065597
314846515.0,0.9540322422981262,0.9741657376289368,0.0,1.0,1668050487.165536
314946564.0,0.9541195631027222,0.9742153882980347,0.0,1.0,1668050487.265585
315046692.0,0.9540283679962158,0.9741635322570801,0.0,1.0,1668050487.365713
315146494.0,0.953957736492157,0.9741233587265015,0.0,1.0,1668050487.465515
315246552.0,0.9541381597518921,0.9742259383201599,0.0,1.0,1668050487.565573
315346689.0,0.953964114189148,0.9741269946098328,0.0,1.0,1668050487.66571
315446524.0,0.953946590423584,0.9741170406341553,0.0,1.0,1668050487.765545
315546551.0,0.9538255333900452,0.9740481972694397,0.0,1.0,1668050487.865572
315646617.0,0.9540585875511169,0.9741806983947754,0.0,1.0,1668050487.965638
315746556.0,0.9538362622261047,0.9740542769432068,0.0,1.0,1668050488.065577
315846646.0,0.9538030028343201,0.974035382270813,0.0,1.0,1668050488.165667
315946491.0,0.953926682472229,0.974105715751648,0.0,1.0,1668050488.265512
316046476.0,0.9538853764533997,0.9740822315216064,0.0,1.0,1668050488.3654969
316146516.0,0.9537768959999084,0.9740205407142639,0.0,1.0,1668050488.465537
316246687.0,0.9537352919578552,0.9739968776702881,0.0,1.0,1668050488.565708
316346534.0,0.9538736343383789,0.9740755558013916,0.0,1.0,1668050488.665555
316446648.0,0.9538877010345459,0.9740835428237915,0.0,1.0,1668050488.7656689
316546536.0,0.9536360502243042,0.9739404320716858,0.0,1.0,1668050488.865557
316646691.0,0.9536547064781189,0.9739510416984558,0.0,1.0,1668050488.965712
316746653.0,0.953753650188446,0.9740073084831238,0.0,1.0,1668050489.065674
316846572.0,0.9532694816589355,0.9737319350242615,0.0,1.0,1668050489.165593
316946434.0,0.9532309174537659,0.9737100005149841,0.0,1.0,1668050489.265455
317046552.0,0.9535253643989563,0.973877489566803,0.0,1.0,1668050489.365573
317146727.0,0.9531887173652649,0.9736859798431396,0.0,1.0,1668050489.465748
317246442.0,0.9531014561653137,0.9736363291740417,0.0,1.0,1668050489.565463
317346703.0,0.9529623985290527,0.9735572338104248,0.0,1.0,1668050489.665724
317446583.0,0.9522570371627808,0.9731558561325073,0.0,1.0,1668050489.765604
317546460.0,0.952665388584137,0.9733882546424866,0.0,1.0,1668050489.865481
317646643.0,0.9525367617607117,0.9733150601387024,0.0,1.0,1668050489.965664
317746473.0,0.9525155425071716,0.973302960395813,0.0,1.0,1668050490.065494
317846468.0,0.9521656036376953,0.9731038212776184,0.0,1.0,1668050490.165489
317946470.0,0.9522022604942322,0.9731246829032898,0.0,1.0,1668050490.265491
318046687.0,0.9521874785423279,0.9731162786483765,0.0,1.0,1668050490.3657079
