TimeUS,AThrs,WThrs,MaxP,MotM,IsA,IsW,Cnt,timestamp
221059666.0,1828.0,1787.0,1104.0802001953125,1.0,0.0,0.0,0.0,1668050393.378687
221159390.0,1828.0,1787.0,1102.407470703125,1.0,0.0,0.0,0.0,1668050393.478411
221259300.0,1828.0,1787.0,1100.786376953125,1.0,0.0,0.0,0.0,1668050393.578321
221359340.0,1828.0,1787.0,1099.2154541015625,1.0,0.0,0.0,0.0,1668050393.678361
221459375.0,1828.0,1787.0,1097.693115234375,1.0,0.0,0.0,0.0,1668050393.778396
221559646.0,1828.0,1787.0,1096.2178955078125,1.0,0.0,0.0,0.0,1668050393.8786669
221659189.0,1828.0,1787.0,1094.788330078125,1.0,0.0,0.0,0.0,1668050393.97821
221759427.0,1828.0,1787.0,1093.4029541015625,1.0,0.0,0.0,0.0,1668050394.078448
221859534.0,1828.0,1787.0,1092.0604248046875,1.0,0.0,0.0,0.0,1668050394.178555
221959710.0,1828.0,1787.0,1090.7593994140625,1.0,0.0,0.0,0.0,1668050394.2787309
222059544.0,1828.0,1787.0,1089.4986572265625,1.0,0.0,0.0,0.0,1668050394.378565
222159539.0,1828.0,1787.0,1088.27685546875,1.0,0.0,0.0,0.0,1668050394.47856
222259598.0,1828.0,1787.0,1087.0928955078125,1.0,0.0,0.0,0.0,1668050394.578619
222359539.0,1828.0,1787.0,1085.945556640625,1.0,0.0,0.0,0.0,1668050394.67856
222459574.0,1828.0,1787.0,1084.833740234375,1.0,0.0,0.0,0.0,1668050394.778595
222559513.0,1828.0,1787.0,1083.7562255859375,1.0,0.0,0.0,0.0,1668050394.878534
222659623.0,1828.0,1787.0,1082.7120361328125,1.0,0.0,0.0,0.0,1668050394.978644
222759495.0,1828.0,1787.0,1081.7001953125,1.0,0.0,0.0,0.0,1668050395.078516
222859203.0,1828.0,1787.0,1080.7196044921875,1.0,0.0,0.0,0.0,1668050395.178224
222959869.0,1828.0,1787.0,1079.7694091796875,1.0,0.0,0.0,0.0,1668050395.27889
223059530.0,1828.0,1787.0,1078.8485107421875,1.0,0.0,0.0,0.0,1668050395.378551
223159608.0,1828.0,1787.0,1077.9561767578125,1.0,0.0,0.0,0.0,1668050395.4786289
223259612.0,1828.0,1787.0,1077.0914306640625,1.0,0.0,0.0,0.0,1668050395.578633
223359398.0,1828.0,1787.0,1076.25341796875,1.0,0.0,0.0,0.0,1668050395.6784189
223459512.0,1828.0,1787.0,1075.4412841796875,1.0,0.0,0.0,0.0,1668050395.778533
223559555.0,1828.0,1787.0,1074.654296875,1.0,0.0,0.0,0.0,1668050395.878576
223659519.0,1828.0,1787.0,1073.8916015625,1.0,0.0,0.0,0.0,1668050395.97854
223759308.0,1828.0,1787.0,1073.152587890625,1.0,0.0,0.0,0.0,1668050396.078329
223859521.0,1828.0,1787.0,1072.4364013671875,1.0,0.0,0.0,0.0,1668050396.178542
223959576.0,1828.0,1787.0,1071.7423095703125,1.0,0.0,0.0,0.0,1668050396.2785969
224059528.0,1828.0,1787.0,1071.0697021484375,1.0,0.0,0.0,0.0,1668050396.378549
224159543.0,1828.0,1787.0,1070.41796875,1.0,0.0,0.0,0.0,1668050396.478564
224259460.0,1828.0,1787.0,1069.786376953125,1.0,0.0,0.0,0.0,1668050396.578481
224359613.0,1828.0,1787.0,1069.17431640625,1.0,0.0,0.0,0.0,1668050396.678634
227271699.0,1828.0,1787.0,1127.7635498046875,4.0,0.0,0.0,0.0,1668050399.59072
227371583.0,1828.0,1787.0,1125.3582763671875,4.0,0.0,0.0,0.0,1668050399.690604
227471479.0,1828.0,1787.0,1123.02734375,4.0,0.0,0.0,0.0,1668050399.7905
227571789.0,1828.0,1787.0,1120.7685546875,4.0,0.0,0.0,0.0,1668050399.89081
227671196.0,1828.0,1787.0,1118.57958984375,4.0,0.0,0.0,0.0,1668050399.990217
227771435.0,1828.0,1787.0,1116.4583740234375,4.0,0.0,0.0,0.0,1668050400.090456
227871185.0,1828.0,1787.0,1114.4027099609375,4.0,0.0,0.0,0.0,1668050400.190206
227971592.0,1828.0,1787.0,1112.41064453125,4.0,0.0,0.0,0.0,1668050400.290613
228071572.0,1828.0,1787.0,1110.480224609375,4.0,0.0,0.0,0.0,1668050400.390593
228171246.0,1828.0,1787.0,1108.6094970703125,4.0,0.0,0.0,0.0,1668050400.490267
228271230.0,1828.0,1787.0,1106.796630859375,4.0,0.0,0.0,0.0,1668050400.590251
228371451.0,1828.0,1787.0,1105.039794921875,4.0,0.0,0.0,0.0,1668050400.690472
228471440.0,1828.0,1787.0,1103.3372802734375,4.0,0.0,0.0,0.0,1668050400.790461
228571509.0,1828.0,1787.0,1101.6875,4.0,0.0,0.0,0.0,1668050400.8905299
228671574.0,1828.0,1787.0,1100.0887451171875,4.0,0.0,0.0,0.0,1668050400.990595
228771495.0,1828.0,1787.0,1098.5394287109375,4.0,0.0,0.0,0.0,1668050401.090516
228871200.0,1828.0,1787.0,1097.0379638671875,4.0,0.0,0.0,0.0,1668050401.190221
228971737.0,1828.0,1787.0,1095.5830078125,4.0,0.0,0.0,0.0,1668050401.290758
229071482.0,1828.0,1787.0,1094.173095703125,4.0,0.0,0.0,0.0,1668050401.390503
229171621.0,1828.0,1787.0,1092.8067626953125,4.0,0.0,0.0,0.0,1668050401.490642
229271418.0,1828.0,1787.0,1091.482666015625,4.0,0.0,0.0,0.0,1668050401.590439
229371538.0,1828.0,1787.0,1090.1995849609375,4.0,0.0,0.0,0.0,1668050401.690559
229471002.0,1828.0,1787.0,1088.9561767578125,4.0,0.0,0.0,0.0,1668050401.790023
229571581.0,1828.0,1787.0,1087.751220703125,4.0,0.0,0.0,0.0,1668050401.8906019
229671510.0,1828.0,1787.0,1086.58349609375,4.0,0.0,0.0,0.0,1668050401.990531
229771551.0,1828.0,1787.0,1085.451904296875,4.0,0.0,0.0,0.0,1668050402.0905719
229871331.0,1828.0,1787.0,1084.3553466796875,4.0,0.0,0.0,0.0,1668050402.190352
229971665.0,1828.0,1787.0,1083.2926025390625,4.0,0.0,0.0,0.0,1668050402.290686
230071431.0,1828.0,1787.0,1082.2628173828125,4.0,0.0,0.0,0.0,1668050402.390452
233085227.0,1828.0,1787.0,1115.243896484375,6.0,0.0,0.0,0.0,1668050405.404248
233184648.0,1828.0,1787.0,1114.89599609375,6.0,0.0,0.0,0.0,1668050405.503669
233284686.0,1828.0,1787.0,1112.888671875,6.0,0.0,0.0,0.0,1668050405.603707
233385295.0,1828.0,1787.0,1110.9434814453125,6.0,0.0,0.0,0.0,1668050405.704316
233484706.0,1828.0,1787.0,1109.0584716796875,6.0,0.0,0.0,0.0,1668050405.803727
233584818.0,1828.0,1787.0,1107.231689453125,6.0,0.0,0.0,0.0,1668050405.9038389
233684829.0,1828.0,1787.0,1105.46142578125,6.0,0.0,0.0,0.0,1668050406.00385
233784662.0,1828.0,1787.0,1103.7459716796875,6.0,0.0,0.0,0.0,1668050406.103683
233884634.0,1828.0,1787.0,1102.08349609375,6.0,0.0,0.0,0.0,1668050406.203655
233985111.0,1828.0,1787.0,1100.472412109375,6.0,0.0,0.0,0.0,1668050406.304132
234084862.0,1828.0,1787.0,1098.9112548828125,6.0,0.0,0.0,0.0,1668050406.403883
234184854.0,1828.0,1787.0,1097.3983154296875,6.0,0.0,0.0,0.0,1668050406.503875
234284686.0,1828.0,1787.0,1095.9322509765625,6.0,0.0,0.0,0.0,1668050406.603707
234385082.0,1828.0,1787.0,1094.511474609375,6.0,0.0,0.0,0.0,1668050406.704103
234484671.0,1828.0,1787.0,1093.1346435546875,6.0,0.0,0.0,0.0,1668050406.803692
234584878.0,1828.0,1787.0,1091.8004150390625,6.0,0.0,0.0,0.0,1668050406.903899
234684715.0,1828.0,1787.0,1090.5074462890625,6.0,0.0,0.0,0.0,1668050407.003736
234784953.0,1828.0,1787.0,1089.2545166015625,6.0,0.0,0.0,0.0,1668050407.103974
234884714.0,1828.0,1787.0,1088.040283203125,6.0,0.0,0.0,0.0,1668050407.2037349
234984876.0,1828.0,1787.0,1086.8636474609375,6.0,0.0,0.0,0.0,1668050407.303897
235084872.0,1828.0,1787.0,1085.723388671875,6.0,0.0,0.0,0.0,1668050407.403893
235184887.0,1828.0,1787.0,1084.618408203125,6.0,0.0,0.0,0.0,1668050407.503908
235284829.0,1828.0,1787.0,1083.547607421875,6.0,0.0,0.0,0.0,1668050407.60385
235384949.0,1828.0,1787.0,1082.5098876953125,6.0,0.0,0.0,0.0,1668050407.70397
235484787.0,1828.0,1787.0,1081.5042724609375,6.0,0.0,0.0,0.0,1668050407.803808
235584753.0,1828.0,1787.0,1080.52978515625,6.0,0.0,0.0,0.0,1668050407.903774
235684808.0,1828.0,1787.0,1079.58544921875,6.0,0.0,0.0,0.0,1668050408.003829
238397311.0,1828.0,1787.0,1089.5634765625,2.0,0.0,0.0,0.0,1668050410.716332
238496371.0,1828.0,1787.0,1088.3397216796875,2.0,0.0,0.0,0.0,1668050410.815392
238596645.0,1828.0,1787.0,1087.15380859375,2.0,0.0,0.0,0.0,1668050410.915666
238696499.0,1828.0,1787.0,1086.0045166015625,2.0,0.0,0.0,0.0,1668050411.01552
238796646.0,1828.0,1787.0,1084.890869140625,2.0,0.0,0.0,0.0,1668050411.115667
238896595.0,1828.0,1787.0,1083.8116455078125,2.0,0.0,0.0,0.0,1668050411.215616
238996768.0,1828.0,1787.0,1082.7657470703125,2.0,0.0,0.0,0.0,1668050411.315789
239096621.0,1828.0,1787.0,1081.752197265625,2.0,0.0,0.0,0.0,1668050411.415642
239196567.0,1828.0,1787.0,1080.77001953125,2.0,0.0,0.0,0.0,1668050411.515588
239296579.0,1828.0,1787.0,1079.8182373046875,2.0,0.0,0.0,0.0,1668050411.6155999
239396630.0,1828.0,1787.0,1078.8958740234375,2.0,0.0,0.0,0.0,1668050411.715651
239496783.0,1828.0,1787.0,1078.0020751953125,2.0,0.0,0.0,0.0,1668050411.815804
239596702.0,1828.0,1787.0,1077.1358642578125,2.0,0.0,0.0,0.0,1668050411.915723
239696717.0,1828.0,1787.0,1076.2965087890625,2.0,0.0,0.0,0.0,1668050412.015738
239796633.0,1828.0,1787.0,1075.4830322265625,2.0,0.0,0.0,0.0,1668050412.115654
239896440.0,1828.0,1787.0,1074.6947021484375,2.0,0.0,0.0,0.0,1668050412.215461
239996843.0,1828.0,1787.0,1073.9307861328125,2.0,0.0,0.0,0.0,1668050412.315864
240096512.0,1828.0,1787.0,1073.1905517578125,2.0,0.0,0.0,0.0,1668050412.415533
240196587.0,1828.0,1787.0,1072.47314453125,2.0,0.0,0.0,0.0,1668050412.515608
240296593.0,1828.0,1787.0,1071.7779541015625,2.0,0.0,0.0,0.0,1668050412.615614
240396740.0,1828.0,1787.0,1071.104248046875,2.0,0.0,0.0,0.0,1668050412.715761
240496530.0,1828.0,1787.0,1070.451416015625,2.0,0.0,0.0,0.0,1668050412.815551
240596490.0,1828.0,1787.0,1069.8187255859375,2.0,0.0,0.0,0.0,1668050412.915511
240696393.0,1828.0,1787.0,1069.2056884765625,2.0,0.0,0.0,0.0,1668050413.015414
240796723.0,1828.0,1787.0,1068.611572265625,2.0,0.0,0.0,0.0,1668050413.1157439
240896624.0,1828.0,1787.0,1068.035888671875,2.0,0.0,0.0,0.0,1668050413.215645
240996830.0,1828.0,1787.0,1067.4779052734375,2.0,0.0,0.0,0.0,1668050413.315851
241096632.0,1828.0,1787.0,1066.937255859375,2.0,0.0,0.0,0.0,1668050413.415653
241196475.0,1828.0,1787.0,1066.413330078125,2.0,0.0,0.0,0.0,1668050413.515496
241296878.0,1828.0,1787.0,1065.9056396484375,2.0,0.0,0.0,0.0,1668050413.615899
241396671.0,1828.0,1787.0,1065.41357421875,2.0,0.0,0.0,0.0,1668050413.715692
241496480.0,1828.0,1787.0,1064.936767578125,2.0,0.0,0.0,0.0,1668050413.815501
241596692.0,1828.0,1787.0,1064.4747314453125,2.0,0.0,0.0,0.0,1668050413.915713
241696516.0,1828.0,1787.0,1064.0269775390625,2.0,0.0,0.0,0.0,1668050414.015537
241796754.0,1828.0,1787.0,1063.593017578125,2.0,0.0,0.0,0.0,1668050414.1157749
241896405.0,1828.0,1787.0,1063.1724853515625,2.0,0.0,0.0,0.0,1668050414.215426
241996924.0,1828.0,1787.0,1062.7650146484375,2.0,0.0,0.0,0.0,1668050414.315945
242096648.0,1828.0,1787.0,1062.3701171875,2.0,0.0,0.0,0.0,1668050414.415669
242196616.0,1828.0,1787.0,1061.9874267578125,2.0,0.0,0.0,0.0,1668050414.515637
242296573.0,1828.0,1787.0,1061.6165771484375,2.0,0.0,0.0,0.0,1668050414.615594
242396630.0,1828.0,1787.0,1061.2572021484375,2.0,0.0,0.0,0.0,1668050414.715651
242496455.0,1828.0,1787.0,1060.908935546875,2.0,0.0,0.0,0.0,1668050414.815476
242596455.0,1828.0,1787.0,1060.5714111328125,2.0,0.0,0.0,0.0,1668050414.915476
242696624.0,1828.0,1787.0,1060.244384765625,2.0,0.0,0.0,0.0,1668050415.015645
242796920.0,1828.0,1787.0,1059.927490234375,2.0,0.0,0.0,0.0,1668050415.115941
242896616.0,1828.0,1787.0,1059.620361328125,2.0,0.0,0.0,0.0,1668050415.215637
242996800.0,1828.0,1787.0,1059.32275390625,2.0,0.0,0.0,0.0,1668050415.315821
243096726.0,1828.0,1787.0,1059.0343017578125,2.0,0.0,0.0,0.0,1668050415.415747
243196635.0,1828.0,1787.0,1058.7547607421875,2.0,0.0,0.0,0.0,1668050415.515656
243296564.0,1828.0,1787.0,1058.48388671875,2.0,0.0,0.0,0.0,1668050415.615585
243396750.0,1828.0,1787.0,1058.221435546875,2.0,0.0,0.0,0.0,1668050415.715771
246509129.0,1828.0,1787.0,1087.8543701171875,3.0,0.0,0.0,0.0,1668050418.82815
246608687.0,1828.0,1787.0,1086.6834716796875,3.0,0.0,0.0,0.0,1668050418.927708
246708483.0,1828.0,1787.0,1085.548828125,3.0,0.0,0.0,0.0,1668050419.027504
246808720.0,1828.0,1787.0,1084.44921875,3.0,0.0,0.0,0.0,1668050419.127741
246908639.0,1828.0,1787.0,1083.3836669921875,3.0,0.0,0.0,0.0,1668050419.22766
247009031.0,1828.0,1787.0,1082.35107421875,3.0,0.0,0.0,0.0,1668050419.328052
247108767.0,1828.0,1787.0,1081.350341796875,3.0,0.0,0.0,0.0,1668050419.427788
247208695.0,1828.0,1787.0,1080.380615234375,3.0,0.0,0.0,0.0,1668050419.527716
247308800.0,1828.0,1787.0,1079.44091796875,3.0,0.0,0.0,0.0,1668050419.627821
247408592.0,1828.0,1787.0,1078.5302734375,3.0,0.0,0.0,0.0,1668050419.727613
247508709.0,1828.0,1787.0,1077.647705078125,3.0,0.0,0.0,0.0,1668050419.82773
247608715.0,1828.0,1787.0,1076.79248046875,3.0,0.0,0.0,0.0,1668050419.927736
247708727.0,1828.0,1787.0,1075.9637451171875,3.0,0.0,0.0,0.0,1668050420.0277479
247808618.0,1828.0,1787.0,1075.16064453125,3.0,0.0,0.0,0.0,1668050420.127639
247908603.0,1828.0,1787.0,1074.38232421875,3.0,0.0,0.0,0.0,1668050420.227624
248008835.0,1828.0,1787.0,1073.6280517578125,3.0,0.0,0.0,0.0,1668050420.327856
248108398.0,1828.0,1787.0,1072.897216796875,3.0,0.0,0.0,0.0,1668050420.427419
248208668.0,1828.0,1787.0,1072.18896484375,3.0,0.0,0.0,0.0,1668050420.527689
248308631.0,1828.0,1787.0,1071.5025634765625,3.0,0.0,0.0,0.0,1668050420.627652
248408709.0,1828.0,1787.0,1070.83740234375,3.0,0.0,0.0,0.0,1668050420.72773
248508446.0,1828.0,1787.0,1070.19287109375,3.0,0.0,0.0,0.0,1668050420.827467
248608690.0,1828.0,1787.0,1069.5682373046875,3.0,0.0,0.0,0.0,1668050420.927711
248708667.0,1828.0,1787.0,1068.962890625,3.0,0.0,0.0,0.0,1668050421.027688
248808817.0,1828.0,1787.0,1068.3763427734375,3.0,0.0,0.0,0.0,1668050421.127838
248908415.0,1828.0,1787.0,1067.807861328125,3.0,0.0,0.0,0.0,1668050421.227436
249008717.0,1828.0,1787.0,1067.2569580078125,3.0,0.0,0.0,0.0,1668050421.327738
249108442.0,1828.0,1787.0,1066.72314453125,3.0,0.0,0.0,0.0,1668050421.427463
249208694.0,1828.0,1787.0,1066.205810546875,3.0,0.0,0.0,0.0,1668050421.527715
249308689.0,1828.0,1787.0,1065.7044677734375,3.0,0.0,0.0,0.0,1668050421.62771
249408837.0,1828.0,1787.0,1065.2186279296875,3.0,0.0,0.0,0.0,1668050421.727858
249508664.0,1828.0,1787.0,1064.747802734375,3.0,0.0,0.0,0.0,1668050421.8276849
249608663.0,1828.0,1787.0,1064.2916259765625,3.0,0.0,0.0,0.0,1668050421.927684
249708766.0,1828.0,1787.0,1063.8494873046875,3.0,0.0,0.0,0.0,1668050422.027787
249808678.0,1828.0,1787.0,1063.4210205078125,3.0,0.0,0.0,0.0,1668050422.127699
252821076.0,1828.0,1787.0,1104.3701171875,5.0,0.0,0.0,0.0,1668050425.140097
252920248.0,1828.0,1787.0,1104.0802001953125,5.0,0.0,0.0,0.0,1668050425.239269
253020748.0,1828.0,1787.0,1102.407470703125,5.0,0.0,0.0,0.0,1668050425.339769
253120331.0,1828.0,1787.0,1100.786376953125,5.0,0.0,0.0,0.0,1668050425.439352
253220414.0,1828.0,1787.0,1099.2154541015625,5.0,0.0,0.0,0.0,1668050425.539435
253320383.0,1828.0,1787.0,1097.693115234375,5.0,0.0,0.0,0.0,1668050425.639404
253420338.0,1828.0,1787.0,1096.2178955078125,5.0,0.0,0.0,0.0,1668050425.739359
253520355.0,1828.0,1787.0,1094.788330078125,5.0,0.0,0.0,0.0,1668050425.839376
253620317.0,1828.0,1787.0,1093.4029541015625,5.0,0.0,0.0,0.0,1668050425.939338
253720238.0,1828.0,1787.0,1092.0604248046875,5.0,0.0,0.0,0.0,1668050426.039259
253820413.0,1828.0,1787.0,1090.7593994140625,5.0,0.0,0.0,0.0,1668050426.139434
253920387.0,1828.0,1787.0,1089.4986572265625,5.0,0.0,0.0,0.0,1668050426.239408
254020684.0,1828.0,1787.0,1088.27685546875,5.0,0.0,0.0,0.0,1668050426.339705
254120239.0,1828.0,1787.0,1087.0928955078125,5.0,0.0,0.0,0.0,1668050426.43926
254220384.0,1828.0,1787.0,1085.945556640625,5.0,0.0,0.0,0.0,1668050426.5394049
254320284.0,1828.0,1787.0,1084.833740234375,5.0,0.0,0.0,0.0,1668050426.6393049
254420384.0,1828.0,1787.0,1083.7562255859375,5.0,0.0,0.0,0.0,1668050426.739405
254520280.0,1828.0,1787.0,1082.7120361328125,5.0,0.0,0.0,0.0,1668050426.8393009
254620424.0,1828.0,1787.0,1081.7001953125,5.0,0.0,0.0,0.0,1668050426.939445
254720475.0,1828.0,1787.0,1080.7196044921875,5.0,0.0,0.0,0.0,1668050427.039496
254820499.0,1828.0,1787.0,1079.7694091796875,5.0,0.0,0.0,0.0,1668050427.13952
254920343.0,1828.0,1787.0,1078.8485107421875,5.0,0.0,0.0,0.0,1668050427.239364
255020578.0,1828.0,1787.0,1077.9561767578125,5.0,0.0,0.0,0.0,1668050427.339599
255120339.0,1828.0,1787.0,1077.0914306640625,5.0,0.0,0.0,0.0,1668050427.43936
255220364.0,1828.0,1787.0,1076.25341796875,5.0,0.0,0.0,0.0,1668050427.539385
255320323.0,1828.0,1787.0,1075.4412841796875,5.0,0.0,0.0,0.0,1668050427.639344
255420389.0,1828.0,1787.0,1074.654296875,5.0,0.0,0.0,0.0,1668050427.73941
255520253.0,1828.0,1787.0,1073.8916015625,5.0,0.0,0.0,0.0,1668050427.839274
258433245.0,1828.0,1787.0,1087.2626953125,1.0,0.0,0.0,0.0,1668050430.752266
258532616.0,1828.0,1787.0,1087.0843505859375,1.0,0.0,0.0,0.0,1668050430.851637
258632596.0,1828.0,1787.0,1085.937255859375,1.0,0.0,0.0,0.0,1668050430.951617
258732264.0,1828.0,1787.0,1084.82568359375,1.0,0.0,0.0,0.0,1668050431.051285
258832551.0,1828.0,1787.0,1083.7484130859375,1.0,0.0,0.0,0.0,1668050431.151572
258932403.0,1828.0,1787.0,1082.7044677734375,1.0,0.0,0.0,0.0,1668050431.251424
259032715.0,1828.0,1787.0,1081.69287109375,1.0,0.0,0.0,0.0,1668050431.351736
259132316.0,1828.0,1787.0,1080.7125244140625,1.0,0.0,0.0,0.0,1668050431.451337
259232556.0,1828.0,1787.0,1079.762451171875,1.0,0.0,0.0,0.0,1668050431.551577
259332388.0,1828.0,1787.0,1078.841796875,1.0,0.0,0.0,0.0,1668050431.651409
259432627.0,1828.0,1787.0,1077.9495849609375,1.0,0.0,0.0,0.0,1668050431.751648
259532505.0,1828.0,1787.0,1077.0850830078125,1.0,0.0,0.0,0.0,1668050431.851526
259632412.0,1828.0,1787.0,1076.247314453125,1.0,0.0,0.0,0.0,1668050431.951433
259732593.0,1828.0,1787.0,1075.4354248046875,1.0,0.0,0.0,0.0,1668050432.051614
259832548.0,1828.0,1787.0,1074.648681640625,1.0,0.0,0.0,0.0,1668050432.151569
259932509.0,1828.0,1787.0,1073.88623046875,1.0,0.0,0.0,0.0,1668050432.25153
260032707.0,1828.0,1787.0,1073.1473388671875,1.0,0.0,0.0,0.0,1668050432.351728
260132555.0,1828.0,1787.0,1072.4312744140625,1.0,0.0,0.0,0.0,1668050432.451576
260232687.0,1828.0,1787.0,1071.7374267578125,1.0,0.0,0.0,0.0,1668050432.551708
260332628.0,1828.0,1787.0,1071.0650634765625,1.0,0.0,0.0,0.0,1668050432.651649
260432633.0,1828.0,1787.0,1070.4134521484375,1.0,0.0,0.0,0.0,1668050432.751654
260532302.0,1828.0,1787.0,1069.781982421875,1.0,0.0,0.0,0.0,1668050432.851323
260632565.0,1828.0,1787.0,1069.1700439453125,1.0,0.0,0.0,0.0,1668050432.951586
260732392.0,1828.0,1787.0,1068.5770263671875,1.0,0.0,0.0,0.0,1668050433.051413
260832604.0,1828.0,1787.0,1068.0023193359375,1.0,0.0,0.0,0.0,1668050433.151625
260932429.0,1828.0,1787.0,1067.4454345703125,1.0,0.0,0.0,0.0,1668050433.25145
261032748.0,1828.0,1787.0,1066.90576171875,1.0,0.0,0.0,0.0,1668050433.351769
261132255.0,1828.0,1787.0,1066.3828125,1.0,0.0,0.0,0.0,1668050433.451276
261232579.0,1828.0,1787.0,1065.8759765625,1.0,0.0,0.0,0.0,1668050433.5516
261332478.0,1828.0,1787.0,1065.3848876953125,1.0,0.0,0.0,0.0,1668050433.651499
261432497.0,1828.0,1787.0,1064.908935546875,1.0,0.0,0.0,0.0,1668050433.751518
261532537.0,1828.0,1787.0,1064.44775390625,1.0,0.0,0.0,0.0,1668050433.851558
261632461.0,1828.0,1787.0,1064.0008544921875,1.0,0.0,0.0,0.0,1668050433.951482
261732568.0,1828.0,1787.0,1063.5677490234375,1.0,0.0,0.0,0.0,1668050434.051589
261832535.0,1828.0,1787.0,1063.1480712890625,1.0,0.0,0.0,0.0,1668050434.151556
261932544.0,1828.0,1787.0,1062.7413330078125,1.0,0.0,0.0,0.0,1668050434.251565
262032675.0,1828.0,1787.0,1062.34716796875,1.0,0.0,0.0,0.0,1668050434.351696
262132575.0,1828.0,1787.0,1061.9652099609375,1.0,0.0,0.0,0.0,1668050434.451596
262232609.0,1828.0,1787.0,1061.5950927734375,1.0,0.0,0.0,0.0,1668050434.55163
262332458.0,1828.0,1787.0,1061.236328125,1.0,0.0,0.0,0.0,1668050434.651479
262432624.0,1828.0,1787.0,1060.888671875,1.0,0.0,0.0,0.0,1668050434.751645
262532573.0,1828.0,1787.0,1060.5517578125,1.0,0.0,0.0,0.0,1668050434.851594
262632583.0,1828.0,1787.0,1060.225341796875,1.0,0.0,0.0,0.0,1668050434.951604
262732422.0,1828.0,1787.0,1059.908935546875,1.0,0.0,0.0,0.0,1668050435.051443
262832505.0,1828.0,1787.0,1059.6024169921875,1.0,0.0,0.0,0.0,1668050435.151526
262932365.0,1828.0,1787.0,1059.3052978515625,1.0,0.0,0.0,0.0,1668050435.251386
263032826.0,1828.0,1787.0,1059.0174560546875,1.0,0.0,0.0,0.0,1668050435.351847
263132601.0,1828.0,1787.0,1058.738525390625,1.0,0.0,0.0,0.0,1668050435.451622
263232582.0,1828.0,1787.0,1058.4681396484375,1.0,0.0,0.0,0.0,1668050435.551603
263332503.0,1828.0,1787.0,1058.2061767578125,1.0,0.0,0.0,0.0,1668050435.651524
263432517.0,1828.0,1787.0,1057.9522705078125,1.0,0.0,0.0,0.0,1668050435.751538
263532352.0,1828.0,1787.0,1057.7061767578125,1.0,0.0,0.0,0.0,1668050435.851373
263632556.0,1828.0,1787.0,1057.4677734375,1.0,0.0,0.0,0.0,1668050435.951577
263732593.0,1828.0,1787.0,1057.2366943359375,1.0,0.0,0.0,0.0,1668050436.051614
263832556.0,1828.0,1787.0,1057.0128173828125,1.0,0.0,0.0,0.0,1668050436.151577
263932573.0,1828.0,1787.0,1056.7957763671875,1.0,0.0,0.0,0.0,1668050436.251594
264032743.0,1828.0,1787.0,1056.58544921875,1.0,0.0,0.0,0.0,1668050436.351764
264132506.0,1828.0,1787.0,1056.3817138671875,1.0,0.0,0.0,0.0,1668050436.4515269
264232614.0,1828.0,1787.0,1056.1842041015625,1.0,0.0,0.0,0.0,1668050436.551635
264332366.0,1828.0,1787.0,1055.9927978515625,1.0,0.0,0.0,0.0,1668050436.651387
264432668.0,1828.0,1787.0,1055.807373046875,1.0,0.0,0.0,0.0,1668050436.751689
264532404.0,1828.0,1787.0,1055.627685546875,1.0,0.0,0.0,0.0,1668050436.851425
264632627.0,1828.0,1787.0,1055.4534912109375,1.0,0.0,0.0,0.0,1668050436.951648
264732391.0,1828.0,1787.0,1055.2847900390625,1.0,0.0,0.0,0.0,1668050437.051412
264832571.0,1828.0,1787.0,1055.1212158203125,1.0,0.0,0.0,0.0,1668050437.151592
264932408.0,1828.0,1787.0,1054.9627685546875,1.0,0.0,0.0,0.0,1668050437.251429
265032707.0,1828.0,1787.0,1054.8092041015625,1.0,0.0,0.0,0.0,1668050437.351728
265132571.0,1828.0,1787.0,1054.660400390625,1.0,0.0,0.0,0.0,1668050437.451592
265232578.0,1828.0,1787.0,1054.5162353515625,1.0,0.0,0.0,0.0,1668050437.551599
265332496.0,1828.0,1787.0,1054.37646484375,1.0,0.0,0.0,0.0,1668050437.651517
265432565.0,1828.0,1787.0,1054.240966796875,1.0,0.0,0.0,0.0,1668050437.751586
265532539.0,1828.0,1787.0,1054.1097412109375,1.0,0.0,0.0,0.0,1668050437.8515599
265632568.0,1828.0,1787.0,1053.9825439453125,1.0,0.0,0.0,0.0,1668050437.9515889
265732458.0,1828.0,1787.0,1053.8592529296875,1.0,0.0,0.0,0.0,1668050438.051479
265832679.0,1828.0,1787.0,1053.7398681640625,1.0,0.0,0.0,0.0,1668050438.1517
265932306.0,1828.0,1787.0,1053.6241455078125,1.0,0.0,0.0,0.0,1668050438.251327
266032782.0,1828.0,1787.0,1053.511962890625,1.0,0.0,0.0,0.0,1668050438.351803
266132379.0,1828.0,1787.0,1053.4033203125,1.0,0.0,0.0,0.0,1668050438.4514
266232625.0,1828.0,1787.0,1053.2979736328125,1.0,0.0,0.0,0.0,1668050438.551646
266332370.0,1828.0,1787.0,1053.1959228515625,1.0,0.0,0.0,0.0,1668050438.651391
266432524.0,1828.0,1787.0,1053.0970458984375,1.0,0.0,0.0,0.0,1668050438.751545
266532513.0,1828.0,1787.0,1053.001220703125,1.0,0.0,0.0,0.0,1668050438.851534
266632705.0,1828.0,1787.0,1052.9083251953125,1.0,0.0,0.0,0.0,1668050438.951726
266732657.0,1828.0,1787.0,1052.8182373046875,1.0,0.0,0.0,0.0,1668050439.051678
266832432.0,1828.0,1787.0,1052.73095703125,1.0,0.0,0.0,0.0,1668050439.151453
266932591.0,1828.0,1787.0,1052.6463623046875,1.0,0.0,0.0,0.0,1668050439.251612
267032680.0,1828.0,1787.0,1052.564453125,1.0,0.0,0.0,0.0,1668050439.351701
267132592.0,1828.0,1787.0,1052.485107421875,1.0,0.0,0.0,0.0,1668050439.451613
267232581.0,1828.0,1787.0,1052.408203125,1.0,0.0,0.0,0.0,1668050439.551602
267332516.0,1828.0,1787.0,1052.3336181640625,1.0,0.0,0.0,0.0,1668050439.651537
267432569.0,1828.0,1787.0,1052.2613525390625,1.0,0.0,0.0,0.0,1668050439.75159
267532602.0,1828.0,1787.0,1052.1912841796875,1.0,0.0,0.0,0.0,1668050439.851623
267632643.0,1828.0,1787.0,1052.1234130859375,1.0,0.0,0.0,0.0,1668050439.951664
267732391.0,1828.0,1787.0,1052.0576171875,1.0,0.0,0.0,0.0,1668050440.051412
267832613.0,1828.0,1787.0,1051.993896484375,1.0,0.0,0.0,0.0,1668050440.151634
267932392.0,1828.0,1787.0,1051.93212890625,1.0,0.0,0.0,0.0,1668050440.2514129
268032738.0,1828.0,1787.0,1051.872314453125,1.0,0.0,0.0,0.0,1668050440.351759
268132435.0,1828.0,1787.0,1051.8143310546875,1.0,0.0,0.0,0.0,1668050440.451456
268232515.0,1828.0,1787.0,1051.7581787109375,1.0,0.0,0.0,0.0,1668050440.551536
268332339.0,1828.0,1787.0,1051.7037353515625,1.0,0.0,0.0,0.0,1668050440.65136
268432668.0,1828.0,1787.0,1051.6510009765625,1.0,0.0,0.0,0.0,1668050440.751689
268532419.0,1828.0,1787.0,1051.599853515625,1.0,0.0,0.0,0.0,1668050440.85144
268632617.0,1828.0,1787.0,1051.55029296875,1.0,0.0,0.0,0.0,1668050440.951638
268732498.0,1828.0,1787.0,1051.5023193359375,1.0,0.0,0.0,0.0,1668050441.051519
268832620.0,1828.0,1787.0,1051.455810546875,1.0,0.0,0.0,0.0,1668050441.151641
268932544.0,1828.0,1787.0,1051.41064453125,1.0,0.0,0.0,0.0,1668050441.251565
269032721.0,1828.0,1787.0,1051.366943359375,1.0,0.0,0.0,0.0,1668050441.351742
269132610.0,1828.0,1787.0,1051.3245849609375,1.0,0.0,0.0,0.0,1668050441.451631
269232536.0,1828.0,1787.0,1051.2835693359375,1.0,0.0,0.0,0.0,1668050441.551557
269332606.0,1828.0,1787.0,1051.2437744140625,1.0,0.0,0.0,0.0,1668050441.651627
269432538.0,1828.0,1787.0,1051.2052001953125,1.0,0.0,0.0,0.0,1668050441.751559
269532386.0,1828.0,1787.0,1051.1678466796875,1.0,0.0,0.0,0.0,1668050441.851407
269632609.0,1828.0,1787.0,1051.131591796875,1.0,0.0,0.0,0.0,1668050441.9516299
269732394.0,1828.0,1787.0,1051.0965576171875,1.0,0.0,0.0,0.0,1668050442.051415
269832623.0,1828.0,1787.0,1051.0626220703125,1.0,0.0,0.0,0.0,1668050442.151644
269932370.0,1828.0,1787.0,1051.0296630859375,1.0,0.0,0.0,0.0,1668050442.251391
270032721.0,1828.0,1787.0,1050.9976806640625,1.0,0.0,0.0,0.0,1668050442.351742
270132359.0,1828.0,1787.0,1050.966796875,1.0,0.0,0.0,0.0,1668050442.45138
270232585.0,1828.0,1787.0,1050.936767578125,1.0,0.0,0.0,0.0,1668050442.551606
270332457.0,1828.0,1787.0,1050.90771484375,1.0,0.0,0.0,0.0,1668050442.651478
270432541.0,1828.0,1787.0,1050.8795166015625,1.0,0.0,0.0,0.0,1668050442.7515619
270532608.0,1828.0,1787.0,1050.852294921875,1.0,0.0,0.0,0.0,1668050442.851629
270632515.0,1828.0,1787.0,1050.8258056640625,1.0,0.0,0.0,0.0,1668050442.951536
270732579.0,1828.0,1787.0,1050.8001708984375,1.0,0.0,0.0,0.0,1668050443.0516
270832544.0,1828.0,1787.0,1050.775390625,1.0,0.0,0.0,0.0,1668050443.151565
270932589.0,1828.0,1787.0,1050.7513427734375,1.0,0.0,0.0,0.0,1668050443.25161
271032709.0,1828.0,1787.0,1050.72802734375,1.0,0.0,0.0,0.0,1668050443.3517299
271132595.0,1828.0,1787.0,1050.7054443359375,1.0,0.0,0.0,0.0,1668050443.451616
271232572.0,1828.0,1787.0,1050.68359375,1.0,0.0,0.0,0.0,1668050443.551593
271332512.0,1828.0,1787.0,1050.662353515625,1.0,0.0,0.0,0.0,1668050443.651533
271432587.0,1828.0,1787.0,1050.641845703125,1.0,0.0,0.0,0.0,1668050443.751608
271532392.0,1828.0,1787.0,1050.6219482421875,1.0,0.0,0.0,0.0,1668050443.851413
271632454.0,1828.0,1787.0,1050.6026611328125,1.0,0.0,0.0,0.0,1668050443.951475
271732362.0,1828.0,1787.0,1050.583984375,1.0,0.0,0.0,0.0,1668050444.051383
271832596.0,1828.0,1787.0,1050.5657958984375,1.0,0.0,0.0,0.0,1668050444.151617
271932377.0,1828.0,1787.0,1050.5482177734375,1.0,0.0,0.0,0.0,1668050444.251398
272032823.0,1828.0,1787.0,1050.5311279296875,1.0,0.0,0.0,0.0,1668050444.351844
272132493.0,1828.0,1787.0,1050.5146484375,1.0,0.0,0.0,0.0,1668050444.451514
272232439.0,1828.0,1787.0,1050.4986572265625,1.0,0.0,0.0,0.0,1668050444.55146
272332525.0,1828.0,1787.0,1050.483154296875,1.0,0.0,0.0,0.0,1668050444.651546
272432506.0,1828.0,1787.0,1050.4681396484375,1.0,0.0,0.0,0.0,1668050444.751527
272532515.0,1828.0,1787.0,1050.45361328125,1.0,0.0,0.0,0.0,1668050444.851536
272632452.0,1828.0,1787.0,1050.439453125,1.0,0.0,0.0,0.0,1668050444.951473
272732508.0,1828.0,1787.0,1050.42578125,1.0,0.0,0.0,0.0,1668050445.051529
272832678.0,1828.0,1787.0,1050.4124755859375,1.0,0.0,0.0,0.0,1668050445.151699
272932549.0,1908.0,1867.0,1050.399658203125,1.0,0.0,0.0,0.0,1668050445.25157
273032846.0,1908.0,1867.0,1050.38720703125,1.0,0.0,0.0,0.0,1668050445.351867
273132524.0,1908.0,1867.0,1050.3751220703125,1.0,0.0,0.0,0.0,1668050445.451545
273232533.0,1908.0,1867.0,1050.3634033203125,1.0,0.0,0.0,0.0,1668050445.551554
273332332.0,1908.0,1867.0,1050.35205078125,1.0,0.0,0.0,0.0,1668050445.651353
274133128.0,1908.0,1867.0,1050.2733154296875,1.0,0.0,0.0,0.0,1668050446.452149
274232445.0,1908.0,1867.0,1050.2647705078125,1.0,0.0,0.0,0.0,1668050446.551466
274332487.0,1908.0,1867.0,1050.2564697265625,1.0,0.0,0.0,0.0,1668050446.651508
274432410.0,1908.0,1867.0,1050.2484130859375,1.0,0.0,0.0,0.0,1668050446.751431
274532466.0,1908.0,1867.0,1050.2406005859375,1.0,0.0,0.0,0.0,1668050446.851487
274632524.0,1908.0,1867.0,1050.2330322265625,1.0,0.0,0.0,0.0,1668050446.951545
274732623.0,1908.0,1867.0,1050.2257080078125,1.0,0.0,0.0,0.0,1668050447.051644
274832543.0,1908.0,1867.0,1050.2186279296875,1.0,0.0,0.0,0.0,1668050447.151564
274932533.0,1908.0,1867.0,1050.2117919921875,1.0,0.0,0.0,0.0,1668050447.251554
275032607.0,1908.0,1867.0,1050.2052001953125,1.0,0.0,0.0,0.0,1668050447.351628
275132388.0,1908.0,1867.0,1050.19873046875,1.0,0.0,0.0,0.0,1668050447.451409
275232526.0,1908.0,1867.0,1050.1925048828125,1.0,0.0,0.0,0.0,1668050447.551547
275332371.0,1908.0,1867.0,1050.1865234375,1.0,0.0,0.0,0.0,1668050447.651392
275432585.0,1908.0,1867.0,1050.1806640625,1.0,0.0,0.0,0.0,1668050447.751606
275532340.0,1908.0,1867.0,1050.175048828125,1.0,0.0,0.0,0.0,1668050447.851361
275632601.0,1908.0,1867.0,1050.1695556640625,1.0,0.0,0.0,0.0,1668050447.951622
275732554.0,1908.0,1867.0,1050.1641845703125,1.0,0.0,0.0,0.0,1668050448.051575
275832416.0,1908.0,1867.0,1050.1590576171875,1.0,0.0,0.0,0.0,1668050448.151437
275932510.0,1908.0,1867.0,1050.154052734375,1.0,0.0,0.0,0.0,1668050448.251531
276032512.0,1908.0,1867.0,1050.149169921875,1.0,0.0,0.0,0.0,1668050448.351533
276132573.0,1908.0,1867.0,1050.14453125,1.0,0.0,0.0,0.0,1668050448.4515939
276232463.0,1908.0,1867.0,1050.201904296875,1.0,0.0,0.0,0.0,1668050448.5514839
276332553.0,1908.0,1867.0,1050.427490234375,1.0,0.0,0.0,0.0,1668050448.651574
276432612.0,1908.0,1867.0,1050.8780517578125,1.0,0.0,0.0,0.0,1668050448.751633
276532583.0,1908.0,1867.0,1051.5467529296875,1.0,0.0,0.0,0.0,1668050448.851604
276632524.0,1908.0,1867.0,1052.4267578125,1.0,0.0,0.0,0.0,1668050448.951545
276732373.0,1908.0,1867.0,1053.511474609375,1.0,0.0,0.0,0.0,1668050449.051394
276832572.0,1908.0,1867.0,1054.7945556640625,1.0,0.0,0.0,0.0,1668050449.151593
276932399.0,1908.0,1867.0,1056.2855224609375,1.0,0.0,0.0,0.0,1668050449.25142
277032655.0,1908.0,1867.0,1057.94677734375,1.0,0.0,0.0,0.0,1668050449.351676
277132461.0,1908.0,1867.0,1059.6494140625,1.0,0.0,0.0,0.0,1668050449.451482
277232615.0,1908.0,1867.0,1061.2994384765625,1.0,0.0,0.0,0.0,1668050449.551636
277332436.0,1908.0,1867.0,1062.8984375,1.0,0.0,0.0,0.0,1668050449.651457
277432552.0,1908.0,1867.0,1064.447998046875,1.0,0.0,0.0,0.0,1668050449.751573
277532550.0,1908.0,1867.0,1065.9495849609375,1.0,0.0,0.0,0.0,1668050449.851571
277632426.0,1908.0,1867.0,1067.40478515625,1.0,0.0,0.0,0.0,1668050449.951447
277732555.0,1908.0,1867.0,1068.81494140625,1.0,0.0,0.0,0.0,1668050450.051576
277832439.0,1908.0,1867.0,1070.181396484375,1.0,0.0,0.0,0.0,1668050450.15146
277932576.0,1908.0,1867.0,1071.505615234375,1.0,0.0,0.0,0.0,1668050450.251597
278032481.0,1908.0,1867.0,1072.8043212890625,1.0,0.0,0.0,100.0,1668050450.351502
278132526.0,1908.0,1867.0,1074.1402587890625,1.0,0.0,0.0,200.0,1668050450.451547
278232433.0,1908.0,1867.0,1076.4112548828125,4.0,0.0,0.0,300.0,1668050450.551454
278332640.0,1908.0,1867.0,1079.398681640625,4.0,0.0,0.0,400.0,1668050450.651661
278432530.0,1908.0,1867.0,1081.9378662109375,4.0,0.0,0.0,500.0,1668050450.751551
278532409.0,1828.0,1787.0,1084.1512451171875,4.0,0.0,0.0,0.0,1668050450.85143
278632607.0,1828.0,1787.0,1086.2032470703125,4.0,0.0,0.0,0.0,1668050450.951628
278732402.0,1828.0,1787.0,1088.3001708984375,4.0,0.0,0.0,0.0,1668050451.051423
278832577.0,1828.0,1787.0,1090.2547607421875,4.0,0.0,0.0,0.0,1668050451.151598
278932307.0,1828.0,1787.0,1092.05615234375,4.0,0.0,0.0,0.0,1668050451.251328
279032578.0,1828.0,1787.0,1093.8172607421875,4.0,0.0,0.0,0.0,1668050451.351599
279132583.0,1828.0,1787.0,1095.4620361328125,4.0,0.0,0.0,0.0,1668050451.451604
279232634.0,1828.0,1787.0,1097.2569580078125,4.0,0.0,0.0,0.0,1668050451.551655
279332404.0,1828.0,1787.0,1099.07373046875,4.0,0.0,0.0,0.0,1668050451.651425
279432446.0,1828.0,1787.0,1100.6488037109375,4.0,0.0,0.0,0.0,1668050451.751467
279532482.0,1828.0,1787.0,1102.298828125,4.0,0.0,0.0,0.0,1668050451.851503
279632356.0,1828.0,1787.0,1104.1297607421875,4.0,0.0,0.0,0.0,1668050451.951377
279732520.0,1828.0,1787.0,1105.84228515625,4.0,0.0,0.0,0.0,1668050452.051541
279832392.0,1828.0,1787.0,1107.4244384765625,4.0,0.0,0.0,0.0,1668050452.151413
279932499.0,1828.0,1787.0,1109.143310546875,4.0,0.0,0.0,0.0,1668050452.25152
280032508.0,1828.0,1787.0,1110.85546875,4.0,0.0,0.0,0.0,1668050452.351529
280132535.0,1828.0,1787.0,1112.3599853515625,4.0,0.0,0.0,0.0,1668050452.451556
280232513.0,1828.0,1787.0,1113.8333740234375,4.0,0.0,0.0,0.0,1668050452.551534
280332322.0,1828.0,1787.0,1115.2457275390625,4.0,0.0,0.0,0.0,1668050452.6513429
280432623.0,1828.0,1787.0,1116.58349609375,4.0,0.0,0.0,0.0,1668050452.751644
280532352.0,1828.0,1787.0,1118.01904296875,4.0,0.0,0.0,0.0,1668050452.851373
280632542.0,1828.0,1787.0,1119.3792724609375,4.0,0.0,0.0,0.0,1668050452.951563
280732528.0,1828.0,1787.0,1120.6201171875,4.0,0.0,0.0,0.0,1668050453.051549
280832476.0,1828.0,1787.0,1121.9462890625,4.0,0.0,0.0,0.0,1668050453.151497
280932366.0,1828.0,1787.0,1123.37060546875,4.0,0.0,0.0,0.0,1668050453.251387
281032631.0,1828.0,1787.0,1124.642578125,4.0,0.0,0.0,0.0,1668050453.351652
281132370.0,1828.0,1787.0,1125.84423828125,4.0,0.0,0.0,0.0,1668050453.451391
281232531.0,1828.0,1787.0,1127.1170654296875,4.0,0.0,0.0,0.0,1668050453.551552
281332552.0,1828.0,1787.0,1128.3504638671875,4.0,0.0,0.0,0.0,1668050453.651573
281432489.0,1828.0,1787.0,1129.68505859375,4.0,0.0,0.0,0.0,1668050453.75151
281532574.0,1828.0,1787.0,1130.90087890625,4.0,0.0,0.0,0.0,1668050453.851595
281632485.0,1828.0,1787.0,1131.8780517578125,4.0,0.0,0.0,0.0,1668050453.951506
281732498.0,1828.0,1787.0,1132.8714599609375,4.0,0.0,0.0,0.0,1668050454.051519
281832347.0,1828.0,1787.0,1133.80322265625,4.0,0.0,0.0,0.0,1668050454.151368
281932651.0,1828.0,1787.0,1134.829833984375,4.0,0.0,0.0,0.0,1668050454.251672
282032614.0,1828.0,1787.0,1136.087646484375,4.0,0.0,0.0,0.0,1668050454.351635
282132408.0,1828.0,1787.0,1137.229248046875,4.0,0.0,0.0,0.0,1668050454.451429
282232547.0,1828.0,1787.0,1138.2271728515625,4.0,0.0,0.0,0.0,1668050454.551568
282332367.0,1828.0,1787.0,1139.2562255859375,4.0,0.0,0.0,0.0,1668050454.651388
282432528.0,1828.0,1787.0,1140.2998046875,4.0,0.0,0.0,0.0,1668050454.751549
282532664.0,1828.0,1787.0,1141.3111572265625,4.0,0.0,0.0,0.0,1668050454.851685
282632532.0,1828.0,1787.0,1142.1983642578125,4.0,0.0,0.0,0.0,1668050454.9515529
282732367.0,1828.0,1787.0,1143.0582275390625,4.0,0.0,0.0,0.0,1668050455.051388
282832583.0,1828.0,1787.0,1143.9068603515625,4.0,0.0,0.0,0.0,1668050455.151604
282932593.0,1828.0,1787.0,1144.9302978515625,4.0,0.0,0.0,0.0,1668050455.251614
283032572.0,1828.0,1787.0,1146.0767822265625,4.0,0.0,0.0,0.0,1668050455.351593
283132471.0,1828.0,1787.0,1146.955810546875,4.0,0.0,0.0,0.0,1668050455.451492
283232459.0,1828.0,1787.0,1147.66845703125,4.0,0.0,0.0,0.0,1668050455.55148
283332605.0,1828.0,1787.0,1148.37451171875,4.0,0.0,0.0,0.0,1668050455.6516259
283432550.0,1828.0,1787.0,1149.182373046875,4.0,0.0,0.0,0.0,1668050455.751571
283532588.0,1828.0,1787.0,1149.96533203125,4.0,0.0,0.0,0.0,1668050455.851609
283632378.0,1828.0,1787.0,1150.5848388671875,4.0,0.0,0.0,0.0,1668050455.951399
283732602.0,1828.0,1787.0,1151.2315673828125,4.0,0.0,0.0,0.0,1668050456.0516229
283832467.0,1828.0,1787.0,1152.2449951171875,4.0,0.0,0.0,0.0,1668050456.151488
283932400.0,1828.0,1787.0,1153.443603515625,4.0,0.0,0.0,0.0,1668050456.251421
284032555.0,1828.0,1787.0,1154.2957763671875,4.0,0.0,0.0,0.0,1668050456.351576
284132373.0,1828.0,1787.0,1154.9205322265625,4.0,0.0,0.0,0.0,1668050456.451394
284232537.0,1828.0,1787.0,1155.510498046875,4.0,0.0,0.0,0.0,1668050456.551558
284332622.0,1828.0,1787.0,1156.2833251953125,4.0,0.0,0.0,0.0,1668050456.651643
284432609.0,1828.0,1787.0,1157.125,4.0,0.0,0.0,0.0,1668050456.75163
284532375.0,1828.0,1787.0,1157.7550048828125,4.0,0.0,0.0,0.0,1668050456.851396
284632694.0,1828.0,1787.0,1158.473876953125,4.0,0.0,0.0,0.0,1668050456.951715
284732552.0,1828.0,1787.0,1159.526123046875,4.0,0.0,0.0,0.0,1668050457.051573
284832496.0,1828.0,1787.0,1160.6077880859375,4.0,0.0,0.0,0.0,1668050457.151517
284932435.0,1828.0,1787.0,1161.30029296875,4.0,0.0,0.0,0.0,1668050457.251456
285032518.0,1828.0,1787.0,1161.9095458984375,4.0,0.0,0.0,0.0,1668050457.351539
285132556.0,1828.0,1787.0,1162.561767578125,4.0,0.0,0.0,0.0,1668050457.451577
285232509.0,1828.0,1787.0,1163.364013671875,4.0,0.0,0.0,0.0,1668050457.55153
285332721.0,1828.0,1787.0,1164.5125732421875,4.0,0.0,0.0,0.0,1668050457.651742
285432614.0,1828.0,1787.0,1165.4244384765625,4.0,0.0,0.0,0.0,1668050457.751635
285532640.0,1828.0,1787.0,1166.2154541015625,4.0,0.0,0.0,0.0,1668050457.851661
285632554.0,1828.0,1787.0,1167.291259765625,4.0,0.0,0.0,0.0,1668050457.951575
285732328.0,1828.0,1787.0,1168.2564697265625,4.0,0.0,0.0,0.0,1668050458.051349
285832584.0,1828.0,1787.0,1168.882568359375,4.0,0.0,0.0,0.0,1668050458.151605
285932490.0,1828.0,1787.0,1169.4892578125,4.0,0.0,0.0,0.0,1668050458.251511
286032510.0,1828.0,1787.0,1170.200927734375,4.0,0.0,0.0,0.0,1668050458.351531
286132503.0,1828.0,1787.0,1171.137939453125,4.0,0.0,0.0,0.0,1668050458.451524
286232562.0,1828.0,1787.0,1172.1234130859375,4.0,0.0,0.0,0.0,1668050458.551583
286332716.0,1828.0,1787.0,1172.7071533203125,4.0,0.0,0.0,0.0,1668050458.651737
286432631.0,1828.0,1787.0,1173.1800537109375,4.0,0.0,0.0,0.0,1668050458.751652
286532460.0,1828.0,1787.0,1173.9322509765625,4.0,0.0,0.0,0.0,1668050458.851481
286632502.0,1828.0,1787.0,1174.4754638671875,4.0,0.0,0.0,0.0,1668050458.951523
286732728.0,1828.0,1787.0,1174.84716796875,4.0,0.0,0.0,0.0,1668050459.051749
286832452.0,1828.0,1787.0,1175.39306640625,4.0,0.0,0.0,0.0,1668050459.151473
286932481.0,1828.0,1787.0,1176.2159423828125,4.0,0.0,0.0,0.0,1668050459.251502
287032490.0,1828.0,1787.0,1177.3226318359375,4.0,0.0,0.0,0.0,1668050459.351511
287132540.0,1828.0,1787.0,1178.02392578125,4.0,0.0,0.0,0.0,1668050459.451561
287232430.0,1828.0,1787.0,1178.40966796875,4.0,0.0,0.0,0.0,1668050459.551451
287332811.0,1828.0,1787.0,1178.8917236328125,4.0,0.0,0.0,0.0,1668050459.651832
287432560.0,1828.0,1787.0,1179.5599365234375,4.0,0.0,0.0,0.0,1668050459.751581
287532578.0,1828.0,1787.0,1180.5631103515625,4.0,0.0,0.0,0.0,1668050459.851599
287632527.0,1828.0,1787.0,1181.396240234375,4.0,0.0,0.0,0.0,1668050459.951548
287732381.0,1828.0,1787.0,1181.9251708984375,4.0,0.0,0.0,0.0,1668050460.051402
287832530.0,1828.0,1787.0,1182.7469482421875,4.0,0.0,0.0,0.0,1668050460.151551
287932427.0,1828.0,1787.0,1183.6826171875,4.0,0.0,0.0,0.0,1668050460.251448
288032549.0,1828.0,1787.0,1184.171630859375,4.0,0.0,0.0,0.0,1668050460.35157
288132413.0,1828.0,1787.0,1184.444580078125,4.0,0.0,0.0,0.0,1668050460.451434
288232635.0,1828.0,1787.0,1184.786376953125,4.0,0.0,0.0,0.0,1668050460.551656
288332811.0,1828.0,1787.0,1185.4578857421875,4.0,0.0,0.0,0.0,1668050460.651832
288432408.0,1828.0,1787.0,1186.41796875,4.0,0.0,0.0,0.0,1668050460.751429
288532571.0,1828.0,1787.0,1186.6832275390625,4.0,0.0,0.0,0.0,1668050460.851592
288632415.0,1828.0,1787.0,1186.290771484375,4.0,0.0,0.0,0.0,1668050460.951436
288732537.0,1908.0,1867.0,1185.7249755859375,4.0,0.0,0.0,0.0,1668050461.051558
288832656.0,1908.0,1867.0,1184.4498291015625,4.0,0.0,0.0,0.0,1668050461.151677
288932573.0,1908.0,1867.0,1182.456298828125,4.0,0.0,0.0,0.0,1668050461.251594
289032495.0,1908.0,1867.0,1180.3233642578125,4.0,0.0,0.0,0.0,1668050461.351516
289132615.0,1908.0,1867.0,1178.240966796875,4.0,0.0,0.0,0.0,1668050461.451636
289232563.0,1908.0,1867.0,1176.222900390625,4.0,0.0,0.0,0.0,1668050461.551584
289332729.0,1908.0,1867.0,1174.267333984375,4.0,0.0,0.0,0.0,1668050461.65175
289432548.0,1908.0,1867.0,1172.3721923828125,4.0,0.0,0.0,0.0,1668050461.751569
289532390.0,1908.0,1867.0,1170.53564453125,4.0,0.0,0.0,0.0,1668050461.851411
289632767.0,1908.0,1867.0,1168.7559814453125,4.0,0.0,0.0,0.0,1668050461.951788
289744982.0,1908.0,1867.0,1167.03125,4.0,0.0,0.0,0.0,1668050462.064003
289844180.0,1908.0,1867.0,1164.3856201171875,4.0,0.0,0.0,0.0,1668050462.163201
289944370.0,1908.0,1867.0,1160.8475341796875,4.0,0.0,0.0,0.0,1668050462.263391
290044605.0,1908.0,1867.0,1157.4189453125,4.0,0.0,0.0,0.0,1668050462.363626
290144266.0,1908.0,1867.0,1154.096435546875,4.0,0.0,0.0,0.0,1668050462.4632869
290244305.0,1908.0,1867.0,1150.8765869140625,4.0,0.0,0.0,0.0,1668050462.563326
290344190.0,1908.0,1867.0,1147.75634765625,4.0,0.0,0.0,0.0,1668050462.6632109
290444263.0,1908.0,1867.0,1144.732666015625,4.0,0.0,0.0,0.0,1668050462.763284
290544169.0,1908.0,1867.0,1141.802490234375,4.0,0.0,0.0,0.0,1668050462.86319
290644308.0,1908.0,1867.0,1138.9630126953125,4.0,0.0,0.0,0.0,1668050462.963329
290744057.0,1908.0,1867.0,1136.2113037109375,4.0,0.0,0.0,0.0,1668050463.063078
290844404.0,1908.0,1867.0,1133.544677734375,4.0,0.0,0.0,0.0,1668050463.163425
290944142.0,1908.0,1867.0,1130.9605712890625,4.0,0.0,0.0,0.0,1668050463.263163
291044592.0,1908.0,1867.0,1128.4564208984375,4.0,0.0,0.0,0.0,1668050463.363613
291144185.0,1908.0,1867.0,1126.0296630859375,4.0,0.0,0.0,0.0,1668050463.463206
291244184.0,1908.0,1867.0,1123.677978515625,4.0,0.0,0.0,0.0,1668050463.563205
291344304.0,1908.0,1867.0,1121.3990478515625,4.0,0.0,0.0,0.0,1668050463.663325
291444258.0,1908.0,1867.0,1119.1905517578125,4.0,0.0,0.0,0.0,1668050463.763279
291544147.0,1908.0,1867.0,1117.0504150390625,4.0,0.0,0.0,0.0,1668050463.863168
291644176.0,1908.0,1867.0,1114.9764404296875,4.0,0.0,0.0,0.0,1668050463.963197
291744303.0,1908.0,1867.0,1112.9666748046875,4.0,0.0,0.0,0.0,1668050464.063324
291844290.0,1908.0,1867.0,1111.01904296875,4.0,0.0,0.0,0.0,1668050464.163311
291944077.0,1908.0,1867.0,1109.131591796875,4.0,0.0,0.0,0.0,1668050464.263098
292044669.0,1908.0,1867.0,1107.3026123046875,4.0,0.0,0.0,0.0,1668050464.36369
292144331.0,1908.0,1867.0,1105.5301513671875,4.0,0.0,0.0,0.0,1668050464.463352
292244401.0,1908.0,1867.0,1103.8125,4.0,0.0,0.0,0.0,1668050464.563422
292344321.0,1908.0,1867.0,1102.14794921875,4.0,0.0,0.0,0.0,1668050464.663342
292444326.0,1908.0,1867.0,1100.534912109375,4.0,0.0,0.0,0.0,1668050464.763347
292544194.0,1908.0,1867.0,1098.9718017578125,4.0,0.0,0.0,0.0,1668050464.863215
292644278.0,1908.0,1867.0,1097.45703125,4.0,0.0,0.0,0.0,1668050464.963299
292744212.0,1908.0,1867.0,1095.9891357421875,4.0,0.0,0.0,0.0,1668050465.063233
292844127.0,1908.0,1867.0,1094.566650390625,4.0,0.0,0.0,100.0,1668050465.163148
292944176.0,1908.0,1867.0,1093.1881103515625,4.0,0.0,0.0,200.0,1668050465.263197
293044621.0,1908.0,1867.0,1091.8521728515625,4.0,0.0,0.0,300.0,1668050465.363642
293144182.0,1908.0,1867.0,1090.5576171875,4.0,0.0,0.0,400.0,1668050465.463203
293244021.0,1908.0,1867.0,1089.3031005859375,4.0,0.0,0.0,500.0,1668050465.563042
293344267.0,1828.0,1787.0,1088.08740234375,4.0,0.0,0.0,0.0,1668050465.6632879
293444170.0,1828.0,1787.0,1086.9093017578125,4.0,0.0,0.0,0.0,1668050465.763191
293544326.0,1828.0,1787.0,1085.767578125,4.0,0.0,0.0,0.0,1668050465.863347
293644276.0,1828.0,1787.0,1084.6612548828125,4.0,0.0,0.0,0.0,1668050465.963297
293744111.0,1828.0,1787.0,1083.589111328125,4.0,0.0,0.0,0.0,1668050466.063132
293844197.0,1828.0,1787.0,1082.5501708984375,4.0,0.0,0.0,0.0,1668050466.163218
293944212.0,1828.0,1787.0,1081.5433349609375,4.0,0.0,0.0,0.0,1668050466.263233
294044573.0,1828.0,1787.0,1080.567626953125,4.0,0.0,0.0,0.0,1668050466.363594
294144172.0,1828.0,1787.0,1079.6220703125,4.0,0.0,0.0,0.0,1668050466.463193
294244302.0,1828.0,1787.0,1078.705810546875,4.0,0.0,0.0,0.0,1668050466.563323
294344320.0,1908.0,1867.0,1077.81787109375,4.0,0.0,0.0,0.0,1668050466.663341
294444321.0,1908.0,1867.0,1076.9573974609375,4.0,0.0,0.0,0.0,1668050466.763342
294544364.0,1908.0,1867.0,1076.12353515625,4.0,0.0,0.0,0.0,1668050466.863385
294644201.0,1908.0,1867.0,1075.3154296875,4.0,0.0,0.0,0.0,1668050466.963222
294744212.0,1908.0,1867.0,1074.5323486328125,4.0,0.0,0.0,0.0,1668050467.063233
294844166.0,1908.0,1867.0,1073.7734375,4.0,0.0,0.0,0.0,1668050467.163187
294944291.0,1908.0,1867.0,1073.0380859375,4.0,0.0,0.0,0.0,1668050467.263312
295044960.0,1908.0,1867.0,1072.325439453125,4.0,0.0,0.0,0.0,1668050467.363981
295144185.0,1908.0,1867.0,1071.6348876953125,4.0,0.0,0.0,0.0,1668050467.463206
295244159.0,1908.0,1867.0,1070.9656982421875,4.0,0.0,0.0,0.0,1668050467.56318
295344124.0,1908.0,1867.0,1070.317138671875,4.0,0.0,0.0,0.0,1668050467.663145
295444296.0,1908.0,1867.0,1069.6885986328125,4.0,0.0,0.0,0.0,1668050467.7633169
295544081.0,1908.0,1867.0,1069.07958984375,4.0,0.0,0.0,0.0,1668050467.863102
295644293.0,1908.0,1867.0,1068.4893798828125,4.0,0.0,0.0,0.0,1668050467.963314
295744120.0,1908.0,1867.0,1067.91748046875,4.0,0.0,0.0,0.0,1668050468.0631409
295844263.0,1908.0,1867.0,1067.3631591796875,4.0,0.0,0.0,0.0,1668050468.163284
295944276.0,1908.0,1867.0,1066.8260498046875,4.0,0.0,0.0,0.0,1668050468.263297
296044346.0,1908.0,1867.0,1066.3055419921875,4.0,0.0,0.0,0.0,1668050468.363367
296144082.0,1908.0,1867.0,1065.8011474609375,4.0,0.0,0.0,0.0,1668050468.463103
296244205.0,1908.0,1867.0,1065.3123779296875,4.0,0.0,0.0,0.0,1668050468.563226
296344179.0,1908.0,1867.0,1064.8387451171875,4.0,0.0,0.0,0.0,1668050468.6632
296444250.0,1908.0,1867.0,1064.3797607421875,4.0,0.0,0.0,0.0,1668050468.763271
296544275.0,1908.0,1867.0,1063.9349365234375,4.0,0.0,0.0,0.0,1668050468.863296
296644175.0,1908.0,1867.0,1063.50390625,4.0,0.0,0.0,0.0,1668050468.963196
296744141.0,1908.0,1867.0,1063.086181640625,4.0,0.0,0.0,0.0,1668050469.063162
296844138.0,1908.0,1867.0,1062.681396484375,4.0,0.0,0.0,0.0,1668050469.163159
296944166.0,1908.0,1867.0,1062.2890625,4.0,0.0,0.0,0.0,1668050469.263187
297044261.0,1908.0,1867.0,1061.908935546875,4.0,0.0,0.0,0.0,1668050469.363282
297144406.0,1908.0,1867.0,1061.6488037109375,4.0,0.0,0.0,0.0,1668050469.463427
297244261.0,1908.0,1867.0,1061.5513916015625,4.0,0.0,0.0,0.0,1668050469.563282
297344187.0,1908.0,1867.0,1061.6270751953125,4.0,0.0,0.0,0.0,1668050469.663208
297444263.0,1908.0,1867.0,1061.932373046875,4.0,0.0,0.0,0.0,1668050469.763284
297544225.0,1908.0,1867.0,1062.460205078125,4.0,0.0,0.0,0.0,1668050469.863246
297644159.0,1908.0,1867.0,1063.218994140625,4.0,0.0,0.0,0.0,1668050469.96318
297743993.0,1908.0,1867.0,1064.1864013671875,4.0,0.0,0.0,0.0,1668050470.063014
297844223.0,1908.0,1867.0,1065.3404541015625,4.0,0.0,0.0,0.0,1668050470.163244
297944125.0,1908.0,1867.0,1066.6907958984375,4.0,0.0,0.0,0.0,1668050470.263146
298044397.0,1908.0,1867.0,1068.123046875,4.0,0.0,0.0,0.0,1668050470.363418
298144229.0,1908.0,1867.0,1069.510986328125,4.0,0.0,0.0,0.0,1668050470.46325
298244170.0,1908.0,1867.0,1070.85595703125,4.0,0.0,0.0,0.0,1668050470.563191
298344198.0,1908.0,1867.0,1072.1593017578125,4.0,0.0,0.0,100.0,1668050470.663219
298444143.0,1908.0,1867.0,1073.42236328125,4.0,0.0,0.0,200.0,1668050470.763164
298544300.0,1908.0,1867.0,1074.6927490234375,4.0,0.0,0.0,300.0,1668050470.863321
298644103.0,1908.0,1867.0,1076.7744140625,4.0,0.0,0.0,400.0,1668050470.963124
298744209.0,1908.0,1867.0,1079.3330078125,4.0,0.0,0.0,500.0,1668050471.06323
298844275.0,1828.0,1787.0,1081.549560546875,4.0,0.0,0.0,0.0,1668050471.163296
298944255.0,1828.0,1787.0,1083.743896484375,4.0,0.0,0.0,0.0,1668050471.263276
299044434.0,1828.0,1787.0,1085.8394775390625,4.0,0.0,0.0,0.0,1668050471.363455
299144170.0,1828.0,1787.0,1087.901123046875,4.0,0.0,0.0,0.0,1668050471.463191
299244283.0,1828.0,1787.0,1089.9918212890625,4.0,0.0,0.0,0.0,1668050471.563304
299344150.0,1828.0,1787.0,1091.9405517578125,4.0,0.0,0.0,0.0,1668050471.663171
299444246.0,1828.0,1787.0,1093.7979736328125,4.0,0.0,0.0,0.0,1668050471.763267
299544109.0,1828.0,1787.0,1095.6754150390625,4.0,0.0,0.0,0.0,1668050471.86313
299644274.0,1828.0,1787.0,1097.51025390625,4.0,0.0,0.0,0.0,1668050471.963295
299744159.0,1828.0,1787.0,1099.3037109375,4.0,0.0,0.0,0.0,1668050472.06318
299844254.0,1828.0,1787.0,1101.088134765625,4.0,0.0,0.0,0.0,1668050472.163275
299944144.0,1828.0,1787.0,1102.7708740234375,4.0,0.0,0.0,0.0,1668050472.263165
300044189.0,1828.0,1787.0,1104.3861083984375,4.0,0.0,0.0,0.0,1668050472.36321
300144290.0,1828.0,1787.0,1106.02880859375,4.0,0.0,0.0,0.0,1668050472.463311
300244230.0,1828.0,1787.0,1107.697998046875,4.0,0.0,0.0,0.0,1668050472.563251
300344209.0,1828.0,1787.0,1109.300048828125,4.0,0.0,0.0,0.0,1668050472.66323
300444106.0,1828.0,1787.0,1110.8525390625,4.0,0.0,0.0,0.0,1668050472.763127
300544272.0,1828.0,1787.0,1112.4034423828125,4.0,0.0,0.0,0.0,1668050472.863293
300644266.0,1828.0,1787.0,1113.9373779296875,4.0,0.0,0.0,0.0,1668050472.9632869
300744284.0,1828.0,1787.0,1115.3929443359375,4.0,0.0,0.0,0.0,1668050473.063305
300844255.0,1828.0,1787.0,1116.8653564453125,4.0,0.0,0.0,0.0,1668050473.163276
300944122.0,1828.0,1787.0,1118.3385009765625,4.0,0.0,0.0,0.0,1668050473.263143
301044366.0,1828.0,1787.0,1119.626953125,4.0,0.0,0.0,0.0,1668050473.3633869
301144141.0,1828.0,1787.0,1120.906494140625,4.0,0.0,0.0,0.0,1668050473.463162
301244253.0,1828.0,1787.0,1122.33203125,4.0,0.0,0.0,0.0,1668050473.563274
301344338.0,1828.0,1787.0,1123.837158203125,4.0,0.0,0.0,0.0,1668050473.663359
301444300.0,1828.0,1787.0,1125.218505859375,4.0,0.0,0.0,0.0,1668050473.763321
301544240.0,1828.0,1787.0,1126.4488525390625,4.0,0.0,0.0,0.0,1668050473.863261
301644356.0,1828.0,1787.0,1127.6566162109375,4.0,0.0,0.0,0.0,1668050473.963377
301744209.0,1828.0,1787.0,1128.9661865234375,4.0,0.0,0.0,0.0,1668050474.06323
301844264.0,1828.0,1787.0,1130.389892578125,4.0,0.0,0.0,0.0,1668050474.163285
301944172.0,1828.0,1787.0,1131.754150390625,4.0,0.0,0.0,0.0,1668050474.263193
302044299.0,1828.0,1787.0,1132.9833984375,4.0,0.0,0.0,0.0,1668050474.3633199
302144208.0,1828.0,1787.0,1134.0198974609375,4.0,0.0,0.0,0.0,1668050474.463229
302244153.0,1828.0,1787.0,1134.931640625,4.0,0.0,0.0,0.0,1668050474.563174
302344275.0,1828.0,1787.0,1136.000732421875,4.0,0.0,0.0,0.0,1668050474.663296
302444066.0,1828.0,1787.0,1137.0367431640625,4.0,0.0,0.0,0.0,1668050474.763087
302544343.0,1828.0,1787.0,1137.978759765625,4.0,0.0,0.0,0.0,1668050474.863364
302644284.0,1828.0,1787.0,1138.922607421875,4.0,0.0,0.0,0.0,1668050474.963305
302744259.0,1828.0,1787.0,1139.9920654296875,4.0,0.0,0.0,0.0,1668050475.06328
302844151.0,1828.0,1787.0,1141.430419921875,4.0,0.0,0.0,0.0,1668050475.163172
302944174.0,1828.0,1787.0,1142.88623046875,4.0,0.0,0.0,0.0,1668050475.263195
303044393.0,1828.0,1787.0,1143.9412841796875,4.0,0.0,0.0,0.0,1668050475.363414
303144166.0,1828.0,1787.0,1144.7935791015625,4.0,0.0,0.0,0.0,1668050475.463187
303244260.0,1828.0,1787.0,1145.6812744140625,4.0,0.0,0.0,0.0,1668050475.563281
303344120.0,1828.0,1787.0,1146.820068359375,4.0,0.0,0.0,0.0,1668050475.663141
303444383.0,1828.0,1787.0,1148.3875732421875,4.0,0.0,0.0,0.0,1668050475.763404
303544181.0,1828.0,1787.0,1149.68994140625,4.0,0.0,0.0,0.0,1668050475.863202
303644126.0,1828.0,1787.0,1150.7200927734375,4.0,0.0,0.0,0.0,1668050475.963147
303744058.0,1828.0,1787.0,1152.182373046875,4.0,0.0,0.0,0.0,1668050476.0630789
303844279.0,1828.0,1787.0,1153.6922607421875,4.0,0.0,0.0,0.0,1668050476.1633
303944186.0,1828.0,1787.0,1154.64501953125,4.0,0.0,0.0,0.0,1668050476.263207
304044230.0,1828.0,1787.0,1155.4136962890625,4.0,0.0,0.0,0.0,1668050476.363251
304144267.0,1828.0,1787.0,1156.23583984375,4.0,0.0,0.0,0.0,1668050476.463288
304244144.0,1828.0,1787.0,1157.465576171875,4.0,0.0,0.0,0.0,1668050476.563165
304344330.0,1828.0,1787.0,1159.0439453125,4.0,0.0,0.0,0.0,1668050476.663351
304444245.0,1828.0,1787.0,1160.016845703125,4.0,0.0,0.0,0.0,1668050476.763266
304544203.0,1828.0,1787.0,1161.0833740234375,4.0,0.0,0.0,0.0,1668050476.863224
304644144.0,1828.0,1787.0,1162.534423828125,4.0,0.0,0.0,0.0,1668050476.963165
304744126.0,1828.0,1787.0,1163.4146728515625,4.0,0.0,0.0,0.0,1668050477.063147
304844448.0,1828.0,1787.0,1164.0667724609375,4.0,0.0,0.0,0.0,1668050477.163469
304944144.0,1828.0,1787.0,1164.7913818359375,4.0,0.0,0.0,0.0,1668050477.263165
305044400.0,1828.0,1787.0,1165.895751953125,4.0,0.0,0.0,0.0,1668050477.363421
305144144.0,1828.0,1787.0,1167.259765625,4.0,0.0,0.0,0.0,1668050477.463165
305244338.0,1828.0,1787.0,1168.040283203125,4.0,0.0,0.0,0.0,1668050477.563359
305344267.0,1828.0,1787.0,1168.611083984375,4.0,0.0,0.0,0.0,1668050477.6632879
305444149.0,1828.0,1787.0,1169.2880859375,4.0,0.0,0.0,0.0,1668050477.76317
305544345.0,1828.0,1787.0,1170.34619140625,4.0,0.0,0.0,0.0,1668050477.863366
305644156.0,1828.0,1787.0,1171.4334716796875,4.0,0.0,0.0,0.0,1668050477.963177
305744276.0,1828.0,1787.0,1172.0849609375,4.0,0.0,0.0,0.0,1668050478.063297
305844142.0,1828.0,1787.0,1173.1029052734375,4.0,0.0,0.0,0.0,1668050478.163163
305944167.0,1828.0,1787.0,1174.3369140625,4.0,0.0,0.0,0.0,1668050478.263188
306044434.0,1828.0,1787.0,1175.0223388671875,4.0,0.0,0.0,0.0,1668050478.363455
306144279.0,1828.0,1787.0,1175.54736328125,4.0,0.0,0.0,0.0,1668050478.4633
306244223.0,1828.0,1787.0,1176.210693359375,4.0,0.0,0.0,0.0,1668050478.563244
306344167.0,1828.0,1787.0,1177.1474609375,4.0,0.0,0.0,0.0,1668050478.663188
306444332.0,1828.0,1787.0,1178.2408447265625,4.0,0.0,0.0,0.0,1668050478.7633529
306544034.0,1828.0,1787.0,1178.83642578125,4.0,0.0,0.0,0.0,1668050478.863055
306644530.0,1828.0,1787.0,1179.583740234375,4.0,0.0,0.0,0.0,1668050478.963551
306744136.0,1828.0,1787.0,1180.6326904296875,4.0,0.0,0.0,0.0,1668050479.063157
306844256.0,1828.0,1787.0,1181.2470703125,4.0,0.0,0.0,0.0,1668050479.163277
306944395.0,1828.0,1787.0,1181.7032470703125,4.0,0.0,0.0,0.0,1668050479.263416
307044397.0,1828.0,1787.0,1182.2999267578125,4.0,0.0,0.0,0.0,1668050479.363418
307144131.0,1828.0,1787.0,1183.1566162109375,4.0,0.0,0.0,0.0,1668050479.463152
307244181.0,1828.0,1787.0,1184.1878662109375,4.0,0.0,0.0,0.0,1668050479.563202
307344228.0,1828.0,1787.0,1184.76953125,4.0,0.0,0.0,0.0,1668050479.663249
307444130.0,1828.0,1787.0,1185.1322021484375,4.0,0.0,0.0,0.0,1668050479.763151
307544287.0,1828.0,1787.0,1185.5765380859375,4.0,0.0,0.0,0.0,1668050479.863308
307644577.0,1828.0,1787.0,1186.192626953125,4.0,0.0,0.0,0.0,1668050479.963598
307744197.0,1828.0,1787.0,1186.9443359375,4.0,0.0,0.0,0.0,1668050480.0632179
307844170.0,1828.0,1787.0,1187.5181884765625,4.0,0.0,0.0,0.0,1668050480.163191
307944231.0,1828.0,1787.0,1188.151611328125,4.0,0.0,0.0,0.0,1668050480.263252
308044295.0,1828.0,1787.0,1188.7034912109375,4.0,0.0,0.0,0.0,1668050480.363316
308144120.0,1828.0,1787.0,1188.9754638671875,4.0,0.0,0.0,0.0,1668050480.463141
308244261.0,1828.0,1787.0,1189.053466796875,4.0,0.0,0.0,0.0,1668050480.563282
308344180.0,1828.0,1787.0,1189.1754150390625,4.0,0.0,0.0,0.0,1668050480.663201
308444253.0,1828.0,1787.0,1189.525634765625,4.0,0.0,0.0,0.0,1668050480.763274
308544086.0,1828.0,1787.0,1189.8494873046875,4.0,0.0,0.0,0.0,1668050480.863107
308644567.0,1828.0,1787.0,1189.9158935546875,4.0,0.0,0.0,0.0,1668050480.963588
308744141.0,1828.0,1787.0,1190.1348876953125,4.0,0.0,0.0,0.0,1668050481.063162
308844335.0,1828.0,1787.0,1190.6409912109375,4.0,0.0,0.0,0.0,1668050481.163356
308944300.0,1828.0,1787.0,1191.03857421875,4.0,0.0,0.0,0.0,1668050481.263321
309044444.0,1828.0,1787.0,1191.0836181640625,4.0,0.0,0.0,0.0,1668050481.363465
309144208.0,1828.0,1787.0,1191.3902587890625,4.0,0.0,0.0,0.0,1668050481.463229
309244183.0,1828.0,1787.0,1192.8089599609375,2.0,0.0,0.0,0.0,1668050481.563204
309344226.0,1828.0,1787.0,1193.773681640625,2.0,0.0,0.0,0.0,1668050481.6632469
309444120.0,1828.0,1787.0,1195.203369140625,2.0,0.0,0.0,0.0,1668050481.763141
309544210.0,1828.0,1787.0,1197.037353515625,2.0,0.0,0.0,0.0,1668050481.863231
309644548.0,1828.0,1787.0,1198.3197021484375,2.0,0.0,0.0,0.0,1668050481.963569
309744419.0,1828.0,1787.0,1198.9283447265625,2.0,0.0,0.0,0.0,1668050482.06344
309844266.0,1828.0,1787.0,1199.5181884765625,2.0,0.0,0.0,0.0,1668050482.163287
309944084.0,1828.0,1787.0,1200.0897216796875,2.0,0.0,0.0,0.0,1668050482.263105
310044380.0,1828.0,1787.0,1200.6436767578125,2.0,0.0,0.0,0.0,1668050482.363401
310144101.0,1828.0,1787.0,1201.180419921875,2.0,0.0,0.0,0.0,1668050482.463122
310244248.0,1828.0,1787.0,1201.8707275390625,2.0,0.0,0.0,0.0,1668050482.563269
310344126.0,1828.0,1787.0,1202.8797607421875,2.0,0.0,0.0,0.0,1668050482.663147
310444255.0,1828.0,1787.0,1204.12060546875,2.0,0.0,0.0,0.0,1668050482.763276
310544160.0,1828.0,1787.0,1205.0291748046875,2.0,0.0,0.0,0.0,1668050482.8631809
310644725.0,1828.0,1787.0,1205.7396240234375,2.0,0.0,0.0,0.0,1668050482.963746
310744265.0,1828.0,1787.0,1207.093017578125,2.0,0.0,0.0,0.0,1668050483.063286
310844074.0,1828.0,1787.0,1208.2034912109375,2.0,0.0,0.0,0.0,1668050483.163095
310944127.0,1828.0,1787.0,1208.5682373046875,2.0,0.0,0.0,0.0,1668050483.263148
311044290.0,1828.0,1787.0,1208.85986328125,2.0,0.0,0.0,0.0,1668050483.363311
311144388.0,1828.0,1787.0,1209.1424560546875,2.0,0.0,0.0,0.0,1668050483.463409
311244114.0,1828.0,1787.0,1209.4163818359375,2.0,0.0,0.0,0.0,1668050483.563135
311344139.0,1828.0,1787.0,1209.6817626953125,2.0,0.0,0.0,0.0,1668050483.66316
311444119.0,1828.0,1787.0,1209.93896484375,2.0,0.0,0.0,0.0,1668050483.76314
311544281.0,1828.0,1787.0,1210.6212158203125,2.0,0.0,0.0,0.0,1668050483.863302
311644510.0,1828.0,1787.0,1211.76171875,2.0,0.0,0.0,0.0,1668050483.963531
311744153.0,1828.0,1787.0,1212.6041259765625,2.0,0.0,0.0,0.0,1668050484.063174
311844372.0,1828.0,1787.0,1213.157470703125,2.0,0.0,0.0,0.0,1668050484.163393
311944149.0,1828.0,1787.0,1214.8536376953125,2.0,0.0,0.0,0.0,1668050484.26317
312044397.0,1828.0,1787.0,1216.7757568359375,2.0,0.0,0.0,0.0,1668050484.363418
312144224.0,1828.0,1787.0,1217.8497314453125,2.0,0.0,0.0,0.0,1668050484.463245
312244302.0,1828.0,1787.0,1219.277099609375,2.0,0.0,0.0,0.0,1668050484.563323
312344116.0,1828.0,1787.0,1221.2943115234375,2.0,0.0,0.0,0.0,1668050484.663137
312444211.0,1828.0,1787.0,1222.73876953125,2.0,0.0,0.0,0.0,1668050484.763232
312544257.0,1828.0,1787.0,1222.9632568359375,2.0,0.0,0.0,0.0,1668050484.863278
312644409.0,1828.0,1787.0,1222.8096923828125,2.0,0.0,0.0,0.0,1668050484.96343
312744137.0,1828.0,1787.0,1222.660888671875,2.0,0.0,0.0,0.0,1668050485.063158
312844149.0,1828.0,1787.0,1222.5166015625,2.0,0.0,0.0,0.0,1668050485.16317
312944181.0,1828.0,1787.0,1222.5623779296875,2.0,0.0,0.0,0.0,1668050485.263202
313044379.0,1828.0,1787.0,1222.4366455078125,2.0,0.0,0.0,0.0,1668050485.3634
313144051.0,1828.0,1787.0,1221.26318359375,2.0,0.0,0.0,0.0,1668050485.463072
313244297.0,1828.0,1787.0,1219.8321533203125,2.0,0.0,0.0,0.0,1668050485.563318
313344296.0,1828.0,1787.0,1218.9556884765625,2.0,0.0,0.0,0.0,1668050485.663317
313444282.0,1828.0,1787.0,1218.4620361328125,2.0,0.0,0.0,0.0,1668050485.763303
313544152.0,1828.0,1787.0,1218.1846923828125,2.0,0.0,0.0,0.0,1668050485.863173
313644356.0,1828.0,1787.0,1217.838623046875,2.0,0.0,0.0,0.0,1668050485.963377
313744143.0,1828.0,1787.0,1217.6114501953125,2.0,0.0,0.0,0.0,1668050486.063164
313844291.0,1828.0,1787.0,1217.40673828125,2.0,0.0,0.0,0.0,1668050486.163312
313944091.0,1828.0,1787.0,1217.1002197265625,2.0,0.0,0.0,0.0,1668050486.263112
314044323.0,1828.0,1787.0,1216.8651123046875,2.0,0.0,0.0,0.0,1668050486.363344
314144204.0,1828.0,1787.0,1216.7918701171875,2.0,0.0,0.0,0.0,1668050486.463225
314244302.0,1828.0,1787.0,1216.68994140625,2.0,0.0,0.0,0.0,1668050486.563323
314344298.0,1828.0,1787.0,1216.591064453125,2.0,0.0,0.0,0.0,1668050486.6633189
314444186.0,1828.0,1787.0,1216.5108642578125,2.0,0.0,0.0,0.0,1668050486.763207
314544240.0,1828.0,1787.0,1216.309326171875,2.0,0.0,0.0,0.0,1668050486.863261
314644182.0,1828.0,1787.0,1216.0986328125,2.0,0.0,0.0,0.0,1668050486.963203
314744181.0,1828.0,1787.0,1216.002685546875,2.0,0.0,0.0,0.0,1668050487.063202
314844123.0,1828.0,1787.0,1216.0953369140625,2.0,0.0,0.0,0.0,1668050487.1631439
314944171.0,1828.0,1787.0,1216.0614013671875,2.0,0.0,0.0,0.0,1668050487.263192
315044233.0,1828.0,1787.0,1215.8892822265625,2.0,0.0,0.0,0.0,1668050487.363254
315144245.0,1828.0,1787.0,1215.84619140625,2.0,0.0,0.0,0.0,1668050487.463266
315244152.0,1828.0,1787.0,1215.8353271484375,2.0,0.0,0.0,0.0,1668050487.563173
315344297.0,1828.0,1787.0,1215.9176025390625,2.0,0.0,0.0,0.0,1668050487.663318
315444298.0,1828.0,1787.0,1215.98193359375,2.0,0.0,0.0,0.0,1668050487.763319
