TimeUS,NI,FIX,FIY,AFI,HAGL,offset,RI,rng,Herr,eAng,eVel,ePos,timestamp
221061371.0,0.0,0.0,0.0,0.0,0.19,0.05,-0.05,0.25,0.15,0.0017064859857782722,0.09582342207431793,0.29037415981292725,1668050393.380392
221161071.0,0.0,0.0,0.0,0.0,0.2,0.05,-0.05,0.25,0.15,0.0022335415706038475,0.09216751903295517,0.28486666083335876,1668050393.480092
221261242.0,0.0,0.0,0.0,0.0,0.2,0.05,-0.01,0.22,0.15,0.0022228111047297716,0.05869531258940697,0.18770736455917358,1668050393.580263
221360975.0,0.0,0.0,0.0,0.0,0.27,0.05,0.03,0.22,0.15,0.002564429072663188,0.05968606099486351,0.19677211344242096,1668050393.679996
221460978.0,0.0,0.0,0.0,0.0,0.31,0.05,0.03,0.25,0.14,0.0024275833275169134,0.043440185487270355,0.14732009172439575,1668050393.779999
221561014.0,0.0,0.0,0.0,0.0,0.35000000000000003,0.05,0.14,0.22,0.14,0.0021643759682774544,0.030665939673781395,0.10626930743455887,1668050393.880035
221660945.0,0.0,0.0,0.0,0.0,0.39,0.05,0.14,0.22,0.14,0.0017641709418967366,0.02070501446723938,0.07336146384477615,1668050393.979966
221761012.0,0.0,0.0,0.0,0.0,0.42,0.03,0.2,0.22,0.14,0.0013719929847866297,0.013080722652375698,0.04797971993684769,1668050394.080033
221860934.0,0.0,0.0,0.0,0.0,0.45,0.03,0.2,0.22,0.14,0.001022581709548831,0.007327517960220575,0.02995147928595543,1668050394.179955
221961391.0,0.0,0.0,0.0,0.0,0.48,0.02,0.26,0.22,0.14,0.0007464755326509476,0.0031047770753502846,0.017298607155680656,1668050394.280412
222060979.0,0.0,0.0,0.0,0.0,0.52,0.02,0.26,0.22,0.14,0.0005457715014927089,0.0016082674264907837,0.01528492383658886,1668050394.3799999
222160989.0,0.0,0.0,0.0,0.0,0.55,0.0,0.32,0.22,0.14,0.0004138911608606577,0.0032348434906452894,0.01862841099500656,1668050394.48001
222260953.0,0.0,0.0,0.0,0.0,0.59,0.0,0.32,0.22,0.14,0.00033777873613871634,0.004626463633030653,0.02122550830245018,1668050394.579974
222361042.0,0.0,0.0,0.0,0.0,0.6,-0.01,0.38,0.22,0.15,0.00030300725484266877,0.005891722161322832,0.03105379268527031,1668050394.680063
222461056.0,0.0,0.0,0.0,0.0,0.61,-0.02,0.41000000000000003,0.22,0.15,0.0002966507454402745,0.006450005806982517,0.03408137336373329,1668050394.780077
222560996.0,0.0,0.0,0.0,0.0,0.65,-0.02,0.41000000000000003,0.22,0.15,0.0003074720734730363,0.006713891867548227,0.03655574843287468,1668050394.880017
222661040.0,0.0,0.0,0.0,0.0,0.66,-0.05,0.46,0.22,0.15,0.0003276528441347182,0.006744714919477701,0.038552865386009216,1668050394.980061
222760978.0,0.0,0.0,0.0,0.0,0.67,-0.07,0.42,0.25,0.14,0.00035169225884601474,0.0065277875401079655,0.03849324211478233,1668050395.079999
222861040.0,0.0,0.0,0.0,0.0,0.67,-0.09,0.45,0.25,0.14,0.000375803851056844,0.006642541382461786,0.045549627393484116,1668050395.180061
222961119.0,0.0,0.0,0.0,0.0,0.68,-0.11,0.49,0.22,0.14,0.000398758304072544,0.006115976255387068,0.042809318751096725,1668050395.28014
223061388.0,0.0,0.0,0.0,0.0,0.6900000000000001,-0.13,0.48,0.22,0.14,0.0004196513909846544,0.005722177214920521,0.042727645486593246,1668050395.380409
223161339.0,0.0,0.0,0.0,0.0,0.72,-0.13,0.48,0.22,0.14,0.00043830485083162785,0.005330220330506563,0.0426097996532917,1668050395.48036
223261168.0,0.0,0.0,0.0,0.0,0.72,-0.15,0.51,0.22,0.14,0.00045487468014471233,0.005094557069242001,0.04426614195108414,1668050395.580189
223361150.0,0.0,0.0,0.0,0.0,0.72,-0.17,0.53,0.22,0.14,0.00046959539758972824,0.0048943511210381985,0.045662980526685715,1668050395.680171
223460975.0,0.0,0.0,0.0,0.0,0.75,-0.17,0.53,0.22,0.14,0.00048270911793224514,0.004803842399269342,0.047584161162376404,1668050395.779996
223561006.0,0.0,0.0,0.0,0.0,0.73,-0.21,0.46,0.29,0.14,0.0004945252439938486,0.004575838800519705,0.04730086773633957,1668050395.880027
223661108.0,0.0,0.0,0.0,0.0,0.73,-0.23,0.43,0.32,0.14,0.0005052180495113134,0.004312040284276009,0.046074412763118744,1668050395.980129
223761073.0,0.0,0.0,0.0,0.0,0.74,-0.25,0.46,0.29,0.14,0.0005148235941305757,0.003891660599038005,0.04278520122170448,1668050396.080094
223861021.0,0.0,0.0,0.0,0.0,0.75,-0.27,0.52,0.25,0.13,0.0005239322199486196,0.003559883451089263,0.040014706552028656,1668050396.180042
223961027.0,0.0,0.0,0.0,0.0,0.75,-0.29,0.54,0.22,0.13,0.0005319106276147068,0.0036707872059196234,0.04127998650074005,1668050396.280048
224061456.0,0.0,0.0,0.0,0.0,0.74,-0.31,0.5700000000000001,0.19,0.13,0.0005388968274928629,0.0037214162293821573,0.041655659675598145,1668050396.380477
224161041.0,0.0,0.0,0.0,0.0,0.74,-0.33,0.55,0.19,0.13,0.0005448189913295209,0.00378806097432971,0.0419878251850605,1668050396.480062
224261012.0,0.0,0.0,0.0,0.0,0.74,-0.35000000000000003,0.56,0.19,0.13,0.0005496214726008475,0.0037379381246864796,0.0410471186041832,1668050396.580033
227273174.0,0.0,0.0,0.0,0.0,1.0,-0.93,0.8200000000000001,0.25,0.15,0.0017290596151724458,0.09692341834306717,0.2880973517894745,1668050399.592195
227372921.0,0.0,0.0,0.0,0.0,0.9500000000000001,-0.97,0.81,0.22,0.15,0.0022706747986376286,0.09614606201648712,0.29700902104377747,1668050399.691942
227473067.0,0.0,0.0,0.0,0.0,0.93,-0.97,0.81,0.22,0.15,0.0025483989156782627,0.07905980199575424,0.2582062780857086,1668050399.792088
227573035.0,0.0,0.0,0.0,0.0,0.85,-1.04,0.63,0.25,0.15,0.0025332639925181866,0.06138071417808533,0.21870189905166626,1668050399.892056
227672987.0,0.0,0.0,0.0,0.0,0.84,-1.04,0.63,0.25,0.15,0.0022811954841017723,0.04567741975188255,0.1812731772661209,1668050399.992008
227773013.0,0.0,0.0,0.0,0.0,0.79,-1.06,0.59,0.25,0.15,0.0019282720750197768,0.03299179673194885,0.15026895701885223,1668050400.092034
227873060.0,0.0,0.0,0.0,0.0,0.75,-1.09,0.52,0.25,0.15,0.0015306000132113695,0.02334352396428585,0.13146932423114777,1668050400.192081
227972947.0,0.0,0.0,0.0,0.0,0.73,-1.09,0.52,0.25,0.15,0.0011656946735456586,0.016179852187633514,0.11602334678173065,1668050400.2919679
228073051.0,0.0,0.0,0.0,0.0,0.6900000000000001,-1.11,0.51,0.25,0.15,0.0008623601170256734,0.011483500711619854,0.10606497526168823,1668050400.392072
228173169.0,0.0,0.0,0.0,0.0,0.68,-1.11,0.51,0.25,0.15,0.0006328319432213902,0.008719642646610737,0.09521642327308655,1668050400.49219
228272889.0,0.0,0.0,0.0,0.0,0.65,-1.1400000000000001,0.45,0.25,0.15,0.0004738426941912621,0.007750263437628746,0.08624909073114395,1668050400.59191
228373045.0,0.0,0.0,0.0,0.0,0.63,-1.1400000000000001,0.45,0.25,0.15,0.0003748445014934987,0.00811713095754385,0.08223346620798111,1668050400.692066
228473120.0,0.0,0.0,0.0,0.0,0.6,-1.16,0.4,0.25,0.15,0.0003225002728868276,0.008653267286717892,0.0785965695977211,1668050400.792141
228573095.0,0.0,0.0,0.0,0.0,0.5700000000000001,-1.17,0.4,0.22,0.15,0.0003033470129594207,0.009073047898709774,0.0755896046757698,1668050400.892116
228673137.0,0.0,0.0,0.0,0.0,0.54,-1.19,0.36,0.22,0.15,0.00030577517463825643,0.009084896184504032,0.06999680399894714,1668050400.992158
228773145.0,0.0,0.0,0.0,0.0,0.52,-1.21,0.31,0.22,0.15,0.0003208692651242018,0.009102392010390759,0.06792694330215454,1668050401.092166
228873000.0,0.0,0.0,0.0,0.0,0.51,-1.21,0.31,0.22,0.15,0.0003422491136007011,0.008864114060997963,0.06474694609642029,1668050401.192021
228972986.0,0.0,0.0,0.0,0.0,0.48,-1.22,0.31,0.22,0.15,0.000365762272849679,0.008581836707890034,0.06315796077251434,1668050401.292007
229073150.0,0.0,0.0,0.0,0.0,0.47000000000000003,-1.22,0.31,0.22,0.15,0.00038884743116796017,0.007795270066708326,0.054647669196128845,1668050401.392171
229172976.0,0.0,0.0,0.0,0.0,0.44,-1.23,0.27,0.22,0.15,0.0004103051032871008,0.007430504076182842,0.05434991046786308,1668050401.491997
229273002.0,0.0,0.0,0.0,0.0,0.44,-1.23,0.27,0.22,0.15,0.00042977245175279677,0.00669937115162611,0.04864148050546646,1668050401.592023
229372958.0,0.0,0.0,0.0,0.0,0.41000000000000003,-1.25,0.17,0.25,0.15,0.00044748239452019334,0.006101666484028101,0.045606132596731186,1668050401.691979
229473021.0,0.0,0.0,0.0,0.0,0.4,-1.25,0.17,0.25,0.15,0.00046338161337189376,0.005469537805765867,0.04204535856842995,1668050401.792042
229573007.0,0.0,0.0,0.0,0.0,0.38,-1.26,0.15,0.25,0.14,0.0004776788700837642,0.004838538356125355,0.03839240223169327,1668050401.892028
229673096.0,0.0,0.0,0.0,0.0,0.37,-1.27,0.15,0.22,0.15,0.0004906837129965425,0.004289432428777218,0.035736147314310074,1668050401.992117
229773006.0,0.0,0.0,0.0,0.0,0.35000000000000003,-1.27,0.15,0.22,0.15,0.0005024962592869997,0.004129576962441206,0.03786192089319229,1668050402.092027
229872893.0,0.0,0.0,0.0,0.0,0.33,-1.28,0.17,0.19,0.15,0.000513300416059792,0.0034869208466261625,0.033116601407527924,1668050402.191914
229973033.0,0.0,0.0,0.0,0.0,0.32,-1.28,0.15,0.17,0.15,0.0005230748211033642,0.0030968710780143738,0.031113794073462486,1668050402.292054
230073054.0,0.0,0.0,0.0,0.0,0.3,-1.29,0.13,0.19,0.14,0.0005318796029314399,0.0028137119952589273,0.02985255792737007,1668050402.392075
233086699.0,0.0,0.0,0.0,0.0,0.4,-1.47,0.22,0.22,0.14,0.0018276555929332972,0.10307718813419342,0.3044457733631134,1668050405.40572
233186566.0,0.0,0.0,0.0,0.0,0.35000000000000003,-1.49,0.16,0.25,0.14,0.002378459321334958,0.1007649153470993,0.30750125646591187,1668050405.505587
233286383.0,0.0,0.0,0.0,0.0,0.31,-1.5,0.04,0.26,0.14,0.0026564544532448053,0.08200148493051529,0.2624649703502655,1668050405.605404
233386749.0,0.0,0.0,0.0,0.0,0.28,-1.5,0.04,0.26,0.14,0.0026295017451047897,0.06302039325237274,0.21493400633335114,1668050405.70577
233486612.0,0.0,0.0,0.0,0.0,0.25,-1.5,0.02,0.26,0.14,0.0023581923451274633,0.04628290981054306,0.17113745212554932,1668050405.805633
233586524.0,0.0,0.0,0.0,0.0,0.23,-1.5,0.02,0.26,0.14,0.0019850682001560926,0.03270911052823067,0.1332576870918274,1668050405.905545
233686528.0,0.0,0.0,0.0,0.0,0.2,-1.5,-0.03,0.26,0.14,0.0015654193703085184,0.02217693068087101,0.10635808855295181,1668050406.005549
233786450.0,0.0,0.0,0.0,0.0,0.17,-1.5,-0.03,0.26,0.14,0.0011825329856947064,0.014169063419103622,0.08559837192296982,1668050406.105471
233886377.0,0.0,0.0,0.0,0.0,0.15,-1.49,-0.06,0.25,0.14,0.0008648856892250478,0.008782449178397655,0.07466726750135422,1668050406.205398
233986413.0,0.0,0.0,0.0,0.0,0.13,-1.49,-0.05,0.22,0.14,0.0006254187901504338,0.0059885019436478615,0.0672219917178154,1668050406.305434
234086441.0,0.0,0.0,0.0,0.0,0.12,-1.47,-0.05,0.22,0.14,0.0004600024549290538,0.005944925360381603,0.06403851509094238,1668050406.405462
234186400.0,0.0,0.0,0.0,0.0,0.12,-1.45,-0.09,0.22,0.14,0.00035731252864934504,0.006810789927840233,0.05920637398958206,1668050406.505421
234286424.0,0.0,0.0,0.0,0.0,0.12,-1.43,-0.09,0.22,0.14,0.0003027570783160627,0.007761342450976372,0.0556943379342556,1668050406.605445
234386894.0,0.0,0.0,0.0,0.0,0.12,-1.4000000000000001,-0.09,0.22,0.14,0.00028234507772140205,0.0084829181432724,0.05376438796520233,1668050406.705915
234486422.0,0.0,0.0,0.0,0.0,0.12,-1.37,-0.09,0.22,0.14,0.00028419471345841885,0.008866720832884312,0.052055492997169495,1668050406.805443
234586641.0,0.0,0.0,0.0,0.0,0.12,-1.36,-0.09,0.22,0.14,0.00029892276506870985,0.008879716508090496,0.04848434776067734,1668050406.905662
234686437.0,0.0,0.0,0.0,0.0,0.12,-1.34,-0.09,0.22,0.14,0.0003200355567969382,0.008694948628544807,0.04556214064359665,1668050407.0054579
234786417.0,0.0,0.0,0.0,0.0,0.12,-1.32,-0.09,0.22,0.14,0.0003434609971009195,0.0083113769069314,0.041789788752794266,1668050407.105438
234886531.0,0.0,0.0,0.0,0.0,0.12,-1.3,-0.09,0.22,0.14,0.00036661833291873336,0.007873300462961197,0.03994235768914223,1668050407.205552
234986394.0,0.0,0.0,0.0,0.0,0.12,-1.28,-0.09,0.22,0.14,0.00038792623672634363,0.0073296306654810905,0.037294309586286545,1668050407.305415
235086550.0,0.0,0.0,0.0,0.0,0.12,-1.26,-0.09,0.22,0.15,0.00040726340375840664,0.006677695550024509,0.0331987701356411,1668050407.405571
235186574.0,0.0,0.0,0.0,0.0,0.12,-1.24,-0.09,0.22,0.15,0.0004245900781825185,0.006036217790096998,0.030221927911043167,1668050407.505595
235286722.0,0.0,0.0,0.0,0.0,0.12,-1.23,-0.09,0.22,0.15,0.0004397708107717335,0.005432870239019394,0.027850467711687088,1668050407.605743
235386795.0,0.0,0.0,0.0,0.0,0.12,-1.21,-0.09,0.22,0.15,0.0004539639921858907,0.004787965212017298,0.024960890412330627,1668050407.705816
235486597.0,0.0,0.0,0.0,0.0,0.12,-1.2,-0.09,0.22,0.15,0.0004669157788157463,0.00419938238337636,0.023219183087348938,1668050407.805618
235586399.0,0.0,0.0,0.0,0.0,0.12,-1.18,-0.09,0.22,0.15,0.000479066715342924,0.003631846746429801,0.021642154082655907,1668050407.90542
235686436.0,0.0,0.0,0.0,0.0,0.12,-1.16,-0.09,0.22,0.15,0.000490835343953222,0.0030920328572392464,0.020170273259282112,1668050408.005457
238398664.0,0.0,0.0,0.0,0.0,0.16,-1.12,-0.02,0.22,0.15,0.0016191316535696387,0.08698000758886337,0.24326317012310028,1668050410.717685
238499044.0,0.0,0.0,0.0,0.0,0.14,-1.12,-0.02,0.22,0.15,0.002184747951105237,0.08945249766111374,0.2565150260925293,1668050410.818065
238598507.0,0.0,0.0,0.0,0.0,0.12,-1.12,-0.07,0.22,0.16,0.0024875907693058252,0.07526572793722153,0.22353918850421906,1668050410.917528
238698676.0,0.0,0.0,0.0,0.0,0.12,-1.09,-0.09,0.22,0.16,0.00250855996273458,0.05925649777054787,0.1842879205942154,1668050411.017697
238798681.0,0.0,0.0,0.0,0.0,0.12,-1.07,-0.09,0.22,0.16,0.00229318137280643,0.044448643922805786,0.14479777216911316,1668050411.117702
238898678.0,0.0,0.0,0.0,0.0,0.12,-1.05,-0.12,0.25,0.15,0.001966030802577734,0.032110508531332016,0.11168673634529114,1668050411.217699
238998663.0,0.0,0.0,0.0,0.0,0.12,-1.02,-0.12,0.25,0.15,0.001581647084094584,0.022153012454509735,0.08334121853113174,1668050411.317684
239098591.0,0.0,0.0,0.0,0.0,0.12,-1.0,-0.12,0.25,0.15,0.0012231860309839249,0.014392085373401642,0.06247631832957268,1668050411.417612
239198622.0,0.0,0.0,0.0,0.0,0.12,-0.98,-0.12,0.25,0.15,0.0009193449513986707,0.008402585051953793,0.04595250263810158,1668050411.517643
239298598.0,0.0,0.0,0.0,0.0,0.12,-0.96,-0.12,0.25,0.15,0.0006853840895928442,0.004002945497632027,0.03225443512201309,1668050411.617619
239398662.0,0.0,0.0,0.0,0.0,0.12,-0.9400000000000001,-0.12,0.25,0.15,0.0005200200248509645,0.002462018048390746,0.02808128297328949,1668050411.717683
239498717.0,0.0,0.0,0.0,0.0,0.12,-0.92,-0.12,0.25,0.15,0.00041386514203622937,0.003738048952072859,0.027566377073526382,1668050411.817738
239598616.0,0.0,0.0,0.0,0.0,0.12,-0.9,-0.12,0.25,0.15,0.0003543645143508911,0.005069421604275703,0.025745779275894165,1668050411.9176369
239698735.0,0.0,0.0,0.0,0.0,0.12,-0.88,-0.12,0.25,0.15,0.0003286510182078928,0.006165442988276482,0.028710275888442993,1668050412.017756
239798517.0,0.0,0.0,0.0,0.0,0.12,-0.87,-0.12,0.25,0.15,0.00032527564326301217,0.006719761062413454,0.02764393761754036,1668050412.117538
239898466.0,0.0,0.0,0.0,0.0,0.12,-0.85,-0.12,0.25,0.15,0.00033556894049979746,0.006975915748625994,0.02759026363492012,1668050412.217487
239998680.0,0.0,0.0,0.0,0.0,0.12,-0.8300000000000001,-0.12,0.25,0.15,0.0003531113616190851,0.007025554776191711,0.028340259566903114,1668050412.317701
240098509.0,0.0,0.0,0.0,0.0,0.12,-0.81,-0.12,0.25,0.15,0.0003734657075256109,0.0068703000433743,0.02853965386748314,1668050412.41753
240198465.0,0.0,0.0,0.0,0.0,0.12,-0.8,-0.12,0.25,0.15,0.00039465160807594657,0.006493438500910997,0.026598231866955757,1668050412.517486
240298468.0,0.0,0.0,0.0,0.0,0.12,-0.79,-0.12,0.25,0.15,0.0004150410240981728,0.006048995070159435,0.02547616884112358,1668050412.617489
240398700.0,0.0,0.0,0.0,0.0,0.12,-0.77,-0.09,0.22,0.15,0.0004337827558629215,0.005555292125791311,0.02438284270465374,1668050412.717721
240498664.0,0.0,0.0,0.0,0.0,0.12,-0.76,-0.09,0.22,0.14,0.0004514016327448189,0.005006102845072746,0.023336119949817657,1668050412.817685
240598822.0,0.0,0.0,0.0,0.0,0.12,-0.74,-0.09,0.22,0.14,0.00046733825001865625,0.00445101922377944,0.022069156169891357,1668050412.917843
240698679.0,0.0,0.0,0.0,0.0,0.12,-0.73,-0.09,0.22,0.14,0.0004821831244044006,0.003882606513798237,0.020716393366456032,1668050413.0177
240798773.0,0.0,0.0,0.0,0.0,0.12,-0.71,-0.09,0.22,0.14,0.0004961859085597098,0.0033250488340854645,0.019409244880080223,1668050413.117794
240898650.0,0.0,0.0,0.0,0.0,0.12,-0.7000000000000001,-0.09,0.22,0.14,0.0005092166247777641,0.002790069906041026,0.018075818195939064,1668050413.217671
240998724.0,0.0,0.0,0.0,0.0,0.12,-0.68,-0.09,0.22,0.14,0.0005219414015300572,0.0022521952632814646,0.016561832278966904,1668050413.317745
241098617.0,0.0,0.0,0.0,0.0,0.12,-0.67,-0.09,0.22,0.14,0.0005341178621165454,0.0017437742790207267,0.015272412449121475,1668050413.417638
241198616.0,0.0,0.0,0.0,0.0,0.12,-0.65,-0.09,0.22,0.14,0.0005454136990010738,0.0012946809874847531,0.014164337888360023,1668050413.517637
241298601.0,0.0,0.0,0.0,0.0,0.12,-0.64,-0.09,0.22,0.14,0.0005557839176617563,0.0010473144939169288,0.014553720131516457,1668050413.617622
241398752.0,0.0,0.0,0.0,0.0,0.12,-0.62,-0.09,0.22,0.14,0.0005651962710544467,0.0008128450717777014,0.013907531276345253,1668050413.717773
241498876.0,0.0,0.0,0.0,0.0,0.12,-0.62,-0.09,0.22,0.14,0.0005733379512093961,0.0009221259388141334,0.014794517308473587,1668050413.817897
241598572.0,0.0,0.0,0.0,0.0,0.12,-0.6,-0.09,0.22,0.14,0.0005802370724268258,0.000613334821537137,0.011578593403100967,1668050413.917593
241698445.0,0.0,0.0,0.0,0.0,0.12,-0.59,-0.09,0.22,0.14,0.0005860257078893483,0.000742498436011374,0.010908043943345547,1668050414.017466
241798469.0,0.0,0.0,0.0,0.0,0.12,-0.58,-0.09,0.22,0.14,0.0005908315652050078,0.0011912669287994504,0.01354365237057209,1668050414.11749
241898459.0,0.0,0.0,0.0,0.0,0.12,-0.5700000000000001,-0.09,0.22,0.14,0.000594684446696192,0.0014307814417406917,0.014673704281449318,1668050414.21748
241998790.0,0.0,0.0,0.0,0.0,0.12,-0.56,-0.09,0.22,0.15,0.0005973962834104896,0.0016361718298867345,0.015811657533049583,1668050414.317811
242098722.0,0.0,0.0,0.0,0.0,0.12,-0.54,-0.09,0.22,0.15,0.0005989994970150292,0.0014783476945012808,0.012226341292262077,1668050414.417743
242198671.0,0.0,0.0,0.0,0.0,0.12,-0.53,-0.09,0.22,0.15,0.0005995924584567547,0.0014794671442359686,0.010790797881782055,1668050414.517692
242298617.0,0.0,0.0,0.0,0.0,0.12,-0.51,-0.12,0.25,0.14,0.0005992127698846161,0.0016693123616278172,0.01309754978865385,1668050414.6176379
242398784.0,0.0,0.0,0.0,0.0,0.12,-0.51,-0.12,0.25,0.14,0.0005979429115541279,0.0017259563319385052,0.013585792854428291,1668050414.717805
242498799.0,0.0,0.0,0.0,0.0,0.12,-0.5,-0.12,0.25,0.14,0.0005959852132946253,0.0017557954415678978,0.013914949260652065,1668050414.81782
242598431.0,0.0,0.0,0.0,0.0,0.12,-0.49,-0.12,0.25,0.14,0.0005937732057645917,0.0018171282717958093,0.01476533617824316,1668050414.917452
242698703.0,0.0,0.0,0.0,0.0,0.12,-0.48,-0.12,0.25,0.14,0.0005910455947741866,0.0018849276239052415,0.016013141721487045,1668050415.017724
242798716.0,0.0,0.0,0.0,0.0,0.12,-0.47000000000000003,-0.12,0.25,0.14,0.0005879006930626929,0.0018631396815180779,0.01600887067615986,1668050415.117737
242898753.0,0.0,0.0,0.0,0.0,0.12,-0.46,-0.09,0.22,0.14,0.0005843369290232658,0.0018773612100630999,0.016652807593345642,1668050415.217774
242998813.0,0.0,0.0,0.0,0.0,0.12,-0.46,-0.09,0.22,0.14,0.000580384919885546,0.0020011330489069223,0.01876884326338768,1668050415.317834
243098686.0,0.0,0.0,0.0,0.0,0.12,-0.44,-0.09,0.22,0.15,0.0005761117208749056,0.0017574382945895195,0.01605159230530262,1668050415.417707
243198594.0,0.0,0.0,0.0,0.0,0.12,-0.43,-0.09,0.22,0.15,0.0005715306615456939,0.0015997295267879963,0.014508469961583614,1668050415.517615
243298740.0,0.0,0.0,0.0,0.0,0.12,-0.43,-0.09,0.22,0.15,0.0005668390076607466,0.001786859706044197,0.01744736358523369,1668050415.617761
243398496.0,0.0,0.0,0.0,0.0,0.12,-0.42,-0.12,0.25,0.14,0.0005623510805889964,0.001666338532231748,0.016354821622371674,1668050415.717517
246510731.0,0.0,0.0,0.0,0.0,0.13,-0.27,-0.09,0.22,0.15,0.0018691422883421183,0.10664242506027222,0.3250810205936432,1668050418.829752
246610615.0,0.0,0.0,0.0,0.0,0.12,-0.27,-0.09,0.22,0.15,0.0024370471946895123,0.1043347418308258,0.3240970969200134,1668050418.929636
246710696.0,0.0,0.0,0.0,0.0,0.12,-0.27,-0.09,0.22,0.16,0.0027263422962278128,0.08513017743825912,0.2715757489204407,1668050419.029717
246810393.0,0.0,0.0,0.0,0.0,0.12,-0.25,-0.09,0.22,0.16,0.0027045656461268663,0.0655340924859047,0.2168819010257721,1668050419.129414
246910544.0,0.0,0.0,0.0,0.0,0.12,-0.25,-0.09,0.22,0.16,0.002428764011710882,0.048187773674726486,0.16444841027259827,1668050419.229565
247010514.0,0.0,0.0,0.0,0.0,0.12,-0.24,-0.09,0.22,0.16,0.0020479930099099874,0.03407330438494682,0.11985360085964203,1668050419.329535
247110442.0,0.0,0.0,0.0,0.0,0.12,-0.23,-0.09,0.22,0.16,0.0016188857844099402,0.02291400358080864,0.08318603783845901,1668050419.429463
247210673.0,0.0,0.0,0.0,0.0,0.12,-0.22,-0.09,0.22,0.16,0.001229611923918128,0.014229406602680683,0.05401642620563507,1668050419.529694
247310540.0,0.0,0.0,0.0,0.0,0.12,-0.22,-0.09,0.22,0.16,0.0009081841562874615,0.00765277910977602,0.031216751784086227,1668050419.629561
247410289.0,0.0,0.0,0.0,0.0,0.12,-0.21,-0.09,0.22,0.16,0.0006669160211458802,0.0026956736110150814,0.01362660899758339,1668050419.72931
247510346.0,0.0,0.0,0.0,0.0,0.12,-0.2,-0.09,0.22,0.16,0.0005016609793528914,0.0009541332256048918,0.00274642463773489,1668050419.829367
247610277.0,0.0,0.0,0.0,0.0,0.12,-0.2,-0.09,0.22,0.16,0.0004007604729849845,0.0034957092721015215,0.010580167174339294,1668050419.929298
247710621.0,0.0,0.0,0.0,0.0,0.12,-0.19,-0.09,0.22,0.16,0.0003489986411295831,0.005212028510868549,0.017116934061050415,1668050420.029642
247810406.0,0.0,0.0,0.0,0.0,0.12,-0.19,-0.09,0.22,0.16,0.00033237881143577397,0.006289885379374027,0.022365082055330276,1668050420.129427
247910530.0,0.0,0.0,0.0,0.0,0.12,-0.18,-0.09,0.22,0.16,0.00033833409543149173,0.006876097060739994,0.02605302259325981,1668050420.229551
248010440.0,0.0,0.0,0.0,0.0,0.12,-0.18,-0.09,0.22,0.16,0.0003571959678083658,0.007079104892909527,0.027852393686771393,1668050420.329461
248110596.0,0.0,0.0,0.0,0.0,0.12,-0.17,-0.09,0.22,0.16,0.00038292192039079964,0.006980812177062035,0.02883506938815117,1668050420.429617
248210728.0,0.0,0.0,0.0,0.0,0.12,-0.17,-0.09,0.22,0.16,0.0004106736450921744,0.006727774161845446,0.030312296003103256,1668050420.529749
248310363.0,0.0,0.0,0.0,0.0,0.12,-0.16,-0.09,0.22,0.16,0.00043792682117782533,0.006293494254350662,0.02998058870434761,1668050420.629384
248410620.0,0.0,0.0,0.0,0.0,0.12,-0.16,-0.09,0.22,0.16,0.00046354145160876215,0.005725325085222721,0.028576668351888657,1668050420.729641
248510415.0,0.0,0.0,0.0,0.0,0.12,-0.15,-0.09,0.22,0.16,0.000486590841319412,0.00514400377869606,0.02752997912466526,1668050420.829436
248610493.0,0.0,0.0,0.0,0.0,0.12,-0.14,-0.09,0.22,0.16,0.0005072599742561579,0.0045493911020457745,0.02652018889784813,1668050420.929514
248710670.0,0.0,0.0,0.0,0.0,0.12,-0.14,-0.09,0.22,0.16,0.0005259006866253912,0.003949509933590889,0.025285348296165466,1668050421.029691
248810397.0,0.0,0.0,0.0,0.0,0.12,-0.14,-0.09,0.22,0.16,0.0005426196730695665,0.003375960048288107,0.024161288514733315,1668050421.129418
248910383.0,0.0,0.0,0.0,0.0,0.12,-0.14,-0.09,0.22,0.16,0.0005582401645369828,0.0027816861402243376,0.022524692118167877,1668050421.229404
249010615.0,0.0,0.0,0.0,0.0,0.12,-0.13,-0.09,0.22,0.16,0.0005728380638174713,0.0021931310184299946,0.02063242718577385,1668050421.329636
249110539.0,0.0,0.0,0.0,0.0,0.12,-0.13,-0.09,0.22,0.16,0.0005860247765667737,0.0018330294406041503,0.020602429285645485,1668050421.42956
249210448.0,0.0,0.0,0.0,0.0,0.12,-0.12,-0.09,0.22,0.16,0.000598121143411845,0.0015172273851931095,0.019984951242804527,1668050421.529469
249310536.0,0.0,0.0,0.0,0.0,0.12,-0.12,-0.09,0.22,0.16,0.0006090949173085392,0.0011725901858881116,0.01828581839799881,1668050421.629557
249410567.0,0.0,0.0,0.0,0.0,0.12,-0.12,-0.09,0.22,0.16,0.0006185976671986282,0.001173002296127379,0.01819796673953533,1668050421.729588
249510350.0,0.0,0.0,0.0,0.0,0.12,-0.11,-0.09,0.22,0.16,0.0006267483695410192,0.00117958034388721,0.017351059243083,1668050421.829371
249610502.0,0.0,0.0,0.0,0.0,0.12,-0.11,-0.09,0.22,0.16,0.0006336855585686862,0.0011038820957764983,0.015253794379532337,1668050421.929523
249710447.0,0.0,0.0,0.0,0.0,0.12,-0.11,-0.09,0.22,0.16,0.0006393752410076559,0.0012008240446448326,0.014075379818677902,1668050422.029468
249810584.0,0.0,0.0,0.0,0.0,0.12,-0.11,-0.09,0.22,0.16,0.000643747509457171,0.001317179179750383,0.013069424778223038,1668050422.129605
252822544.0,0.0,0.0,0.0,0.0,0.12,0.02,-0.09,0.22,0.16,0.0020829401910305023,0.11884574592113495,0.35281434655189514,1668050425.141565
252922378.0,0.0,0.0,0.0,0.0,0.12,0.02,-0.09,0.22,0.16,0.002710427390411496,0.11595301330089569,0.3514235317707062,1668050425.241399
253022377.0,0.0,0.0,0.0,0.0,0.13,0.03,-0.09,0.22,0.17,0.0030285106040537357,0.09438566118478775,0.29415786266326904,1668050425.341398
253122382.0,0.0,0.0,0.0,0.0,0.13,0.03,-0.08,0.22,0.16,0.0029998859390616417,0.07245632261037827,0.2346573770046234,1668050425.441403
253222598.0,0.0,0.0,0.0,0.0,0.13,0.03,-0.08,0.22,0.16,0.002688902197405696,0.05305367708206177,0.17774346470832825,1668050425.541619
253322275.0,0.0,0.0,0.0,0.0,0.14,0.04,-0.08,0.22,0.16,0.0022619247902184725,0.03732253983616829,0.12909269332885742,1668050425.641296
253422384.0,0.0,0.0,0.0,0.0,0.14,0.04,-0.08,0.22,0.16,0.0017820068169385195,0.024900557473301888,0.09057364612817764,1668050425.741405
253522287.0,0.0,0.0,0.0,0.0,0.15,0.04,-0.07,0.22,0.16,0.0013469590339809656,0.01524107251316309,0.059036727994680405,1668050425.8413079
253622358.0,0.0,0.0,0.0,0.0,0.15,0.04,-0.07,0.22,0.16,0.000987717416137457,0.007924225181341171,0.035078831017017365,1668050425.941379
253722639.0,0.0,0.0,0.0,0.0,0.15,0.05,-0.09,0.25,0.16,0.000718003895599395,0.0025937678292393684,0.018678855150938034,1668050426.04166
253822418.0,0.0,0.0,0.0,0.0,0.15,0.05,-0.09,0.25,0.16,0.0005329117411747575,0.0020144758746027946,0.011775603517889977,1668050426.141439
253922387.0,0.0,0.0,0.0,0.0,0.16,0.05,-0.09,0.25,0.16,0.0004193002823740244,0.0047223796136677265,0.017829477787017822,1668050426.2414079
254022497.0,0.0,0.0,0.0,0.0,0.16,0.06,-0.08,0.25,0.16,0.0003603435179684311,0.006622131913900375,0.024017859250307083,1668050426.341518
254122592.0,0.0,0.0,0.0,0.0,0.17,0.06,-0.08,0.25,0.16,0.00034023524494841695,0.007845372892916203,0.029652148485183716,1668050426.441613
254222277.0,0.0,0.0,0.0,0.0,0.17,0.06,-0.08,0.25,0.16,0.0003451643278822303,0.008455784060060978,0.031197672709822655,1668050426.541298
254322385.0,0.0,0.0,0.0,0.0,0.17,0.06,-0.08,0.25,0.16,0.00036449701292440295,0.008713680319488049,0.03370830416679382,1668050426.641406
254422399.0,0.0,0.0,0.0,0.0,0.17,0.07,-0.08,0.25,0.16,0.00039138810825534165,0.008589306846261024,0.03356090933084488,1668050426.74142
254522376.0,0.0,0.0,0.0,0.0,0.17,0.07,-0.05,0.22,0.15,0.00042047922033816576,0.008273922838270664,0.03371674567461014,1668050426.841397
254622379.0,0.0,0.0,0.0,0.0,0.16,0.07,-0.05,0.22,0.15,0.00044887285912409425,0.0078059714287519455,0.03322231024503708,1668050426.9414
254722371.0,0.0,0.0,0.0,0.0,0.16,0.07,-0.05,0.22,0.15,0.0004753958201035857,0.0072327894158661366,0.032674431800842285,1668050427.041392
254822279.0,0.0,0.0,0.0,0.0,0.17,0.07,-0.05,0.22,0.15,0.0004993685288354754,0.006590872537344694,0.031513892114162445,1668050427.1413
254922460.0,0.0,0.0,0.0,0.0,0.17,0.08,-0.04,0.22,0.15,0.0005208600778132677,0.00591480964794755,0.03010174073278904,1668050427.241481
255022543.0,0.0,0.0,0.0,0.0,0.17,0.08,-0.04,0.22,0.15,0.00054039346287027,0.005230413284152746,0.02850925736129284,1668050427.341564
255122376.0,0.0,0.0,0.0,0.0,0.17,0.08,-0.05,0.22,0.15,0.0005580364959314466,0.0045540365390479565,0.026870695874094963,1668050427.441397
255222292.0,0.0,0.0,0.0,0.0,0.17,0.08,-0.05,0.22,0.15,0.0005747094401158392,0.003873260458931327,0.025157243013381958,1668050427.541313
255322380.0,0.0,0.0,0.0,0.0,0.17,0.08,-0.05,0.22,0.15,0.0005903838318772614,0.003212396055459976,0.023302681744098663,1668050427.641401
255422365.0,0.0,0.0,0.0,0.0,0.17,0.08,-0.05,0.22,0.15,0.000604767061304301,0.002619029488414526,0.02182711660861969,1668050427.741386
255522298.0,0.0,0.0,0.0,0.0,0.16,0.08,-0.05,0.22,0.15,0.0006181689677760005,0.002014735247939825,0.019687470048666,1668050427.841319
258434548.0,0.0,0.0,0.0,0.0,0.13,0.17,-0.12,0.25,0.15,0.0021437513642013073,0.11967094987630844,0.34598979353904724,1668050430.753569
258534558.0,0.0,0.0,0.0,0.0,0.14,0.17,-0.1,0.25,0.15,0.002822304144501686,0.11876565217971802,0.3507872223854065,1668050430.853579
258634520.0,0.0,0.0,0.0,0.0,0.15,0.17,-0.1,0.25,0.15,0.0031707731541246176,0.09759929031133652,0.2967117726802826,1668050430.953541
258734727.0,0.0,0.0,0.0,0.0,0.16,0.18,-0.1,0.25,0.15,0.003155540907755494,0.0754484012722969,0.23872216045856476,1668050431.053748
258834518.0,0.0,0.0,0.0,0.0,0.16,0.18,-0.1,0.25,0.15,0.0028415352571755648,0.055563438683748245,0.18174022436141968,1668050431.153539
258934549.0,0.0,0.0,0.0,0.0,0.16,0.18,-0.08,0.25,0.15,0.002400109777227044,0.03924344480037689,0.13286489248275757,1668050431.25357
259034399.0,0.0,0.0,0.0,0.0,0.17,0.18,-0.08,0.25,0.15,0.0018987900111824274,0.026270698755979538,0.09276644885540009,1668050431.35342
259134449.0,0.0,0.0,0.0,0.0,0.17,0.18,-0.07,0.25,0.15,0.0014407015405595303,0.01615629531443119,0.06064191088080406,1668050431.45347
259234607.0,0.0,0.0,0.0,0.0,0.18,0.19,-0.07,0.25,0.16,0.001059511210769415,0.00839001964777708,0.03495723009109497,1668050431.553628
259334421.0,0.0,0.0,0.0,0.0,0.18,0.19,-0.07,0.25,0.16,0.0007707318873144686,0.002810934092849493,0.0203859880566597,1668050431.653442
259434645.0,0.0,0.0,0.0,0.0,0.19,0.19,-0.03,0.22,0.16,0.0005699786706827581,0.0024064439348876476,0.017515579238533974,1668050431.753666
259534467.0,0.0,0.0,0.0,0.0,0.19,0.19,-0.03,0.22,0.16,0.00044430469279177487,0.0050744363106787205,0.017851779237389565,1668050431.853488
259634688.0,0.0,0.0,0.0,0.0,0.19,0.19,-0.03,0.22,0.16,0.00037640490336343646,0.007200413849204779,0.025443583726882935,1668050431.953709
259734439.0,0.0,0.0,0.0,0.0,0.2,0.19,-0.03,0.22,0.16,0.0003498734440654516,0.008579225279390812,0.031277306377887726,1668050432.05346
259834465.0,0.0,0.0,0.0,0.0,0.2,0.19,-0.02,0.22,0.16,0.0003501267055980861,0.009367349557578564,0.03485726937651634,1668050432.153486
259934416.0,0.0,0.0,0.0,0.0,0.21,0.19,-0.02,0.22,0.16,0.0003663891111500561,0.009724751114845276,0.03811221942305565,1668050432.253437
260034438.0,0.0,0.0,0.0,0.0,0.21,0.19,0.0,0.22,0.16,0.0003908359503839165,0.009687880985438824,0.03856020048260689,1668050432.353459
260134524.0,0.0,0.0,0.0,0.0,0.22,0.19,-0.02,0.25,0.16,0.0004176872316747904,0.009448379278182983,0.0389850027859211,1668050432.453545
260234401.0,0.0,0.0,0.0,0.0,0.22,0.19,-0.02,0.25,0.16,0.0004443482612259686,0.008995053358376026,0.03780214115977287,1668050432.553422
260334391.0,0.0,0.0,0.0,0.0,0.22,0.2,-0.03,0.25,0.16,0.00046904722694307566,0.008455835282802582,0.037097085267305374,1668050432.653412
260434557.0,0.0,0.0,0.0,0.0,0.22,0.2,-0.03,0.25,0.16,0.0004912161384709179,0.007805400062352419,0.03476274758577347,1668050432.753578
260534616.0,0.0,0.0,0.0,0.0,0.22,0.2,-0.02,0.25,0.16,0.0005108998739160597,0.007146196439862251,0.03299546614289284,1668050432.853637
260634413.0,0.0,0.0,0.0,0.0,0.23,0.2,-0.02,0.25,0.15,0.0005284170038066804,0.006476950366050005,0.03127611428499222,1668050432.953434
260734533.0,0.0,0.0,0.0,0.0,0.22,0.2,0.0,0.22,0.15,0.0005442527472041547,0.005802796687930822,0.029357900843024254,1668050433.053554
260834415.0,0.0,0.0,0.0,0.0,0.23,0.2,0.0,0.22,0.15,0.0005590722430497408,0.005132488906383514,0.027713799849152565,1668050433.153436
260934407.0,0.0,0.0,0.0,0.0,0.23,0.2,-0.01,0.25,0.15,0.0005728129181079566,0.0044804890640079975,0.02577356807887554,1668050433.253428
261034458.0,0.0,0.0,0.0,0.0,0.23,0.2,-0.01,0.25,0.15,0.0005854819319210947,0.0038729566149413586,0.024078011512756348,1668050433.353479
261134611.0,0.0,0.0,0.0,0.0,0.23,0.2,-0.01,0.25,0.15,0.0005973639199510217,0.003290722379460931,0.02230202592909336,1668050433.4536319
261234427.0,0.0,0.0,0.0,0.0,0.23,0.2,-0.02,0.25,0.15,0.0006081783794797957,0.0027641865890473127,0.020785905420780182,1668050433.553448
261334606.0,0.0,0.0,0.0,0.0,0.23,0.2,-0.02,0.25,0.15,0.0006178279290907085,0.002291617216542363,0.019178414717316628,1668050433.653627
261434593.0,0.0,0.0,0.0,0.0,0.23,0.2,-0.01,0.25,0.15,0.0006264822441153228,0.0018725022673606873,0.01784091629087925,1668050433.753614
261534622.0,0.0,0.0,0.0,0.0,0.23,0.2,-0.01,0.25,0.15,0.0006342761334963143,0.001455211779102683,0.01619626209139824,1668050433.853643
261634403.0,0.0,0.0,0.0,0.0,0.23,0.2,0.01,0.22,0.15,0.0006411038339138031,0.0011158197885379195,0.014867146499454975,1668050433.953424
261734434.0,0.0,0.0,0.0,0.0,0.23,0.2,0.01,0.22,0.15,0.0006468228530138731,0.0008363497327081859,0.013624181970953941,1668050434.0534549
261834535.0,0.0,0.0,0.0,0.0,0.23,0.2,0.01,0.22,0.15,0.0006513496628031135,0.0007016414310783148,0.01283146720379591,1668050434.1535559
261934420.0,0.0,0.0,0.0,0.0,0.23,0.2,0.02,0.22,0.15,0.0006547353114001453,0.0007504675886593759,0.012705917470157146,1668050434.253441
262034533.0,0.0,0.0,0.0,0.0,0.23,0.2,0.02,0.22,0.15,0.0006570802070200443,0.0006796599482186139,0.01147383265197277,1668050434.353554
262134495.0,0.0,0.0,0.0,0.0,0.23,0.2,0.01,0.22,0.15,0.000658230041153729,0.0005678490269929171,0.009767119772732258,1668050434.453516
262234411.0,0.0,0.0,0.0,0.0,0.23,0.2,0.01,0.22,0.15,0.0006586115923710167,0.0006665094406343997,0.009262596257030964,1668050434.553432
262334642.0,0.0,0.0,0.0,0.0,0.23,0.2,0.01,0.22,0.15,0.0006585655501112342,0.0007867779349908233,0.008985680527985096,1668050434.653663
262434558.0,0.0,0.0,0.0,0.0,0.24,0.2,0.01,0.22,0.15,0.0006578927277587354,0.0008594776736572385,0.008579112589359283,1668050434.753579
262534450.0,0.0,0.0,0.0,0.0,0.24,0.2,0.01,0.22,0.15,0.0006567095988430083,0.0009194777230732143,0.008223181590437889,1668050434.853471
262634445.0,0.0,0.0,0.0,0.0,0.24,0.2,0.01,0.22,0.15,0.0006549287354573607,0.0008543854346498847,0.006511883344501257,1668050434.953466
262734448.0,0.0,0.0,0.0,0.0,0.23,0.2,0.01,0.22,0.15,0.000652667076792568,0.0008650502422824502,0.005852770991623402,1668050435.053469
262834575.0,0.0,0.0,0.0,0.0,0.23,0.2,-0.01,0.25,0.15,0.0006500745075754821,0.0009153675637207925,0.006265675649046898,1668050435.153596
262934437.0,0.0,0.0,0.0,0.0,0.23,0.2,-0.01,0.25,0.15,0.0006470208754763007,0.000937289500143379,0.006531559396535158,1668050435.253458
263034519.0,0.0,0.0,0.0,0.0,0.23,0.2,0.0,0.22,0.15,0.0006437175907194614,0.0009052252862602472,0.0060045444406569,1668050435.35354
263134443.0,0.0,0.0,0.0,0.0,0.23,0.2,0.0,0.22,0.15,0.0006406843313015997,0.0008620386943221092,0.004693788941949606,1668050435.453464
263234612.0,0.0,0.0,0.0,0.0,0.23,0.2,0.02,0.19,0.15,0.0006376877427101135,0.000855752790812403,0.004148197825998068,1668050435.553633
263334440.0,0.0,0.0,0.0,0.0,0.23,0.2,0.02,0.19,0.15,0.0006347629823721945,0.0008484582067467272,0.003954559564590454,1668050435.653461
263434648.0,0.0,0.0,0.0,0.0,0.23,0.19,0.03,0.19,0.15,0.0006318839150480926,0.0008267458761110902,0.0036134463734924793,1668050435.753669
263534530.0,0.0,0.0,0.0,0.0,0.23,0.19,0.03,0.19,0.15,0.0006289818556979299,0.0008165808394551277,0.0035157212987542152,1668050435.853551
263634567.0,0.0,0.0,0.0,0.0,0.22,0.19,0.02,0.19,0.15,0.0006261526723392308,0.0007907042745500803,0.0032213453669101,1668050435.953588
263734445.0,0.0,0.0,0.0,0.0,0.22,0.19,0.02,0.19,0.15,0.0006232529412955046,0.0007483973167836666,0.0029041781090199947,1668050436.053466
263834456.0,0.0,0.0,0.0,0.0,0.22,0.19,0.02,0.19,0.15,0.0006203392404131591,0.0007140357629396021,0.0027493354864418507,1668050436.153477
263934430.0,0.0,0.0,0.0,0.0,0.22,0.19,0.02,0.19,0.15,0.0006178588373586535,0.000698479067068547,0.0028120591305196285,1668050436.2534509
264034500.0,0.0,0.0,0.0,0.0,0.22,0.19,0.02,0.19,0.15,0.0006154744769446552,0.0007813107222318649,0.004292639903724194,1668050436.3535209
264134608.0,0.0,0.0,0.0,0.0,0.22,0.19,0.02,0.19,0.15,0.0006131742848083377,0.0008087900932878256,0.005009444896131754,1668050436.453629
264234394.0,0.0,0.0,0.0,0.0,0.22,0.19,0.02,0.19,0.15,0.0006110136746428907,0.0006772283813916147,0.002935292897745967,1668050436.553415
264334399.0,0.0,0.0,0.0,0.0,0.22,0.19,0.02,0.19,0.15,0.0006089585367590189,0.0006271949969232082,0.002075296826660633,1668050436.65342
264434460.0,0.0,0.0,0.0,0.0,0.22,0.19,0.02,0.19,0.15,0.0006070525269024074,0.0006012202356941998,0.0016730630304664373,1668050436.753481
264534461.0,0.0,0.0,0.0,0.0,0.22,0.19,0.02,0.19,0.15,0.0006053093238733709,0.0006048498908057809,0.0019603720866143703,1668050436.853482
264634413.0,0.0,0.0,0.0,0.0,0.22,0.18,0.02,0.19,0.15,0.0006037253187969327,0.0007519694045186043,0.004729017615318298,1668050436.953434
264734448.0,0.0,0.0,0.0,0.0,0.22,0.18,0.02,0.19,0.15,0.0006026721093803644,0.0005952758947387338,0.0015078725991770625,1668050437.053469
264834386.0,0.0,0.0,0.0,0.0,0.21,0.18,0.01,0.19,0.15,0.0006018750718794763,0.0005877824150957167,0.001275205402635038,1668050437.153407
264934416.0,0.0,0.0,0.0,0.0,0.21,0.18,0.01,0.19,0.15,0.0006011789664626122,0.0005993756931275129,0.0008932145428843796,1668050437.253437
265034604.0,0.0,0.0,0.0,0.0,0.21,0.18,0.01,0.19,0.15,0.0006005834438838065,0.0006209769053384662,0.0015678222989663482,1668050437.353625
265134454.0,0.0,0.0,0.0,0.0,0.21,0.18,0.01,0.19,0.15,0.0006001302390359342,0.0006425236351788044,0.001433712081052363,1668050437.453475
265234454.0,0.0,0.0,0.0,0.0,0.21,0.18,0.01,0.19,0.15,0.0005997618427500129,0.0006883221794851124,0.0024755215272307396,1668050437.553475
265334437.0,0.0,0.0,0.0,0.0,0.2,0.18,0.01,0.19,0.15,0.0005994748789817095,0.0007019606418907642,0.0021919887512922287,1668050437.6534579
265434399.0,0.0,0.0,0.0,0.0,0.2,0.18,0.0,0.19,0.15,0.0005992865771986544,0.0007627435843460262,0.003479554085060954,1668050437.7534199
265534656.0,0.0,0.0,0.0,0.0,0.2,0.18,0.0,0.19,0.15,0.0005994472303427756,0.0008120402344502509,0.002435394562780857,1668050437.853677
265634443.0,0.0,0.0,0.0,0.0,0.2,0.18,0.0,0.19,0.15,0.0005998143460601568,0.0008230491075664759,0.0014398921048268676,1668050437.953464
265734630.0,0.0,0.0,0.0,0.0,0.2,0.18,0.0,0.19,0.15,0.0006001084693707526,0.0008511293563060462,0.0011893935734406114,1668050438.053651
265834544.0,0.0,0.0,0.0,0.0,0.2,0.18,0.0,0.19,0.15,0.000600326107814908,0.001007524086162448,0.004631738644093275,1668050438.153565
265934562.0,0.0,0.0,0.0,0.0,0.2,0.18,0.0,0.19,0.15,0.0006004933966323733,0.000990367610938847,0.003596937982365489,1668050438.253583
266034431.0,0.0,0.0,0.0,0.0,0.2,0.18,0.0,0.19,0.15,0.0006005062605254352,0.000970836088526994,0.0022241498809307814,1668050438.353452
266134461.0,0.0,0.0,0.0,0.0,0.2,0.18,0.0,0.19,0.15,0.0006003529415465891,0.0009898152202367783,0.002339086262509227,1668050438.453482
266234586.0,0.0,0.0,0.0,0.0,0.2,0.18,0.0,0.19,0.15,0.0006002016016282141,0.0009865943575277925,0.0013275835663080215,1668050438.553607
266334407.0,0.0,0.0,0.0,0.0,0.2,0.18,0.0,0.19,0.15,0.0006004130700603127,0.0010538049973547459,0.0023600480053573847,1668050438.653428
266434462.0,0.0,0.0,0.0,0.0,0.2,0.18,0.0,0.19,0.15,0.0006007340271025896,0.0010796840069815516,0.001990800490602851,1668050438.753483
266534436.0,0.0,0.0,0.0,0.0,0.2,0.18,0.0,0.19,0.15,0.0006011557416059077,0.0011562845902517438,0.0033312749583274126,1668050438.853457
266634414.0,0.0,0.0,0.0,0.0,0.2,0.18,0.0,0.19,0.15,0.0006016487604938447,0.00121291633695364,0.003869812935590744,1668050438.953435
266734593.0,0.0,0.0,0.0,0.0,0.2,0.18,0.0,0.19,0.15,0.0006021873559802771,0.0012782795820385218,0.0045727454125881195,1668050439.053614
266834653.0,0.0,0.0,0.0,0.0,0.2,0.18,0.0,0.19,0.15,0.0006027389317750931,0.0012836231617257,0.0037061020266264677,1668050439.153674
266934495.0,0.0,0.0,0.0,0.0,0.2,0.18,0.0,0.19,0.15,0.0006032777018845081,0.0013015276053920388,0.003307544393464923,1668050439.253516
267034459.0,0.0,0.0,0.0,0.0,0.2,0.18,0.0,0.19,0.15,0.0006038856809027493,0.0013725919416174293,0.004364637192338705,1668050439.35348
267134444.0,0.0,0.0,0.0,0.0,0.2,0.18,0.0,0.19,0.15,0.0006048671784810722,0.0013593437615782022,0.0023088441230356693,1668050439.453465
267234495.0,0.0,0.0,0.0,0.0,0.2,0.18,0.0,0.19,0.15,0.0006058817962184548,0.0014117402024567127,0.0025449981912970543,1668050439.553516
267334414.0,0.0,0.0,0.0,0.0,0.2,0.18,0.0,0.19,0.15,0.0006068908260203898,0.0015473081730306149,0.005496907513588667,1668050439.653435
267434410.0,0.0,0.0,0.0,0.0,0.2,0.18,0.0,0.19,0.15,0.0006078468286432326,0.0015453222440555692,0.004326462280005217,1668050439.753431
267534570.0,0.0,0.0,0.0,0.0,0.2,0.18,0.0,0.19,0.15,0.0006087922374717891,0.001556257950142026,0.0032704146578907967,1668050439.853591
267634615.0,0.0,0.0,0.0,0.0,0.2,0.18,0.0,0.19,0.15,0.0006095921853557229,0.0015819621039554477,0.0030528304632753134,1668050439.953636
267734636.0,0.0,0.0,0.0,0.0,0.2,0.18,0.0,0.19,0.15,0.0006103008636273444,0.0016696726670488715,0.005043976940214634,1668050440.053657
267834549.0,0.0,0.0,0.0,0.0,0.2,0.18,0.0,0.19,0.15,0.0006112934206612408,0.0017164653399959207,0.005145398899912834,1668050440.15357
267934431.0,0.0,0.0,0.0,0.0,0.2,0.18,0.0,0.19,0.15,0.0006122707854956388,0.0017279518069699407,0.0044291033409535885,1668050440.253452
268034482.0,0.0,0.0,0.0,0.0,0.2,0.18,0.0,0.19,0.15,0.000613286392763257,0.0017481368267908692,0.003925640601664782,1668050440.353503
268134412.0,0.0,0.0,0.0,0.0,0.2,0.18,0.0,0.19,0.15,0.0006142306374385953,0.0017913890769705176,0.004334721248596907,1668050440.453433
268234453.0,0.0,0.0,0.0,0.0,0.2,0.18,0.0,0.19,0.15,0.0006148503161966801,0.0017885416746139526,0.0034836502745747566,1668050440.553474
268334421.0,0.0,0.0,0.0,0.0,0.2,0.18,0.0,0.19,0.15,0.0006154071306809783,0.0018120623426511884,0.003516374621540308,1668050440.653442
268434413.0,0.0,0.0,0.0,0.0,0.2,0.18,0.0,0.19,0.15,0.0006157324532978237,0.001845856662839651,0.004539427813142538,1668050440.753434
268534601.0,0.0,0.0,0.0,0.0,0.2,0.18,0.0,0.19,0.15,0.0006156686577014625,0.0018237187759950757,0.003656216664239764,1668050440.853622
268634482.0,0.0,0.0,0.0,0.0,0.2,0.18,0.0,0.19,0.15,0.0006157087627798319,0.0018348682206124067,0.003836051095277071,1668050440.953503
268734449.0,0.0,0.0,0.0,0.0,0.2,0.18,-0.01,0.22,0.15,0.0006159957847557962,0.0018594159046187997,0.0036730843130499125,1668050441.05347
268834542.0,0.0,0.0,0.0,0.0,0.2,0.18,-0.01,0.22,0.15,0.0006161835044622421,0.0018721036612987518,0.0037371672224253416,1668050441.153563
268934442.0,0.0,0.0,0.0,0.0,0.2,0.18,-0.01,0.22,0.15,0.0006165230297483504,0.0018863240256905556,0.003761909669265151,1668050441.253463
269034529.0,0.0,0.0,0.0,0.0,0.2,0.18,-0.01,0.22,0.15,0.0006166088860481977,0.0019039891194552183,0.003966129384934902,1668050441.35355
269134584.0,0.0,0.0,0.0,0.0,0.2,0.18,-0.01,0.22,0.15,0.0006165390950627625,0.0019605534616857767,0.0057946923188865185,1668050441.453605
269234437.0,0.0,0.0,0.0,0.0,0.2,0.18,-0.01,0.22,0.15,0.0006165249506011605,0.0019428817322477698,0.004931362345814705,1668050441.553458
269334421.0,0.0,0.0,0.0,0.0,0.21,0.18,-0.01,0.22,0.15,0.0006160427001304924,0.0019553375896066427,0.005955555010586977,1668050441.653442
269434419.0,0.0,0.0,0.0,0.0,0.21,0.18,-0.01,0.22,0.15,0.0006155031733214855,0.0018984312191605568,0.004572666250169277,1668050441.75344
269534694.0,0.0,0.0,0.0,0.0,0.21,0.18,-0.01,0.22,0.15,0.0006153418216854334,0.0019010547548532486,0.004321502987295389,1668050441.853715
269634473.0,0.0,0.0,0.0,0.0,0.21,0.18,-0.01,0.22,0.15,0.000615046767052263,0.0019308289047330618,0.005474852863699198,1668050441.953494
269734632.0,0.0,0.0,0.0,0.0,0.21,0.18,0.0,0.22,0.15,0.0006147891981527209,0.002002463908866048,0.007520643062889576,1668050442.053653
269834501.0,0.0,0.0,0.0,0.0,0.21,0.18,0.0,0.22,0.15,0.0006144439685158432,0.0019382764585316181,0.005894944071769714,1668050442.153522
269934599.0,0.0,0.0,0.0,0.0,0.22,0.18,0.0,0.22,0.15,0.0006138673052191734,0.0019990066066384315,0.007820390164852142,1668050442.25362
270034448.0,0.0,0.0,0.0,0.0,0.21,0.18,0.0,0.22,0.15,0.0006131765549071133,0.001890848041512072,0.005261105019599199,1668050442.353469
270134468.0,0.0,0.0,0.0,0.0,0.21,0.18,0.0,0.22,0.15,0.0006122906925156713,0.0018525202758610249,0.0047936770133674145,1668050442.453489
270234421.0,0.0,0.0,0.0,0.0,0.21,0.18,0.0,0.22,0.15,0.0006112380651757121,0.0017997033428400755,0.0037003213074058294,1668050442.553442
270334400.0,0.0,0.0,0.0,0.0,0.21,0.18,0.0,0.22,0.15,0.000610677117947489,0.001798007171601057,0.0038239287678152323,1668050442.653421
270434611.0,0.0,0.0,0.0,0.0,0.21,0.18,0.0,0.22,0.15,0.0006100386963225901,0.0017951763002201915,0.003868274623528123,1668050442.753632
270534454.0,0.0,0.0,0.0,0.0,0.21,0.18,0.0,0.22,0.15,0.0006093261181376874,0.0017810780555009842,0.004036562982946634,1668050442.853475
270634442.0,0.0,0.0,0.0,0.0,0.21,0.18,0.0,0.22,0.15,0.0006087397923693061,0.0017763524083420634,0.003751480020582676,1668050442.953463
270734539.0,0.0,0.0,0.0,0.0,0.21,0.18,0.0,0.22,0.15,0.0006081892061047256,0.0017968660686165094,0.004455463960766792,1668050443.05356
270834397.0,0.0,0.0,0.0,0.0,0.22,0.19,-0.03,0.25,0.15,0.0006076102145016193,0.0017688494408503175,0.0037799004931002855,1668050443.153418
270934399.0,0.0,0.0,0.0,0.0,0.22,0.19,0.0,0.22,0.15,0.0006070266244933009,0.001777123543433845,0.0043485998176038265,1668050443.2534199
271034439.0,0.0,0.0,0.0,0.0,0.21,0.19,0.0,0.22,0.15,0.0006064619519747794,0.0017443191027268767,0.003557383082807064,1668050443.35346
271134440.0,0.0,0.0,0.0,0.0,0.21,0.19,0.0,0.22,0.15,0.0006062403554096818,0.001773374737240374,0.004599926993250847,1668050443.453461
271234405.0,0.0,0.0,0.0,0.0,0.21,0.18,0.01,0.19,0.15,0.0006061291205696762,0.0017655754927545786,0.004083774983882904,1668050443.553426
271334513.0,0.0,0.0,0.0,0.0,0.21,0.18,0.01,0.19,0.14,0.0006059311563149095,0.0018152733100578189,0.005813337862491608,1668050443.653534
271434468.0,0.0,0.0,0.0,0.0,0.21,0.18,0.01,0.19,0.14,0.0006057179998606443,0.0017917371587827802,0.005080776289105415,1668050443.753489
271534625.0,0.0,0.0,0.0,0.0,0.21,0.18,0.0,0.19,0.14,0.0006055822013877332,0.0017751267878338695,0.0036430645268410444,1668050443.853646
271634480.0,0.0,0.0,0.0,0.0,0.21,0.18,0.0,0.19,0.14,0.0006052856333553791,0.0017655183328315616,0.0036145339254289865,1668050443.953501
271734434.0,0.0,0.0,0.0,0.0,0.21,0.18,0.0,0.22,0.14,0.0006050512311048806,0.0017824881942942739,0.004075419623404741,1668050444.0534549
271834601.0,0.0,0.0,0.0,0.0,0.21,0.18,0.0,0.22,0.14,0.0006052688113413751,0.001803794875741005,0.004246408585458994,1668050444.153622
271934437.0,0.0,0.0,0.0,0.0,0.21,0.18,0.0,0.22,0.14,0.0006053918041288853,0.0018131525721400976,0.004268985707312822,1668050444.253458
272034651.0,0.0,0.0,0.0,0.0,0.21,0.18,0.0,0.22,0.14,0.0006057418650016189,0.0018143324414268136,0.003940248396247625,1668050444.353672
272134505.0,0.0,0.0,0.0,0.0,0.21,0.18,0.0,0.22,0.14,0.0006061401218175888,0.0018267277628183365,0.0037796329706907272,1668050444.453526
272234636.0,0.0,0.0,0.0,0.0,0.21,0.18,0.0,0.22,0.14,0.0006063412874937057,0.0018321028910577297,0.0037898526061326265,1668050444.553657
272334526.0,0.0,0.0,0.0,0.0,0.21,0.18,0.0,0.22,0.14,0.0006066738860681653,0.0018494102405384183,0.003813902148976922,1668050444.653547
272434404.0,0.0,0.0,0.0,0.0,0.21,0.19,0.0,0.22,0.14,0.0006069347145967185,0.0018615068402141333,0.0038482986856251955,1668050444.753425
272534602.0,0.0,0.0,0.0,0.0,0.21,0.19,0.0,0.22,0.14,0.0006069759838283062,0.001857966766692698,0.0038612571079283953,1668050444.853623
272634444.0,0.0,0.0,0.0,0.0,0.21,0.19,0.0,0.22,0.14,0.000607319816481322,0.0018752497853711247,0.003945895936340094,1668050444.953465
272734449.0,0.0,0.0,0.0,0.0,0.21,0.19,0.0,0.22,0.15,0.0006081247120164335,0.0019133753376081586,0.004128674045205116,1668050445.05347
272834423.0,0.0,0.0,0.0,0.0,0.21,0.19,0.0,0.22,0.15,0.0006088860100135207,0.00192813400644809,0.003993551712483168,1668050445.153444
272934392.0,0.0,0.0,0.0,0.0,0.21,0.19,-0.01,0.22,0.15,0.0006098260637372732,0.001961609348654747,0.004247680772095919,1668050445.253413
273034561.0,0.0,0.0,0.0,0.0,0.21,0.19,-0.01,0.22,0.15,0.0006106320070102811,0.002013447694480419,0.0053993347100913525,1668050445.353582
273134589.0,0.0,0.0,0.0,0.0,0.21,0.19,0.0,0.22,0.15,0.0006112774717621505,0.002074170159175992,0.0068452246487140656,1668050445.45361
273234400.0,0.0,0.0,0.0,0.0,0.21,0.19,0.0,0.22,0.15,0.0006119133904576302,0.0020461254753172398,0.005609210580587387,1668050445.553421
273334412.0,0.0,0.0,0.0,0.0,0.21,0.19,0.0,0.22,0.15,0.0006122712511569262,0.002059380291029811,0.006060448940843344,1668050445.653433
274134585.0,0.0,0.0,0.0,0.0,0.21,0.19,0.0,0.22,0.15,0.0006188439438119531,0.002165177371352911,0.004964355379343033,1668050446.453606
274234400.0,0.0,0.0,0.0,0.0,0.2,0.19,0.0,0.22,0.15,0.0005071976920589805,0.0030866002198308706,0.007915303111076355,1668050446.553421
274334435.0,0.0,0.0,0.0,0.0,0.2,0.19,0.0,0.22,0.15,0.00039570778608322144,0.006578163243830204,0.015096010640263557,1668050446.653456
274434398.0,0.0,0.0,0.0,0.0,0.2,0.19,-0.01,0.22,0.15,0.0002843365364242345,0.008907182142138481,0.020408807322382927,1668050446.753419
274534448.0,0.0,0.0,0.0,0.0,0.2,0.19,-0.01,0.22,0.15,0.00018684228416532278,0.010413101874291897,0.0238209068775177,1668050446.853469
274634402.0,0.0,0.0,0.0,0.0,0.19,0.19,-0.01,0.22,0.15,0.00011275718861725181,0.011341135948896408,0.02612965553998947,1668050446.953423
274734406.0,0.0,0.0,0.0,0.0,0.19,0.19,-0.02,0.22,0.15,6.337460217764601e-05,0.011857055127620697,0.027673862874507904,1668050447.053427
274834413.0,0.0,0.0,0.0,0.0,0.19,0.19,-0.02,0.22,0.15,3.854897295241244e-05,0.012068487703800201,0.028215575963258743,1668050447.153434
274934584.0,0.0,0.0,0.0,0.0,0.18,0.19,-0.03,0.22,0.15,3.25360924762208e-05,0.012065361253917217,0.028395460918545723,1668050447.253605
275034448.0,0.0,0.0,0.0,0.0,0.18,0.19,-0.03,0.22,0.15,3.2653271773597226e-05,0.011902518570423126,0.02818325348198414,1668050447.353469
275134409.0,0.0,0.0,0.0,0.0,0.18,0.19,-0.03,0.22,0.15,3.2656585972290486e-05,0.011626992374658585,0.027655506506562233,1668050447.45343
275234601.0,0.0,0.0,0.0,0.0,0.18,0.19,-0.03,0.22,0.15,3.241240119677968e-05,0.011273867450654507,0.026854705065488815,1668050447.553622
275334429.0,0.0,0.0,0.0,0.0,0.17,0.2,-0.03,0.22,0.15,3.300418029539287e-05,0.010871105827391148,0.025885488837957382,1668050447.65345
275434441.0,0.0,0.0,0.0,0.0,0.17,0.2,-0.04,0.22,0.15,3.478567668935284e-05,0.010437396354973316,0.02474752813577652,1668050447.753462
275534539.0,0.0,0.0,0.0,0.0,0.17,0.2,-0.04,0.22,0.15,3.721309985849075e-05,0.009992143139243126,0.02365965209901333,1668050447.85356
275634537.0,0.0,0.0,0.0,0.0,0.17,0.2,-0.04,0.22,0.15,3.9756774640409276e-05,0.009545872919261456,0.022559531033039093,1668050447.953558
275734420.0,0.0,0.0,0.0,0.0,0.17,0.2,-0.04,0.22,0.15,4.196508234599605e-05,0.009103376418352127,0.02149883843958378,1668050448.053441
275834582.0,0.0,0.0,0.0,0.0,0.17,0.2,-0.05,0.22,0.15,4.400155376060866e-05,0.008659143932163715,0.020227618515491486,1668050448.153603
275934407.0,0.0,0.0,0.0,0.0,0.16,0.2,-0.05,0.22,0.15,4.5801705709891394e-05,0.00822396483272314,0.0190093033015728,1668050448.253428
276034646.0,0.0,0.0,0.0,0.0,0.16,0.21,-0.05,0.22,0.15,4.739662108477205e-05,0.007801353465765715,0.017928050830960274,1668050448.353667
276134430.0,0.0,0.0,0.0,0.0,0.16,0.21,-0.05,0.22,0.15,4.8928868636721745e-05,0.007385789882391691,0.016761286184191704,1668050448.453451
276234556.0,0.0,0.0,0.0,0.0,0.16,0.21,-0.05,0.22,0.15,5.04386771353893e-05,0.006980279926210642,0.015651056542992592,1668050448.553577
276334570.0,0.0,0.0,0.0,0.0,0.16,0.21,-0.05,0.22,0.15,5.2041959861526266e-05,0.006587762851268053,0.014647694304585457,1668050448.653591
276434584.0,0.0,0.0,0.0,0.0,0.16,0.21,-0.05,0.22,0.15,5.3690011554863304e-05,0.00620276527479291,0.013557417318224907,1668050448.753605
276534454.0,0.0,0.0,0.0,0.0,0.16,0.22,-0.06,0.22,0.16,5.553624941967428e-05,0.005827195011079311,0.012546495534479618,1668050448.853475
276634430.0,0.0,0.0,0.0,0.0,0.15,0.22,-0.06,0.22,0.16,5.7707864471012726e-05,0.0054559726268053055,0.011534410528838634,1668050448.953451
276734739.0,0.0,0.0,0.0,0.0,0.15,0.22,-0.06,0.22,0.16,6.0216909332666546e-05,0.0050902231596410275,0.010529739782214165,1668050449.05376
276834486.0,0.0,0.0,0.0,0.0,0.15,0.22,-0.06,0.22,0.16,6.300573295447975e-05,0.004729304928332567,0.009543390944600105,1668050449.153507
276934493.0,0.0,0.0,0.0,0.0,0.15,0.22,-0.06,0.22,0.16,6.610211858060211e-05,0.004372715018689632,0.00856681726872921,1668050449.253514
277034521.0,0.0,0.0,0.0,0.0,0.15,0.22,-0.06,0.22,0.16,6.945105269551277e-05,0.004018537700176239,0.007583661936223507,1668050449.353542
277134583.0,0.0,0.0,0.0,0.0,0.15,0.23,-0.06,0.22,0.16,7.307279156520963e-05,0.0036640875041484833,0.006532643921673298,1668050449.453604
277234561.0,0.0,0.0,0.0,0.0,0.15,0.23,-0.06,0.22,0.16,7.686905155424029e-05,0.0033160506282001734,0.005663570016622543,1668050449.553582
277334602.0,0.0,0.0,0.0,0.0,0.15,0.23,-0.06,0.22,0.16,8.092744246823713e-05,0.0029677203856408596,0.004576263949275017,1668050449.653623
277434527.0,0.0,0.0,0.0,0.0,0.15,0.23,-0.07,0.22,0.16,8.538322435924783e-05,0.0026206295005977154,0.0038207354955375195,1668050449.753548
277534448.0,0.0,0.0,0.0,0.0,0.15,0.23,-0.07,0.22,0.16,9.025831241160631e-05,0.002276259707286954,0.0035532840993255377,1668050449.853469
277634581.0,0.0,0.0,0.0,0.0,0.15,0.24,-0.07,0.22,0.16,9.545873035676777e-05,0.0019288088660687208,0.003263862105086446,1668050449.953602
277734445.0,0.0,0.0,0.0,0.0,0.15,0.24,-0.07,0.22,0.16,0.00010099481733050197,0.0015764222480356693,0.0029257454443722963,1668050450.053466
277834421.0,0.0,0.0,0.0,0.0,0.15,0.24,-0.07,0.22,0.16,0.0001068417404894717,0.0012401742860674858,0.003773321397602558,1668050450.153442
277934536.0,0.0,0.0,0.0,0.0,0.15,0.24,-0.07,0.22,0.16,0.00011299835023237392,0.0009091818355955184,0.0045354668982326984,1668050450.253557
278034417.0,0.0,0.0,0.0,0.0,0.15,0.24,-0.06,0.22,0.16,0.00011942146375076845,0.0006070868112146854,0.005363405216485262,1668050450.353438
278134635.0,0.0,0.0,0.0,0.0,0.15,0.25,-0.06,0.22,0.16,0.00012610947305802256,0.0002953995135612786,0.0054125175811350346,1668050450.453656
278234429.0,0.0,0.0,0.0,0.0,0.15,0.25,-0.06,0.22,0.16,0.00013323237362783402,0.00048692733980715275,0.007292347960174084,1668050450.5534499
278334437.0,0.0,0.0,0.0,0.0,0.15,0.25,-0.06,0.22,0.16,0.00014083620044402778,0.0007489404524676502,0.008202015422284603,1668050450.6534579
278434523.0,0.0,0.0,0.0,0.0,0.15,0.25,-0.06,0.22,0.16,0.00014882755931466818,0.0010785136837512255,0.00909851212054491,1668050450.753544
278534610.0,0.0,0.0,0.0,0.0,0.15,0.26,-0.06,0.22,0.16,0.00015719345537945628,0.0014661679742857814,0.010556467808783054,1668050450.853631
278634413.0,0.0,0.0,0.0,0.0,0.15,0.26,-0.06,0.22,0.16,0.00016588486323598772,0.0018695966573432088,0.012192750349640846,1668050450.953434
278734546.0,0.0,0.0,0.0,0.0,0.15,0.26,-0.06,0.22,0.16,0.00017490869504399598,0.0022666037548333406,0.013644462451338768,1668050451.053567
278834429.0,0.0,0.0,0.0,0.0,0.15,0.26,-0.06,0.22,0.16,0.00018410914344713092,0.0026684049516916275,0.015157227404415607,1668050451.15345
278934426.0,0.0,0.0,0.0,0.0,0.15,0.26,-0.06,0.22,0.16,0.0001936159678734839,0.0030710354913026094,0.016622235998511314,1668050451.253447
279034450.0,0.0,0.0,0.0,0.0,0.15,0.27,-0.09,0.25,0.16,0.00020358200708869845,0.0034877012949436903,0.018205594271421432,1668050451.353471
279134425.0,0.0,0.0,0.0,0.0,0.15,0.27,-0.09,0.25,0.16,0.00021397692034952343,0.003909758757799864,0.01985265500843525,1668050451.453446
279234431.0,0.0,0.0,0.0,0.0,0.16,0.27,-0.09,0.25,0.16,0.0002246800868306309,0.004343668930232525,0.021719250828027725,1668050451.553452
279334417.0,0.0,0.0,0.0,0.0,0.15,0.27,-0.09,0.25,0.16,0.0002356875193072483,0.004780325572937727,0.023534046486020088,1668050451.653438
279434791.0,0.0,0.0,0.0,0.0,0.16,0.28,-0.09,0.25,0.16,0.00024692443548701704,0.005226316396147013,0.025570496916770935,1668050451.753812
279534571.0,0.0,0.0,0.0,0.0,0.16,0.28,-0.09,0.25,0.16,0.00025838048895820975,0.005671168677508831,0.027451803907752037,1668050451.853592
279634646.0,0.0,0.0,0.0,0.0,0.16,0.28,-0.09,0.25,0.16,0.00027002571732737124,0.00611893692985177,0.029645247384905815,1668050451.953667
279734531.0,0.0,0.0,0.0,0.0,0.16,0.28,-0.09,0.25,0.16,0.00028168430435471237,0.006561954505741596,0.031736016273498535,1668050452.053552
279834439.0,0.0,0.0,0.0,0.0,0.17,0.29,-0.1,0.26,0.16,0.0002937088720500469,0.007007512729614973,0.033710796386003494,1668050452.15346
279934425.0,0.0,0.0,0.0,0.0,0.17,0.3,-0.09,0.26,0.16,0.00030610887915827334,0.007470076438039541,0.036033060401678085,1668050452.253446
280034455.0,0.0,0.0,0.0,0.0,0.17,0.3,-0.09,0.26,0.16,0.0003185125533491373,0.007899368181824684,0.03802936524152756,1668050452.353476
280134487.0,0.0,0.0,0.0,0.0,0.18,0.3,-0.09,0.26,0.16,0.0003311363107059151,0.008345019072294235,0.04027789831161499,1668050452.453508
280234507.0,0.0,0.0,0.0,0.0,0.18,0.3,-0.09,0.26,0.16,0.0003436570696067065,0.008796208538115025,0.042496804147958755,1668050452.553528
280334574.0,0.0,0.0,0.0,0.0,0.18,0.31,-0.09,0.26,0.16,0.00035633656079880893,0.009234164841473103,0.04481419548392296,1668050452.653595
280434507.0,0.0,0.0,0.0,0.0,0.18,0.31,-0.09,0.26,0.16,0.0003688487922772765,0.009657086804509163,0.047035086899995804,1668050452.7535279
280534424.0,0.0,0.0,0.0,0.0,0.19,0.32,-0.11,0.29,0.15,0.0003813139337580651,0.01007053628563881,0.049267835915088654,1668050452.853445
280634409.0,0.0,0.0,0.0,0.0,0.19,0.32,-0.11,0.29,0.15,0.0003936893190257251,0.01047685369849205,0.0513627827167511,1668050452.95343
280734435.0,0.0,0.0,0.0,0.0,0.19,0.32,-0.1,0.29,0.15,0.00040613446617498994,0.010885188356041908,0.05360373854637146,1668050453.053456
280834416.0,0.0,0.0,0.0,0.0,0.19,0.33,-0.07,0.26,0.15,0.0004185712896287441,0.01128134224563837,0.05587795376777649,1668050453.153437
280934415.0,0.0,0.0,0.0,0.0,0.19,0.33,-0.07,0.26,0.15,0.0004308763600420207,0.011665231548249722,0.05817940831184387,1668050453.253436
281034436.0,0.0,0.0,0.0,0.0,0.2,0.34,-0.07,0.26,0.15,0.00044292310485616326,0.012026023119688034,0.06029919534921646,1668050453.353457
281134537.0,0.0,0.0,0.0,0.0,0.2,0.34,-0.07,0.26,0.15,0.00045459222747012973,0.012370853684842587,0.0623631551861763,1668050453.453558
281234594.0,0.0,0.0,0.0,0.0,0.2,0.34,-0.06,0.26,0.15,0.0004659965052269399,0.012696626596152782,0.06442450731992722,1668050453.553615
281334427.0,0.0,0.0,0.0,0.0,0.2,0.34,-0.06,0.26,0.15,0.00047691757208667696,0.01299326028674841,0.06635011732578278,1668050453.653448
281434428.0,0.0,0.0,0.0,0.0,0.2,0.34,-0.04,0.25,0.15,0.00048780516954138875,0.013291929848492146,0.06831150501966476,1668050453.753449
281534629.0,0.0,0.0,0.0,0.0,0.2,0.34,-0.04,0.25,0.15,0.0004984079278074205,0.013560253195464611,0.0702369213104248,1668050453.85365
281634450.0,0.0,0.0,0.0,0.0,0.2,0.34,-0.04,0.25,0.15,0.0005087142344564199,0.013810583390295506,0.07205714285373688,1668050453.953471
281734411.0,0.0,0.0,0.0,0.0,0.21,0.35000000000000003,-0.06,0.26,0.15,0.0005186339840292931,0.014041008427739143,0.07378541678190231,1668050454.053432
281834505.0,0.0,0.0,0.0,0.0,0.2,0.35000000000000003,-0.06,0.26,0.15,0.000528081669472158,0.014246302656829357,0.07536600530147552,1668050454.153526
281934430.0,0.0,0.0,0.0,0.0,0.21,0.35000000000000003,-0.06,0.26,0.15,0.0005370500148274004,0.01442576665431261,0.07693258672952652,1668050454.2534509
282034516.0,0.0,0.0,0.0,0.0,0.2,0.35000000000000003,-0.06,0.26,0.15,0.0005454125348478556,0.014565669000148773,0.07825253903865814,1668050454.353537
282134675.0,0.0,0.0,0.0,0.0,0.21,0.35000000000000003,-0.06,0.26,0.15,0.000553285179194063,0.014677567407488823,0.07951526343822479,1668050454.453696
282234415.0,0.0,0.0,0.0,0.0,0.21,0.35000000000000003,-0.06,0.26,0.15,0.0005608511273749173,0.014796048402786255,0.08077315986156464,1668050454.553436
282334901.0,0.0,0.0,0.0,0.0,0.21,0.36,-0.08,0.29,0.15,0.0005680352333001792,0.014869660139083862,0.0818815603852272,1668050454.653922
282434423.0,0.0,0.0,0.0,0.0,0.21,0.36,-0.08,0.29,0.15,0.000574751291424036,0.01493914145976305,0.0828336551785469,1668050454.753444
282534432.0,0.0,0.0,0.0,0.0,0.21,0.37,-0.08,0.29,0.15,0.0005809261929243803,0.014975721016526222,0.0836418941617012,1668050454.853453
282634442.0,0.0,0.0,0.0,0.0,0.22,0.37,-0.02,0.25,0.15,0.0005865867715328932,0.014976641163229942,0.08437861502170563,1668050454.953463
282734552.0,0.0,0.0,0.0,0.0,0.22,0.37,0.0,0.22,0.14,0.0005917439702898264,0.014963197521865368,0.08497944474220276,1668050455.053573
