TimeUS,Name,Value,timestamp
220913603,FORMAT_VERSION,120.0,1668050393.232624
220913619,SYSID_THISMAV,1.0,1668050393.23264
220913632,SYSID_MYGCS,255.0,1668050393.232653
220913645,PILOT_THR_FILT,0.0,1668050393.232666
220913658,PILOT_TKOFF_ALT,0.0,1668050393.232679
220913679,PILOT_THR_BHV,1.0,1668050393.2326999
220913694,SERIAL0_BAUD,115.0,1668050393.232715
220913710,SERIAL0_PROTOCOL,2.0,1668050393.232731
220913785,SERIAL1_PROTOCOL,1.0,1668050393.232806
220913801,SERIAL1_BAUD,57.0,1668050393.232822
220913818,SERIAL2_PROTOCOL,9.0,1668050393.2328389
220913833,SERIAL2_BAUD,115.0,1668050393.232854
220913850,SERIAL3_PROTOCOL,5.0,1668050393.232871
220913885,SERIAL3_BAUD,38.0,1668050393.232906
220913987,SERIAL4_PROTOCOL,9.0,1668050393.233008
220914030,SERIAL4_BAUD,115.0,1668050393.233051
220914049,SERIAL5_PROTOCOL,-1.0,1668050393.23307
220914066,SERIAL5_BAUD,57.0,1668050393.233087
220914088,SERIAL6_PROTOCOL,-1.0,1668050393.233109
220914105,SERIAL6_BAUD,57.0,1668050393.233126
220914167,SERIAL1_OPTIONS,0.0,1668050393.233188
220914241,SERIAL2_OPTIONS,0.0,1668050393.233262
220914259,SERIAL3_OPTIONS,0.0,1668050393.23328
220914277,SERIAL4_OPTIONS,0.0,1668050393.233298
220914295,SERIAL5_OPTIONS,0.0,1668050393.233316
220914392,SERIAL6_OPTIONS,0.0,1668050393.233413
220914415,SERIAL_PASS1,0.0,1668050393.2334359
220914436,SERIAL_PASS2,-1.0,1668050393.233457
220914457,SERIAL_PASSTIMO,15.0,1668050393.233478
220914478,SERIAL7_PROTOCOL,2.0,1668050393.233499
220914497,SERIAL7_BAUD,115200.0,1668050393.233518
220914516,SERIAL7_OPTIONS,0.0,1668050393.233537
220914533,TELEM_DELAY,0.0,1668050393.233554
220914588,GCS_PID_MASK,0.0,1668050393.233609
220914601,RTL_ALT,1000.0,1668050393.233622
220914614,RTL_CONE_SLOPE,3.0,1668050393.233635
220914627,RTL_SPEED,0.0,1668050393.233648
220914640,RTL_ALT_FINAL,0.0,1668050393.233661
220914653,RTL_CLIMB_MIN,0.0,1668050393.233674
220914666,RTL_LOIT_TIME,5000.0,1668050393.233687
220914687,RNGFND_GAIN,0.009999999776482582,1668050393.233708
220914700,FS_GCS_ENABLE,0.0,1668050393.233721
220914713,GPS_HDOP_GOOD,120.0,1668050393.233734
220914804,SUPER_SIMPLE,0.0,1668050393.233825
220914818,WP_YAW_BEHAVIOR,2.0,1668050393.233839
220914831,LAND_SPEED,50.0,1668050393.233852
220914844,LAND_SPEED_HIGH,0.0,1668050393.233865
220914857,PILOT_SPEED_UP,250.0,1668050393.233878
220914870,PILOT_ACCEL_Z,250.0,1668050393.233891
220914883,FS_THR_ENABLE,1.0,1668050393.233904
220914930,FS_THR_VALUE,975.0,1668050393.233951
220915006,THR_DZ,70.0,1668050393.234027
220915045,FLTMODE1,5.0,1668050393.234066
220915058,FLTMODE2,5.0,1668050393.234079
220915072,FLTMODE3,4.0,1668050393.234093
220915085,FLTMODE4,2.0,1668050393.234106
220915099,FLTMODE5,5.0,1668050393.23412
220915112,FLTMODE6,5.0,1668050393.234133
220915125,FLTMODE_CH,5.0,1668050393.2341459
220915180,SIMPLE,0.0,1668050393.234201
220915266,LOG_BITMASK,176126.0,1668050393.234287
220915280,ESC_CALIBRATION,0.0,1668050393.234301
220915294,TUNE,0.0,1668050393.234315
220915307,FRAME_TYPE,0.0,1668050393.234328
220915323,ARMING_ACCTHRESH,0.75,1668050393.234344
220915339,ARMING_RUDDER,2.0,1668050393.23436
220915354,ARMING_MIS_ITEMS,0.0,1668050393.234375
220915450,ARMING_CHECK,13790.0,1668050393.234471
220915466,DISARM_DELAY,10.0,1668050393.234487
220915480,ANGLE_MAX,1500.0,1668050393.234501
220915493,PHLD_BRAKE_RATE,5.0,1668050393.234514
220915505,PHLD_BRAKE_ANGLE,1200.0,1668050393.234526
220915518,LAND_REPOSITION,1.0,1668050393.234539
220915532,FS_EKF_ACTION,1.0,1668050393.234553
220915544,FS_EKF_THRESH,0.800000011920929,1668050393.234565
220915600,FS_CRASH_CHECK,1.0,1668050393.234621
220915613,RC_SPEED,490.0,1668050393.234634
220915626,ACRO_RP_P,1.100000023841858,1668050393.234647
220915639,ACRO_YAW_P,0.800000011920929,1668050393.23466
220915651,ACRO_BAL_ROLL,1.0,1668050393.234672
220915664,ACRO_BAL_PITCH,1.0,1668050393.234685
220915677,ACRO_TRAINER,2.0,1668050393.234698
220915698,ACRO_RP_EXPO,0.30000001192092896,1668050393.234719
220915714,CAM_TRIGG_TYPE,0.0,1668050393.234735
220915788,CAM_DURATION,10.0,1668050393.234809
220915804,CAM_SERVO_ON,1300.0,1668050393.234825
220915819,CAM_SERVO_OFF,1100.0,1668050393.23484
220915835,CAM_TRIGG_DIST,0.0,1668050393.234856
220915852,CAM_RELAY_ON,1.0,1668050393.234873
220915867,CAM_MIN_INTERVAL,0.0,1668050393.234888
220915996,CAM_MAX_ROLL,0.0,1668050393.235017
220916016,CAM_FEEDBACK_PIN,-1.0,1668050393.235037
220916034,CAM_FEEDBACK_POL,1.0,1668050393.235055
220916056,CAM_AUTO_ONLY,0.0,1668050393.235077
220916075,CAM_TYPE,0.0,1668050393.235096
220916092,RELAY_PIN,-1.0,1668050393.235113
220916150,RELAY_PIN2,-1.0,1668050393.235171
220916207,RELAY_PIN3,-1.0,1668050393.235228
220916224,RELAY_PIN4,-1.0,1668050393.235245
220916240,RELAY_DEFAULT,0.0,1668050393.235261
220916274,RELAY_PIN5,-1.0,1668050393.235295
220916292,RELAY_PIN6,-1.0,1668050393.235313
220916430,CHUTE_ENABLED,0.0,1668050393.235451
220916450,LGR_STARTUP,0.0,1668050393.235471
220916465,LGR_DEPLOY_PIN,-1.0,1668050393.235486
220916484,LGR_DEPLOY_POL,0.0,1668050393.235505
220916501,LGR_WOW_PIN,-1.0,1668050393.235522
220916517,LGR_WOW_POL,0.0,1668050393.235538
220916533,LGR_DEPLOY_ALT,0.0,1668050393.235554
220916592,LGR_RETRACT_ALT,0.0,1668050393.2356129
220916609,LGR_OPTIONS,3.0,1668050393.23563
220916627,COMPASS_OFS_X,0.0,1668050393.235648
220916642,COMPASS_OFS_Y,0.0,1668050393.235663
220916657,COMPASS_OFS_Z,0.0,1668050393.235678
220916673,COMPASS_DEC,-0.010822135023772717,1668050393.235694
220916696,COMPASS_LEARN,3.0,1668050393.235717
220916770,COMPASS_USE,1.0,1668050393.235791
220916789,COMPASS_AUTODEC,1.0,1668050393.23581
220916806,COMPASS_MOTCT,0.0,1668050393.235827
220916824,COMPASS_MOT_X,0.0,1668050393.235845
220916841,COMPASS_MOT_Y,0.0,1668050393.235862
220916857,COMPASS_MOT_Z,0.0,1668050393.235878
220916912,COMPASS_ORIENT,0.0,1668050393.235933
220917017,COMPASS_EXTERNAL,1.0,1668050393.236038
220917037,COMPASS_OFS2_X,0.0,1668050393.236058
220917054,COMPASS_OFS2_Y,0.0,1668050393.236075
220917071,COMPASS_OFS2_Z,0.0,1668050393.236092
220917090,COMPASS_MOT2_X,0.0,1668050393.236111
220917147,COMPASS_MOT2_Y,0.0,1668050393.236168
220917205,COMPASS_MOT2_Z,0.0,1668050393.236226
220917227,COMPASS_OFS3_X,0.0,1668050393.236248
220917245,COMPASS_OFS3_Y,0.0,1668050393.236266
220917262,COMPASS_OFS3_Z,0.0,1668050393.236283
220917398,COMPASS_MOT3_X,0.0,1668050393.236419
220917418,COMPASS_MOT3_Y,0.0,1668050393.236439
220917436,COMPASS_MOT3_Z,0.0,1668050393.2364569
220917453,COMPASS_DEV_ID,658953.0,1668050393.236474
220917470,COMPASS_DEV_ID2,658945.0,1668050393.236491
220917488,COMPASS_DEV_ID3,0.0,1668050393.236509
220917508,COMPASS_USE2,0.0,1668050393.2365289
220917529,COMPASS_ORIENT2,0.0,1668050393.23655
220917592,COMPASS_EXTERN2,0.0,1668050393.236613
220917614,COMPASS_USE3,0.0,1668050393.236635
220917635,COMPASS_ORIENT3,0.0,1668050393.236656
220917656,COMPASS_EXTERN3,0.0,1668050393.236677
220917679,COMPASS_DIA_X,1.0,1668050393.2367
220917706,COMPASS_DIA_Y,1.0,1668050393.236727
220917781,COMPASS_DIA_Z,1.0,1668050393.236802
220917805,COMPASS_ODI_X,0.0,1668050393.236826
220917825,COMPASS_ODI_Y,0.0,1668050393.236846
220917845,COMPASS_ODI_Z,0.0,1668050393.236866
220917905,COMPASS_DIA2_X,1.0,1668050393.236926
220917989,COMPASS_DIA2_Y,1.0,1668050393.23701
220918049,COMPASS_DIA2_Z,1.0,1668050393.23707
220918083,COMPASS_ODI2_X,0.0,1668050393.237104
220918103,COMPASS_ODI2_Y,0.0,1668050393.237124
220918123,COMPASS_ODI2_Z,0.0,1668050393.237144
220918227,COMPASS_DIA3_X,0.0,1668050393.237248
220918249,COMPASS_DIA3_Y,0.0,1668050393.2372699
220918270,COMPASS_DIA3_Z,0.0,1668050393.237291
220918294,COMPASS_ODI3_X,0.0,1668050393.237315
220918380,COMPASS_ODI3_Y,0.0,1668050393.237401
220918402,COMPASS_ODI3_Z,0.0,1668050393.237423
220918422,COMPASS_CAL_FIT,16.0,1668050393.237443
220918442,COMPASS_OFFS_MAX,1800.0,1668050393.237463
220918642,COMPASS_PMOT_EN,0.0,1668050393.237663
220918670,COMPASS_TYPEMASK,0.0,1668050393.237691
220918697,COMPASS_FLTR_RNG,0.0,1668050393.237718
220918733,COMPASS_AUTO_ROT,2.0,1668050393.2377539
220918813,COMPASS_PRIO1_ID,658953.0,1668050393.237834
220918837,COMPASS_PRIO2_ID,658945.0,1668050393.237858
220918861,COMPASS_PRIO3_ID,0.0,1668050393.237882
220918927,COMPASS_ENABLE,1.0,1668050393.237948
220919049,COMPASS_SCALE,0.0,1668050393.23807
220919076,COMPASS_SCALE2,0.0,1668050393.238097
220919101,COMPASS_SCALE3,0.0,1668050393.238122
220919126,COMPASS_OPTIONS,0.0,1668050393.238147
220919193,COMPASS_DEV_ID4,0.0,1668050393.238214
220919258,COMPASS_DEV_ID5,0.0,1668050393.238279
220919285,COMPASS_DEV_ID6,0.0,1668050393.238306
220919310,COMPASS_DEV_ID7,0.0,1668050393.238331
220919405,COMPASS_DEV_ID8,0.0,1668050393.238426
220919428,INS_GYROFFS_X,0.01841055601835251,1668050393.238449
220919443,INS_GYROFFS_Y,-0.019330233335494995,1668050393.2384639
220919459,INS_GYROFFS_Z,0.0004658893449231982,1668050393.23848
220919475,INS_GYR2OFFS_X,-0.014415856450796127,1668050393.238496
220919490,INS_GYR2OFFS_Y,0.017211930826306343,1668050393.238511
220919506,INS_GYR2OFFS_Z,0.004104604944586754,1668050393.238527
220919522,INS_GYR3OFFS_X,0.00021704744722228497,1668050393.238543
220919538,INS_GYR3OFFS_Y,0.0019298719707876444,1668050393.238559
220919597,INS_GYR3OFFS_Z,0.0008543756557628512,1668050393.238618
220919614,INS_ACCSCAL_X,0.9986827373504639,1668050393.238635
220919630,INS_ACCSCAL_Y,1.0000630617141724,1668050393.238651
220919646,INS_ACCSCAL_Z,0.995365560054779,1668050393.238667
220919663,INS_ACCOFFS_X,0.03488382324576378,1668050393.238684
220919679,INS_ACCOFFS_Y,0.08739486336708069,1668050393.2387
220919695,INS_ACCOFFS_Z,-0.16211287677288055,1668050393.238716
220919775,INS_ACC2SCAL_X,0.9233010411262512,1668050393.238796
220919793,INS_ACC2SCAL_Y,1.0008931159973145,1668050393.2388139
220919809,INS_ACC2SCAL_Z,1.0036075115203857,1668050393.23883
220919827,INS_ACC2OFFS_X,0.15591420233249664,1668050393.238848
220919844,INS_ACC2OFFS_Y,-0.10617466270923615,1668050393.238865
220919860,INS_ACC2OFFS_Z,0.1399073451757431,1668050393.2388809
220919971,INS_ACC3SCAL_X,0.9943974018096924,1668050393.238992
220920029,INS_ACC3SCAL_Y,0.985271692276001,1668050393.23905
220920049,INS_ACC3SCAL_Z,0.9846437573432922,1668050393.23907
220920067,INS_ACC3OFFS_X,0.47710278630256653,1668050393.239088
220920084,INS_ACC3OFFS_Y,0.048661284148693085,1668050393.239105
220920101,INS_ACC3OFFS_Z,0.30724620819091797,1668050393.239122
220920162,INS_GYRO_FILTER,8.0,1668050393.239183
220920221,INS_ACCEL_FILTER,20.0,1668050393.239242
220920241,INS_USE,1.0,1668050393.239262
220920261,INS_USE2,1.0,1668050393.239282
220920280,INS_USE3,1.0,1668050393.239301
220920300,INS_STILL_THRESH,2.5,1668050393.239321
220920417,INS_GYR_CAL,1.0,1668050393.239438
220920438,INS_TRIM_OPTION,1.0,1668050393.239459
220920459,INS_ACC_BODYFIX,2.0,1668050393.23948
220920484,INS_POS1_X,0.0,1668050393.239505
220920502,INS_POS1_Y,0.0,1668050393.239523
220920520,INS_POS1_Z,0.0,1668050393.239541
220920586,INS_POS2_X,0.0,1668050393.239607
220920606,INS_POS2_Y,0.0,1668050393.239627
220920625,INS_POS2_Z,0.0,1668050393.239646
220920653,INS_POS3_X,0.0,1668050393.239674
220920672,INS_POS3_Y,0.0,1668050393.239693
220920691,INS_POS3_Z,0.0,1668050393.239712
220920710,INS_GYR_ID,2621706.0,1668050393.239731
220920795,INS_GYR2_ID,3080714.0,1668050393.239816
220920818,INS_GYR3_ID,2687754.0,1668050393.239839
220920838,INS_ACC_ID,2621706.0,1668050393.239859
220920857,INS_ACC2_ID,3080714.0,1668050393.239878
220920914,INS_ACC3_ID,2688010.0,1668050393.239935
220921044,INS_FAST_SAMPLE,1.0,1668050393.240065
220921093,INS_NOTCH_ENABLE,0.0,1668050393.240114
220921117,INS_LOG_BAT_CNT,1024.0,1668050393.240138
220921227,INS_LOG_BAT_MASK,0.0,1668050393.240248
220921261,INS_LOG_BAT_OPT,0.0,1668050393.240282
220921294,INS_LOG_BAT_LGIN,20.0,1668050393.240315
220921321,INS_LOG_BAT_LGCT,32.0,1668050393.240342
220921497,INS_ENABLE_MASK,127.0,1668050393.240518
220921619,INS_HNTCH_ENABLE,0.0,1668050393.24064
220921642,WPNAV_SPEED,500.0,1668050393.240663
220921658,WPNAV_RADIUS,200.0,1668050393.240679
220921673,WPNAV_SPEED_UP,250.0,1668050393.240694
220921688,WPNAV_SPEED_DN,150.0,1668050393.240709
220921703,WPNAV_ACCEL,250.0,1668050393.240724
220921719,WPNAV_ACCEL_Z,250.0,1668050393.24074
220921743,WPNAV_RFND_USE,1.0,1668050393.240764
220921815,LOIT_ANG_MAX,0.0,1668050393.240836
220921831,LOIT_SPEED,1000.0,1668050393.2408519
220921846,LOIT_ACC_MAX,250.0,1668050393.240867
220921861,LOIT_BRK_ACCEL,250.0,1668050393.240882
220921877,LOIT_BRK_JERK,500.0,1668050393.240898
220921893,LOIT_BRK_DELAY,0.20000000298023224,1668050393.2409139
220921994,CIRCLE_RADIUS,1000.0,1668050393.241015
220922051,CIRCLE_RATE,20.0,1668050393.241072
220922067,CIRCLE_CONTROL,1.0,1668050393.241088
220922085,ATC_SLEW_YAW,6000.0,1668050393.241106
220922102,ATC_ACCEL_Y_MAX,14000.0,1668050393.241123
220922120,ATC_RATE_FF_ENAB,1.0,1668050393.241141
220922156,ATC_ACCEL_R_MAX,14000.0,1668050393.241177
220922237,ATC_ACCEL_P_MAX,15000.0,1668050393.241258
220922258,ATC_ANGLE_BOOST,1.0,1668050393.241279
220922278,ATC_ANG_RLL_P,2.0,1668050393.241299
220922299,ATC_ANG_PIT_P,3.0,1668050393.24132
220922320,ATC_ANG_YAW_P,3.0,1668050393.2413409
220922435,ATC_ANG_LIM_TC,1.0,1668050393.241456
220922458,ATC_RATE_R_MAX,0.0,1668050393.241479
220922480,ATC_RATE_P_MAX,0.0,1668050393.241501
220922501,ATC_RATE_Y_MAX,50.0,1668050393.241522
220922527,ATC_INPUT_TC,0.15000000596046448,1668050393.241548
220922594,ATC_RAT_RLL_P,0.14000000059604645,1668050393.241615
220922626,ATC_RAT_RLL_I,0.14000000059604645,1668050393.241647
220922650,ATC_RAT_RLL_D,0.0010000000474974513,1668050393.241671
220922673,ATC_RAT_RLL_FF,0.0,1668050393.241694
220922700,ATC_RAT_RLL_IMAX,0.5,1668050393.241721
220922788,ATC_RAT_RLL_FLTT,4.0,1668050393.241809
220922813,ATC_RAT_RLL_FLTE,0.0,1668050393.241834
220922838,ATC_RAT_RLL_FLTD,4.0,1668050393.241859
220922864,ATC_RAT_PIT_P,0.17800000309944153,1668050393.241885
220922988,ATC_RAT_PIT_I,0.17800000309944153,1668050393.242009
220923040,ATC_RAT_PIT_D,0.009999999776482582,1668050393.242061
220923067,ATC_RAT_PIT_FF,0.0,1668050393.242088
220923093,ATC_RAT_PIT_IMAX,0.5,1668050393.242114
220923160,ATC_RAT_PIT_FLTT,4.0,1668050393.242181
220923226,ATC_RAT_PIT_FLTE,0.0,1668050393.242247
220923255,ATC_RAT_PIT_FLTD,4.0,1668050393.242276
220923287,ATC_RAT_YAW_P,0.4000000059604645,1668050393.242308
220923390,ATC_RAT_YAW_I,0.03999999910593033,1668050393.242411
220923438,ATC_RAT_YAW_D,0.004999999888241291,1668050393.242459
220923466,ATC_RAT_YAW_FF,0.0,1668050393.242487
220923495,ATC_RAT_YAW_IMAX,0.5,1668050393.242516
220923524,ATC_RAT_YAW_FLTT,10.0,1668050393.242545
220923595,ATC_RAT_YAW_FLTE,2.0,1668050393.242616
220923625,ATC_RAT_YAW_FLTD,0.0,1668050393.242646
220923654,ATC_THR_MIX_MIN,0.10000000149011612,1668050393.242675
220923683,ATC_THR_MIX_MAX,0.5,1668050393.242704
220923712,ATC_THR_MIX_MAN,0.10000000149011612,1668050393.242733
220923799,PSC_ACC_XY_FILT,2.0,1668050393.24282
220923816,PSC_POSZ_P,1.0,1668050393.242837
220923834,PSC_VELZ_P,3.0,1668050393.242855
220923853,PSC_ACCZ_P,0.20000000298023224,1668050393.242874
220923872,PSC_ACCZ_I,0.4000000059604645,1668050393.242893
220924018,PSC_ACCZ_D,0.0,1668050393.243039
220924040,PSC_ACCZ_FF,0.0,1668050393.243061
220924061,PSC_ACCZ_IMAX,800.0,1668050393.243082
220924081,PSC_ACCZ_FLTT,0.0,1668050393.243102
220924101,PSC_ACCZ_FLTE,20.0,1668050393.243122
220924162,PSC_ACCZ_FLTD,0.0,1668050393.243183
220924224,PSC_POSXY_P,1.0,1668050393.243245
220924247,PSC_VELXY_P,2.0,1668050393.243268
220924270,PSC_VELXY_I,1.0,1668050393.243291
220924293,PSC_VELXY_IMAX,1000.0,1668050393.243314
220924395,PSC_VELXY_FILT,5.0,1668050393.243416
220924437,PSC_VELXY_D,0.5,1668050393.243458
220924461,PSC_VELXY_D_FILT,5.0,1668050393.2434819
220924484,PSC_ANGLE_MAX,0.0,1668050393.243505
220924504,SR0_RAW_SENS,0.0,1668050393.243525
220924519,SR0_EXT_STAT,0.0,1668050393.24354
220924534,SR0_RC_CHAN,0.0,1668050393.243555
220924595,SR0_RAW_CTRL,0.0,1668050393.243616
220924612,SR0_POSITION,0.0,1668050393.243633
220924627,SR0_EXTRA1,0.0,1668050393.243648
220924643,SR0_EXTRA2,0.0,1668050393.243664
220924659,SR0_EXTRA3,0.0,1668050393.24368
220924675,SR0_PARAMS,0.0,1668050393.243696
220924691,SR0_ADSB,0.0,1668050393.243712
220924707,SR1_RAW_SENS,2.0,1668050393.243728
220924784,SR1_EXT_STAT,2.0,1668050393.243805
220924800,SR1_RC_CHAN,2.0,1668050393.243821
220924816,SR1_RAW_CTRL,0.0,1668050393.2438369
220924831,SR1_POSITION,3.0,1668050393.243852
220924847,SR1_EXTRA1,10.0,1668050393.2438679
220924863,SR1_EXTRA2,10.0,1668050393.243884
220924914,SR1_EXTRA3,3.0,1668050393.2439349
220924994,SR1_PARAMS,0.0,1668050393.244015
220925037,SR1_ADSB,0.0,1668050393.244058
220925054,SR2_RAW_SENS,0.0,1668050393.244075
220925069,SR2_EXT_STAT,0.0,1668050393.24409
220925084,SR2_RC_CHAN,0.0,1668050393.244105
220925099,SR2_RAW_CTRL,0.0,1668050393.24412
220925115,SR2_POSITION,0.0,1668050393.244136
220925172,SR2_EXTRA1,0.0,1668050393.244193
220925230,SR2_EXTRA2,0.0,1668050393.244251
220925247,SR2_EXTRA3,0.0,1668050393.244268
220925263,SR2_PARAMS,0.0,1668050393.244284
220925279,SR2_ADSB,0.0,1668050393.2443
220925295,SR3_RAW_SENS,0.0,1668050393.244316
220925363,SR3_EXT_STAT,0.0,1668050393.244384
220925403,SR3_RC_CHAN,0.0,1668050393.244424
220925419,SR3_RAW_CTRL,0.0,1668050393.24444
220925451,SR3_POSITION,0.0,1668050393.244472
220925467,SR3_EXTRA1,0.0,1668050393.244488
220925483,SR3_EXTRA2,0.0,1668050393.244504
220925498,SR3_EXTRA3,0.0,1668050393.244519
220925514,SR3_PARAMS,0.0,1668050393.244535
220925531,SR3_ADSB,0.0,1668050393.244552
220925590,AHRS_GPS_GAIN,1.0,1668050393.244611
220925607,AHRS_GPS_USE,1.0,1668050393.244628
220925622,AHRS_YAW_P,0.30000001192092896,1668050393.244643
220925637,AHRS_RP_P,0.10000000149011612,1668050393.244658
220925653,AHRS_WIND_MAX,0.0,1668050393.244674
220925671,AHRS_TRIM_X,-0.0171442199498415,1668050393.244692
220925687,AHRS_TRIM_Y,-0.0015187060926109552,1668050393.244708
220925703,AHRS_TRIM_Z,0.0,1668050393.244724
220925783,AHRS_ORIENTATION,0.0,1668050393.244804
220925800,AHRS_COMP_BETA,0.10000000149011612,1668050393.244821
220925818,AHRS_GPS_MINSATS,10.0,1668050393.244839
220925836,AHRS_EKF_TYPE,2.0,1668050393.244857
220925853,AHRS_CUSTOM_ROLL,0.0,1668050393.244874
220925870,AHRS_CUSTOM_PIT,0.0,1668050393.244891
220926003,AHRS_CUSTOM_YAW,0.0,1668050393.245024
220926023,MNT_DEFLT_MODE,3.0,1668050393.245044
220926040,MNT_RETRACT_X,0.0,1668050393.245061
220926055,MNT_RETRACT_Y,0.0,1668050393.245076
220926071,MNT_RETRACT_Z,0.0,1668050393.245092
220926087,MNT_NEUTRAL_X,0.0,1668050393.245108
220926143,MNT_NEUTRAL_Y,0.0,1668050393.245164
220926198,MNT_NEUTRAL_Z,0.0,1668050393.245219
220926217,MNT_STAB_ROLL,0.0,1668050393.245238
220926234,MNT_STAB_TILT,0.0,1668050393.245255
220926252,MNT_STAB_PAN,0.0,1668050393.2452729
220926269,MNT_RC_IN_ROLL,0.0,1668050393.24529
220926285,MNT_ANGMIN_ROL,-4500.0,1668050393.245306
220926302,MNT_ANGMAX_ROL,4500.0,1668050393.245323
220926426,MNT_RC_IN_TILT,0.0,1668050393.245447
220926462,MNT_ANGMIN_TIL,-4500.0,1668050393.245483
220926480,MNT_ANGMAX_TIL,4500.0,1668050393.245501
220926498,MNT_RC_IN_PAN,0.0,1668050393.245519
220926516,MNT_ANGMIN_PAN,-4500.0,1668050393.245537
220926533,MNT_ANGMAX_PAN,4500.0,1668050393.245554
220926599,MNT_JSTICK_SPD,0.0,1668050393.24562
220926618,MNT_LEAD_RLL,0.0,1668050393.245639
220926636,MNT_LEAD_PTCH,0.0,1668050393.245657
220926656,MNT_TYPE,0.0,1668050393.245677
220926674,LOG_BACKEND_TYPE,1.0,1668050393.2456949
220926690,LOG_FILE_BUFSIZE,50.0,1668050393.245711
220926705,LOG_DISARMED,0.0,1668050393.2457259
220926784,LOG_REPLAY,0.0,1668050393.245805
220926802,LOG_FILE_DSRMROT,0.0,1668050393.245823
220926819,LOG_MAV_BUFSIZE,8.0,1668050393.24584
220926835,LOG_FILE_TIMEOUT,5.0,1668050393.245856
220926854,BATT_MONITOR,3.0,1668050393.245875
220926872,BATT_VOLT_PIN,0.0,1668050393.245893
220926990,BATT_CURR_PIN,1.0,1668050393.246011
220927034,BATT_VOLT_MULT,18.0,1668050393.246055
220927052,BATT_AMP_PERVLT,24.0,1668050393.246073
220927069,BATT_AMP_OFFSET,0.0,1668050393.24609
220927087,BATT_CAPACITY,25000.0,1668050393.246108
220927106,BATT_SERIAL_NUM,-1.0,1668050393.246127
220927167,BATT_LOW_TIMER,10.0,1668050393.246188
220927232,BATT_FS_VOLTSRC,0.0,1668050393.246253
220927251,BATT_LOW_VOLT,0.0,1668050393.246272
220927270,BATT_LOW_MAH,0.0,1668050393.246291
220927289,BATT_CRT_VOLT,45.0,1668050393.24631
220927308,BATT_CRT_MAH,0.0,1668050393.246329
220927409,BATT_FS_LOW_ACT,0.0,1668050393.24643
220927432,BATT_FS_CRT_ACT,0.0,1668050393.246453
220927452,BATT_ARM_VOLT,50.0,1668050393.246473
220927506,BATT_ARM_MAH,0.0,1668050393.246527
220927530,BATT_BUS,0.0,1668050393.246551
220927691,BATT2_MONITOR,0.0,1668050393.246712
220928056,BATT3_MONITOR,0.0,1668050393.247077
220928454,BATT4_MONITOR,0.0,1668050393.247475
220929007,BATT5_MONITOR,0.0,1668050393.248028
220929592,BATT6_MONITOR,0.0,1668050393.2486129
220930247,BATT7_MONITOR,0.0,1668050393.249268
220931060,BATT8_MONITOR,0.0,1668050393.250081
220931967,BATT9_MONITOR,0.0,1668050393.250988
220932034,BRD_PWM_COUNT,5.0,1668050393.251055
220932051,BRD_SER1_RTSCTS,0.0,1668050393.251072
220932067,BRD_SER2_RTSCTS,0.0,1668050393.251088
220932084,BRD_SAFETYENABLE,0.0,1668050393.251105
220932141,BRD_SBUS_OUT,0.0,1668050393.251162
220932196,BRD_SERIAL_NUM,0.0,1668050393.251217
220932213,BRD_SAFETY_MASK,16368.0,1668050393.251234
220932230,BRD_TYPE,24.0,1668050393.251251
220932248,BRD_IO_ENABLE,1.0,1668050393.251269
220932264,BRD_SAFETYOPTION,3.0,1668050393.251285
220932285,BRD_RTC_TYPES,1.0,1668050393.251306
220932304,BRD_RTC_TZ_MIN,0.0,1668050393.251325
220932431,BRD_VBUS_MIN,4.300000190734863,1668050393.251452
220932455,BRD_VSERVO_MIN,0.0,1668050393.251476
220932476,BRD_SD_SLOWDOWN,0.0,1668050393.251497
220932495,BRD_OPTIONS,1.0,1668050393.251516
220932514,BRD_BOOT_DELAY,0.0,1668050393.251535
220932535,BRD_ALT_CONFIG,0.0,1668050393.251556
220932619,CAN_P1_DRIVER,0.0,1668050393.25164
220932645,CAN_P2_DRIVER,0.0,1668050393.251666
220932667,CAN_D1_PROTOCOL,1.0,1668050393.251688
220932692,CAN_D2_PROTOCOL,1.0,1668050393.251713
220932720,CAN_SLCAN_CPORT,0.0,1668050393.251741
220932817,CAN_SLCAN_SERNUM,-1.0,1668050393.251838
220932842,CAN_SLCAN_TIMOUT,0.0,1668050393.251863
220932869,SPRAY_ENABLE,0.0,1668050393.25189
220932955,GND_ABS_PRESS,101333.28125,1668050393.251976
220933013,GND_TEMP,0.0,1668050393.252034
220933029,GND_ALT_OFFSET,0.0,1668050393.25205
220933045,GND_PRIMARY,0.0,1668050393.252066
220933061,GND_EXT_BUS,-1.0,1668050393.2520819
220933077,GND_ABS_PRESS2,0.0,1668050393.252098
220933093,GND_ABS_PRESS3,0.0,1668050393.252114
220933157,GND_FLTR_RNG,0.0,1668050393.252178
220933213,GND_PROBE_EXT,0.0,1668050393.252234
220933230,GPS_TYPE,1.0,1668050393.252251
220933246,GPS_TYPE2,0.0,1668050393.252267
220933262,GPS_NAVFILTER,8.0,1668050393.252283
220933279,GPS_AUTO_SWITCH,1.0,1668050393.2523
220933295,GPS_MIN_DGPS,100.0,1668050393.252316
220933394,GPS_SBAS_MODE,2.0,1668050393.252415
220933437,GPS_MIN_ELEV,-100.0,1668050393.252458
220933455,GPS_INJECT_TO,127.0,1668050393.252476
220933472,GPS_SBP_LOGMASK,-256.0,1668050393.252493
220933489,GPS_RAW_DATA,0.0,1668050393.25251
220933507,GPS_GNSS_MODE,0.0,1668050393.252528
220933526,GPS_SAVE_CFG,2.0,1668050393.252547
220933601,GPS_GNSS_MODE2,0.0,1668050393.252622
220933622,GPS_AUTO_CONFIG,1.0,1668050393.2526429
220933639,GPS_RATE_MS,100.0,1668050393.25266
220933657,GPS_RATE_MS2,200.0,1668050393.252678
220933677,GPS_POS1_X,0.0,1668050393.252698
220933695,GPS_POS1_Y,0.0,1668050393.252716
220933713,GPS_POS1_Z,0.0,1668050393.252734
220933792,GPS_POS2_X,0.0,1668050393.252813
220933821,GPS_POS2_Y,0.0,1668050393.252842
220933839,GPS_POS2_Z,0.0,1668050393.25286
220933857,GPS_DELAY_MS,0.0,1668050393.252878
220933875,GPS_DELAY_MS2,0.0,1668050393.252896
220933932,GPS_BLEND_MASK,5.0,1668050393.252953
220934039,GPS_BLEND_TC,10.0,1668050393.25306
220934058,SCHED_DEBUG,0.0,1668050393.253079
220934073,SCHED_LOOP_RATE,400.0,1668050393.253094
220934089,FENCE_ENABLE,0.0,1668050393.25311
220934105,FENCE_TYPE,0.0,1668050393.253126
220934121,FENCE_ACTION,0.0,1668050393.2531419
220934178,FENCE_ALT_MAX,50.0,1668050393.253199
220934234,FENCE_RADIUS,1000.0,1668050393.253255
220934250,FENCE_MARGIN,1.0,1668050393.253271
220934268,FENCE_TOTAL,0.0,1668050393.253289
220934285,AVOID_ENABLE,0.0,1668050393.253306
220934300,AVOID_ANGLE_MAX,2000.0,1668050393.253321
220934315,AVOID_DIST_MAX,30.0,1668050393.253336
220934412,AVOID_MARGIN,10.0,1668050393.253433
220934430,AVOID_BEHAVE,1.0,1668050393.2534509
220934446,RALLY_TOTAL,0.0,1668050393.253467
220934461,RALLY_LIMIT_KM,0.30000001192092896,1668050393.253482
220934477,RALLY_INCL_HOME,1.0,1668050393.253498
220934493,MOT_YAW_HEADROOM,80.0,1668050393.253514
220934507,MOT_THST_EXPO,0.800000011920929,1668050393.2535279
220934522,MOT_SPIN_MAX,1.0,1668050393.253543
220934538,MOT_BAT_VOLT_MAX,58.79999542236328,1668050393.2535589
220934613,MOT_BAT_VOLT_MIN,49.0,1668050393.253634
220934629,MOT_BAT_CURR_MAX,0.0,1668050393.25365
220934647,MOT_PWM_TYPE,0.0,1668050393.253668
220934663,MOT_PWM_MIN,1050.0,1668050393.253684
220934679,MOT_PWM_MAX,1950.0,1668050393.2537
220934695,MOT_SPIN_MIN,0.07999999821186066,1668050393.253716
220934712,MOT_SPIN_ARM,0.07000000029802322,1668050393.253733
220934812,MOT_BAT_CURR_TC,5.0,1668050393.253833
220934829,MOT_THST_HOVER,0.1599999964237213,1668050393.25385
220934848,MOT_HOVER_LEARN,2.0,1668050393.253869
220934867,MOT_SAFE_DISARM,0.0,1668050393.253888
220934884,MOT_SPOOL_TIME,1.0,1668050393.253905
220934936,MOT_BOOST_SCALE,0.0,1668050393.253957
220935044,MOT_BAT_IDX,0.0,1668050393.254065
220935063,MOT_SLEW_UP_TIME,0.0,1668050393.2540839
220935084,MOT_SLEW_DN_TIME,0.0,1668050393.254105
220935103,MOT_SAFE_TIME,1.0,1668050393.254124
220935121,RCMAP_ROLL,1.0,1668050393.254142
220935178,RCMAP_PITCH,2.0,1668050393.254199
220935253,RCMAP_THROTTLE,3.0,1668050393.254274
220935271,RCMAP_YAW,4.0,1668050393.254292
220935288,EK2_ENABLE,1.0,1668050393.254309
220935304,EK2_GPS_TYPE,0.0,1668050393.254325
220935319,EK2_VELNE_M_NSE,0.5,1668050393.25434
220935334,EK2_VELD_M_NSE,0.699999988079071,1668050393.254355
220935401,EK2_VEL_I_GATE,500.0,1668050393.254422
220935443,EK2_POSNE_M_NSE,0.5,1668050393.254464
220935459,EK2_POS_I_GATE,500.0,1668050393.25448
220935476,EK2_GLITCH_RAD,25.0,1668050393.254497
220935494,EK2_ALT_SOURCE,0.0,1668050393.254515
220935511,EK2_ALT_M_NSE,9.800000190734863,1668050393.254532
220935527,EK2_HGT_I_GATE,500.0,1668050393.254548
220935587,EK2_HGT_DELAY,60.0,1668050393.254608
220935605,EK2_MAG_M_NSE,0.05000000074505806,1668050393.254626
220935641,EK2_MAG_CAL,3.0,1668050393.254662
220935658,EK2_MAG_I_GATE,300.0,1668050393.254679
220935676,EK2_EAS_M_NSE,1.399999976158142,1668050393.254697
220935694,EK2_EAS_I_GATE,400.0,1668050393.254715
220935712,EK2_RNG_M_NSE,0.5,1668050393.254733
220935789,EK2_RNG_I_GATE,500.0,1668050393.25481
220935815,EK2_MAX_FLOW,2.5,1668050393.254836
220935833,EK2_FLOW_M_NSE,0.25,1668050393.254854
220935852,EK2_FLOW_I_GATE,300.0,1668050393.254873
220935909,EK2_FLOW_DELAY,10.0,1668050393.25493
220936019,EK2_GYRO_P_NSE,0.029999999329447746,1668050393.25504
220936039,EK2_ACC_P_NSE,0.6000000238418579,1668050393.25506
220936058,EK2_GBIAS_P_NSE,9.999999747378752e-05,1668050393.255079
220936078,EK2_GSCL_P_NSE,0.0005000000237487257,1668050393.255099
220936097,EK2_ABIAS_P_NSE,0.004999999888241291,1668050393.255118
220936158,EK2_WIND_P_NSE,0.10000000149011612,1668050393.255179
220936218,EK2_WIND_PSCALE,0.5,1668050393.255239
220936242,EK2_GPS_CHECK,31.0,1668050393.255263
220936265,EK2_IMU_MASK,3.0,1668050393.255286
220936286,EK2_CHECK_SCALE,100.0,1668050393.255307
220936341,EK2_NOAID_M_NSE,10.0,1668050393.255362
220936442,EK2_LOG_MASK,1.0,1668050393.255463
220936465,EK2_YAW_M_NSE,0.5,1668050393.255486
220936486,EK2_YAW_I_GATE,300.0,1668050393.255507
220936511,EK2_TAU_OUTPUT,25.0,1668050393.255532
220936533,EK2_MAGE_P_NSE,0.0010000000474974513,1668050393.255554
220936598,EK2_MAGB_P_NSE,9.999999747378752e-05,1668050393.255619
220936640,EK2_RNG_USE_HGT,70.0,1668050393.255661
220936662,EK2_TERR_GRAD,0.10000000149011612,1668050393.255683
220936685,EK2_BCN_M_NSE,1.0,1668050393.255706
220936708,EK2_BCN_I_GTE,500.0,1668050393.255729
220936789,EK2_BCN_DELAY,50.0,1668050393.25581
220936813,EK2_RNG_USE_SPD,6.0,1668050393.255834
220936847,EK2_MAG_MASK,0.0,1668050393.255868
220936961,EK2_OGN_HGT_MASK,0.0,1668050393.255982
220937015,EK2_EXTNAV_DELAY,10.0,1668050393.256036
220937047,EK2_FLOW_USE,1.0,1668050393.256068
220937071,EK2_MAG_EF_LIM,50.0,1668050393.256092
220937135,EK2_HRT_FILT,2.0,1668050393.256156
220937511,EK3_ENABLE,0.0,1668050393.256532
220937534,MIS_TOTAL,0.0,1668050393.256555
220937592,MIS_RESTART,0.0,1668050393.256613
220937608,MIS_OPTIONS,0.0,1668050393.256629
220937668,RSSI_TYPE,0.0,1668050393.256689
220937687,RNGFND1_TYPE,11.0,1668050393.256708
220937710,RNGFND1_PIN,-1.0,1668050393.256731
220937783,RNGFND1_SCALING,3.0,1668050393.256804
220937801,RNGFND1_OFFSET,0.0,1668050393.2568219
220937828,RNGFND1_FUNCTION,0.0,1668050393.256849
220937846,RNGFND1_MIN_CM,450.0,1668050393.256867
220937864,RNGFND1_MAX_CM,5000.0,1668050393.256885
220937997,RNGFND1_STOP_PIN,-1.0,1668050393.257018
220938020,RNGFND1_RMETRIC,1.0,1668050393.257041
220938038,RNGFND1_PWRRNG,0.0,1668050393.257059
220938059,RNGFND1_GNDCLEAR,10.0,1668050393.25708
220938152,RNGFND1_ADDR,0.0,1668050393.257173
220938215,RNGFND1_POS_X,0.0,1668050393.257236
220938236,RNGFND1_POS_Y,0.0,1668050393.257257
220938255,RNGFND1_POS_Z,0.0,1668050393.257276
220938276,RNGFND1_ORIENT,0.0,1668050393.257297
220938300,RNGFND2_TYPE,11.0,1668050393.257321
220938435,RNGFND2_PIN,-1.0,1668050393.257456
220938459,RNGFND2_SCALING,3.0,1668050393.25748
220938647,RNGFND2_OFFSET,0.0,1668050393.257668
220938691,RNGFND2_FUNCTION,0.0,1668050393.257712
220938713,RNGFND2_MIN_CM,10.0,1668050393.257734
220938735,RNGFND2_MAX_CM,2000.0,1668050393.257756
220938760,RNGFND2_STOP_PIN,-1.0,1668050393.257781
220938925,RNGFND2_RMETRIC,1.0,1668050393.257946
220938953,RNGFND2_PWRRNG,0.0,1668050393.257974
220938980,RNGFND2_GNDCLEAR,12.0,1668050393.258001
220939010,RNGFND2_ADDR,0.0,1668050393.258031
220939136,RNGFND2_POS_X,0.0,1668050393.258157
220939195,RNGFND2_POS_Y,0.0,1668050393.258216
220939219,RNGFND2_POS_Z,0.0,1668050393.25824
220939340,RNGFND2_ORIENT,25.0,1668050393.258361
220939410,RNGFND3_TYPE,0.0,1668050393.258431
220939441,RNGFND3_PIN,-1.0,1668050393.258462
220939466,RNGFND3_SCALING,3.0,1668050393.258487
220939527,RNGFND3_OFFSET,0.0,1668050393.258548
220939630,RNGFND3_FUNCTION,0.0,1668050393.258651
220939661,RNGFND3_MIN_CM,20.0,1668050393.258682
220939704,RNGFND3_MAX_CM,700.0,1668050393.258725
220939778,RNGFND3_STOP_PIN,-1.0,1668050393.258799
220939809,RNGFND3_RMETRIC,1.0,1668050393.25883
220939842,RNGFND3_PWRRNG,0.0,1668050393.258863
220939873,RNGFND3_GNDCLEAR,10.0,1668050393.258894
220939965,RNGFND3_ADDR,0.0,1668050393.258986
220940001,RNGFND3_POS_X,0.0,1668050393.259022
220940029,RNGFND3_POS_Y,0.0,1668050393.25905
220940091,RNGFND3_POS_Z,0.0,1668050393.259112
220940197,RNGFND3_ORIENT,25.0,1668050393.259218
220940232,RNGFND4_TYPE,0.0,1668050393.259253
220940267,RNGFND4_PIN,-1.0,1668050393.259288
220940380,RNGFND4_SCALING,3.0,1668050393.259401
220940410,RNGFND4_OFFSET,0.0,1668050393.259431
220940446,RNGFND4_FUNCTION,0.0,1668050393.259467
220940560,RNGFND4_MIN_CM,20.0,1668050393.259581
220940615,RNGFND4_MAX_CM,700.0,1668050393.259636
220940652,RNGFND4_STOP_PIN,-1.0,1668050393.2596729
220940745,RNGFND4_RMETRIC,1.0,1668050393.259766
220940776,RNGFND4_PWRRNG,0.0,1668050393.259797
220940813,RNGFND4_GNDCLEAR,10.0,1668050393.259834
220940912,RNGFND4_ADDR,0.0,1668050393.259933
220940956,RNGFND4_POS_X,0.0,1668050393.259977
220940991,RNGFND4_POS_Y,0.0,1668050393.260012
220941146,RNGFND4_POS_Z,0.0,1668050393.260167
220941186,RNGFND4_ORIENT,25.0,1668050393.260207
220941227,RNGFND5_TYPE,0.0,1668050393.260248
220941347,RNGFND5_PIN,-1.0,1668050393.2603679
220941381,RNGFND5_SCALING,3.0,1668050393.260402
220941414,RNGFND5_OFFSET,0.0,1668050393.260435
220941564,RNGFND5_FUNCTION,0.0,1668050393.260585
220941599,RNGFND5_MIN_CM,20.0,1668050393.2606199
220941636,RNGFND5_MAX_CM,700.0,1668050393.260657
220941738,RNGFND5_STOP_PIN,-1.0,1668050393.2607589
220941780,RNGFND5_RMETRIC,1.0,1668050393.260801
220941814,RNGFND5_PWRRNG,0.0,1668050393.260835
220941920,RNGFND5_GNDCLEAR,10.0,1668050393.260941
220941967,RNGFND5_ADDR,0.0,1668050393.260988
220942121,RNGFND5_POS_X,0.0,1668050393.261142
220942157,RNGFND5_POS_Y,0.0,1668050393.261178
220942191,RNGFND5_POS_Z,0.0,1668050393.2612119
220942319,RNGFND5_ORIENT,25.0,1668050393.26134
220942367,RNGFND6_TYPE,0.0,1668050393.261388
220942490,RNGFND6_PIN,-1.0,1668050393.261511
220942529,RNGFND6_SCALING,3.0,1668050393.26155
220942566,RNGFND6_OFFSET,0.0,1668050393.261587
220942655,RNGFND6_FUNCTION,0.0,1668050393.261676
220942692,RNGFND6_MIN_CM,20.0,1668050393.261713
220942729,RNGFND6_MAX_CM,700.0,1668050393.26175
220942847,RNGFND6_STOP_PIN,-1.0,1668050393.261868
220942902,RNGFND6_RMETRIC,1.0,1668050393.261923
220943065,RNGFND6_PWRRNG,0.0,1668050393.262086
220943114,RNGFND6_GNDCLEAR,10.0,1668050393.262135
220943203,RNGFND6_ADDR,0.0,1668050393.262224
220943295,RNGFND6_POS_X,0.0,1668050393.262316
220943333,RNGFND6_POS_Y,0.0,1668050393.262354
220943420,RNGFND6_POS_Z,0.0,1668050393.262441
220943469,RNGFND6_ORIENT,25.0,1668050393.26249
220943520,RNGFND7_TYPE,0.0,1668050393.262541
220943617,RNGFND7_PIN,-1.0,1668050393.262638
220943658,RNGFND7_SCALING,3.0,1668050393.262679
220943766,RNGFND7_OFFSET,0.0,1668050393.262787
220943819,RNGFND7_FUNCTION,0.0,1668050393.26284
220943953,RNGFND7_MIN_CM,20.0,1668050393.262974
220944020,RNGFND7_MAX_CM,700.0,1668050393.263041
220944073,RNGFND7_STOP_PIN,-1.0,1668050393.263094
220944206,RNGFND7_RMETRIC,1.0,1668050393.263227
220944253,RNGFND7_PWRRNG,0.0,1668050393.263274
220944341,RNGFND7_GNDCLEAR,10.0,1668050393.263362
220944468,RNGFND7_ADDR,0.0,1668050393.263489
220944527,RNGFND7_POS_X,0.0,1668050393.263548
220944612,RNGFND7_POS_Y,0.0,1668050393.263633
220944655,RNGFND7_POS_Z,0.0,1668050393.263676
220944709,RNGFND7_ORIENT,25.0,1668050393.26373
220944835,RNGFND8_TYPE,0.0,1668050393.263856
220945025,RNGFND8_PIN,-1.0,1668050393.264046
220945072,RNGFND8_SCALING,3.0,1668050393.264093
220945156,RNGFND8_OFFSET,0.0,1668050393.264177
220945253,RNGFND8_FUNCTION,0.0,1668050393.264274
220945298,RNGFND8_MIN_CM,20.0,1668050393.264319
220945422,RNGFND8_MAX_CM,700.0,1668050393.264443
220945480,RNGFND8_STOP_PIN,-1.0,1668050393.264501
220945538,RNGFND8_RMETRIC,1.0,1668050393.264559
220945629,RNGFND8_PWRRNG,0.0,1668050393.2646499
220945687,RNGFND8_GNDCLEAR,10.0,1668050393.264708
220945816,RNGFND8_ADDR,0.0,1668050393.264837
220945974,RNGFND8_POS_X,0.0,1668050393.264995
220946056,RNGFND8_POS_Y,0.0,1668050393.2650769
220946102,RNGFND8_POS_Z,0.0,1668050393.265123
220946246,RNGFND8_ORIENT,25.0,1668050393.265267
220946343,RNGFND9_TYPE,0.0,1668050393.265364
220946465,RNGFND9_PIN,-1.0,1668050393.265486
220946517,RNGFND9_SCALING,3.0,1668050393.265538
220946612,RNGFND9_OFFSET,0.0,1668050393.2656329
220946675,RNGFND9_FUNCTION,0.0,1668050393.265696
220946782,RNGFND9_MIN_CM,20.0,1668050393.265803
220946848,RNGFND9_MAX_CM,700.0,1668050393.265869
220947044,RNGFND9_STOP_PIN,-1.0,1668050393.266065
220947109,RNGFND9_RMETRIC,1.0,1668050393.26613
220947239,RNGFND9_PWRRNG,0.0,1668050393.26626
220947303,RNGFND9_GNDCLEAR,10.0,1668050393.266324
220947447,RNGFND9_ADDR,0.0,1668050393.266468
220947518,RNGFND9_POS_X,0.0,1668050393.266539
220947614,RNGFND9_POS_Y,0.0,1668050393.266635
220947664,RNGFND9_POS_Z,0.0,1668050393.266685
220947783,RNGFND9_ORIENT,25.0,1668050393.266804
220948014,RNGFNDA_TYPE,0.0,1668050393.267035
220948085,RNGFNDA_PIN,-1.0,1668050393.267106
220948221,RNGFNDA_SCALING,3.0,1668050393.267242
220948274,RNGFNDA_OFFSET,0.0,1668050393.267295
220948450,RNGFNDA_FUNCTION,0.0,1668050393.267471
220948504,RNGFNDA_MIN_CM,20.0,1668050393.267525
220948642,RNGFNDA_MAX_CM,700.0,1668050393.267663
220948711,RNGFNDA_STOP_PIN,-1.0,1668050393.267732
220948837,RNGFNDA_RMETRIC,1.0,1668050393.267858
220949015,RNGFNDA_PWRRNG,0.0,1668050393.268036
220949110,RNGFNDA_GNDCLEAR,10.0,1668050393.268131
220949260,RNGFNDA_ADDR,0.0,1668050393.268281
220949424,RNGFNDA_POS_X,0.0,1668050393.268445
220949480,RNGFNDA_POS_Y,0.0,1668050393.268501
220949537,RNGFNDA_POS_Z,0.0,1668050393.268558
220949651,RNGFNDA_ORIENT,25.0,1668050393.268672
220949691,TERRAIN_ENABLE,0.0,1668050393.268712
220949761,FLOW_TYPE,0.0,1668050393.268782
220949777,FLOW_FXSCALER,0.0,1668050393.2687979
220949792,FLOW_FYSCALER,0.0,1668050393.268813
220949808,FLOW_ORIENT_YAW,0.0,1668050393.2688289
220949825,FLOW_POS_X,0.0,1668050393.268846
220949841,FLOW_POS_Y,0.0,1668050393.268862
220949970,FLOW_POS_Z,0.0,1668050393.268991
220950013,FLOW_ADDR,0.0,1668050393.269034
220950049,PLND_ENABLED,0.0,1668050393.26907
220950066,RPM_TYPE,2.0,1668050393.269087
220950081,RPM_SCALING,1.0,1668050393.269102
220950136,RPM_MAX,100000.0,1668050393.269157
220950194,RPM_MIN,5.0,1668050393.2692149
220950212,RPM_MIN_QUAL,0.5,1668050393.269233
220950228,RPM_PIN,55.0,1668050393.269249
220950245,RPM2_TYPE,0.0,1668050393.269266
220950261,RPM2_SCALING,1.0,1668050393.269282
220950278,RPM2_PIN,-1.0,1668050393.269299
220950428,ADSB_ENABLE,0.0,1668050393.269449
220950465,AVD_ENABLE,0.0,1668050393.269486
220950482,NTF_LED_BRIGHT,3.0,1668050393.2695029
220950498,NTF_BUZZ_ENABLE,1.0,1668050393.269519
220950514,NTF_LED_OVERRIDE,0.0,1668050393.269535
220950530,NTF_DISPLAY_TYPE,0.0,1668050393.269551
220950590,NTF_OREO_THEME,0.0,1668050393.269611
220950608,NTF_BUZZ_PIN,0.0,1668050393.269629
220950624,NTF_LED_TYPES,199.0,1668050393.269645
220950642,NTF_BUZZ_ON_LVL,1.0,1668050393.269663
220950659,NTF_BUZZ_VOLUME,100.0,1668050393.26968
220950677,NTF_NEO_LEN,1.0,1668050393.269698
220950692,THROW_MOT_START,0.0,1668050393.269713
220950705,RTL_ALT_TYPE,0.0,1668050393.269726
220950775,WP_NAVALT_MIN,5.0,1668050393.269796
220950806,BTN_ENABLE,0.0,1668050393.269827
220950829,THROW_NEXTMODE,18.0,1668050393.26985
220950848,THROW_TYPE,0.0,1668050393.269869
220950925,GND_EFFECT_COMP,1.0,1668050393.269946
220951021,DEV_OPTIONS,0.0,1668050393.270042
220951044,BCN_TYPE,0.0,1668050393.270065
220951064,BCN_LATITUDE,0.0,1668050393.270085
220951084,BCN_LONGITUDE,0.0,1668050393.270105
220951104,BCN_ALT,0.0,1668050393.270125
220951166,BCN_ORIENT_YAW,0.0,1668050393.270187
220951232,PRX_TYPE,4.0,1668050393.270253
220951257,PRX_ORIENT,0.0,1668050393.270278
220951279,PRX_YAW_CORR,0.0,1668050393.2703
220951301,PRX_IGN_ANG1,0.0,1668050393.270322
220951435,PRX_IGN_WID1,0.0,1668050393.270456
220951460,PRX_IGN_ANG2,0.0,1668050393.2704809
220951490,PRX_IGN_WID2,0.0,1668050393.270511
220951513,PRX_IGN_ANG3,0.0,1668050393.270534
220951557,PRX_IGN_WID3,0.0,1668050393.270578
220951605,PRX_IGN_ANG4,0.0,1668050393.270626
220951633,PRX_IGN_WID4,0.0,1668050393.270654
220951656,PRX_IGN_ANG5,0.0,1668050393.270677
220951684,PRX_IGN_WID5,0.0,1668050393.270705
220951708,PRX_IGN_ANG6,0.0,1668050393.270729
220951791,PRX_IGN_WID6,0.0,1668050393.270812
220951816,ACRO_Y_EXPO,0.0,1668050393.270837
220951840,ACRO_THR_MID,0.0,1668050393.270861
220951904,SYSID_ENFORCE,0.0,1668050393.270925
220952030,STAT_BOOTCNT,10.0,1668050393.271051
220952057,STAT_FLTTIME,0.0,1668050393.2710779
220952083,STAT_RUNTIME,2642.0,1668050393.271104
220952153,STAT_RESET,215317488.0,1668050393.271174
220952282,GRIP_ENABLE,0.0,1668050393.271303
220952424,FRAME_CLASS,2.0,1668050393.271445
220952459,SERVO1_MIN,1050.0,1668050393.27148
220952490,SERVO1_MAX,1950.0,1668050393.271511
220952522,SERVO1_TRIM,1500.0,1668050393.271543
220952603,SERVO1_REVERSED,0.0,1668050393.271624
220952636,SERVO1_FUNCTION,33.0,1668050393.271657
220952668,SERVO2_MIN,1050.0,1668050393.271689
220952701,SERVO2_MAX,1950.0,1668050393.271722
220952793,SERVO2_TRIM,1500.0,1668050393.2718139
220952836,SERVO2_REVERSED,0.0,1668050393.271857
220952906,SERVO2_FUNCTION,34.0,1668050393.2719269
220953042,SERVO3_MIN,1050.0,1668050393.272063
220953077,SERVO3_MAX,1950.0,1668050393.272098
220953152,SERVO3_TRIM,1500.0,1668050393.272173
220953237,SERVO3_REVERSED,0.0,1668050393.272258
220953274,SERVO3_FUNCTION,35.0,1668050393.272295
220953346,SERVO4_MIN,1050.0,1668050393.272367
220953476,SERVO4_MAX,1950.0,1668050393.272497
220953514,SERVO4_TRIM,1500.0,1668050393.272535
220953604,SERVO4_REVERSED,0.0,1668050393.272625
220953642,SERVO4_FUNCTION,36.0,1668050393.2726629
220953680,SERVO5_MIN,1050.0,1668050393.272701
220953772,SERVO5_MAX,1950.0,1668050393.272793
220953813,SERVO5_TRIM,1500.0,1668050393.272834
220953863,SERVO5_REVERSED,0.0,1668050393.272884
220954038,SERVO5_FUNCTION,37.0,1668050393.273059
220954080,SERVO6_MIN,1050.0,1668050393.273101
220954203,SERVO6_MAX,1950.0,1668050393.2732239
220954247,SERVO6_TRIM,1500.0,1668050393.273268
220954299,SERVO6_REVERSED,0.0,1668050393.27332
220954448,SERVO6_FUNCTION,38.0,1668050393.273469
220954491,SERVO7_MIN,1100.0,1668050393.273512
220954534,SERVO7_MAX,1900.0,1668050393.273555
220954618,SERVO7_TRIM,1500.0,1668050393.273639
220954673,SERVO7_REVERSED,0.0,1668050393.273694
220954780,SERVO7_FUNCTION,0.0,1668050393.273801
220954840,SERVO8_MIN,1100.0,1668050393.273861
220954883,SERVO8_MAX,1900.0,1668050393.273904
220955062,SERVO8_TRIM,1500.0,1668050393.274083
220955120,SERVO8_REVERSED,0.0,1668050393.274141
220955267,SERVO8_FUNCTION,0.0,1668050393.274288
220955318,SERVO9_MIN,1100.0,1668050393.274339
220955454,SERVO9_MAX,1900.0,1668050393.274475
220955529,SERVO9_TRIM,1500.0,1668050393.27455
220955634,SERVO9_REVERSED,0.0,1668050393.274655
220955685,SERVO9_FUNCTION,0.0,1668050393.274706
220955732,SERVO10_MIN,1100.0,1668050393.274753
220955842,SERVO10_MAX,1900.0,1668050393.274863
220955892,SERVO10_TRIM,1500.0,1668050393.274913
220956103,SERVO10_REVERSED,0.0,1668050393.275124
220956154,SERVO10_FUNCTION,0.0,1668050393.275175
220956290,SERVO11_MIN,1100.0,1668050393.275311
220956345,SERVO11_MAX,1900.0,1668050393.275366
220956505,SERVO11_TRIM,1500.0,1668050393.275526
220956575,SERVO11_REVERSED,0.0,1668050393.275596
220956671,SERVO11_FUNCTION,0.0,1668050393.275692
220956729,SERVO12_MIN,1100.0,1668050393.27575
220956840,SERVO12_MAX,1900.0,1668050393.275861
220956893,SERVO12_TRIM,1500.0,1668050393.275914
220957124,SERVO12_REVERSED,0.0,1668050393.276145
220957178,SERVO12_FUNCTION,0.0,1668050393.276199
220957310,SERVO13_MIN,1100.0,1668050393.276331
220957365,SERVO13_MAX,1900.0,1668050393.276386
220957500,SERVO13_TRIM,1500.0,1668050393.276521
220957571,SERVO13_REVERSED,0.0,1668050393.276592
220957667,SERVO13_FUNCTION,0.0,1668050393.276688
220957722,SERVO14_MIN,1100.0,1668050393.276743
220957831,SERVO14_MAX,1900.0,1668050393.276852
220957887,SERVO14_TRIM,1500.0,1668050393.276908
220958127,SERVO14_REVERSED,0.0,1668050393.277148
220958265,SERVO14_FUNCTION,0.0,1668050393.277286
220958323,SERVO15_MIN,1100.0,1668050393.277344
220958457,SERVO15_MAX,1900.0,1668050393.277478
220958514,SERVO15_TRIM,1500.0,1668050393.277535
220958674,SERVO15_REVERSED,0.0,1668050393.277695
220958789,SERVO15_FUNCTION,0.0,1668050393.27781
220958850,SERVO16_MIN,1100.0,1668050393.277871
220959028,SERVO16_MAX,1900.0,1668050393.278049
220959089,SERVO16_TRIM,1500.0,1668050393.27811
220959263,SERVO16_REVERSED,0.0,1668050393.278284
220959467,SERVO16_FUNCTION,0.0,1668050393.278488
220959528,SERVO_RATE,50.0,1668050393.278549
220959632,SERVO_VOLZ_MASK,0.0,1668050393.278653
220959693,SERVO_SBUS_RATE,50.0,1668050393.278714
220959876,SERVO_BLH_MASK,0.0,1668050393.278897
220960096,SERVO_BLH_AUTO,0.0,1668050393.2791169
220960282,SERVO_BLH_TEST,0.0,1668050393.279303
220960346,SERVO_BLH_TMOUT,0.0,1668050393.279367
220960488,SERVO_BLH_TRATE,10.0,1668050393.279509
220960615,SERVO_BLH_DEBUG,0.0,1668050393.279636
220960704,SERVO_BLH_OTYPE,0.0,1668050393.279725
220960843,SERVO_BLH_PORT,0.0,1668050393.279864
220961049,SERVO_BLH_POLES,14.0,1668050393.28007
220961218,SERVO_BLH_REMASK,0.0,1668050393.280239
220961289,SERVO_ROB_POSMIN,0.0,1668050393.28031
220961472,SERVO_ROB_POSMAX,4095.0,1668050393.280493
220961586,RC1_MIN,1100.0,1668050393.280607
220961658,RC1_TRIM,1500.0,1668050393.280679
220961787,RC1_MAX,1900.0,1668050393.280808
220962007,RC1_REVERSED,0.0,1668050393.281028
220962082,RC1_DZ,20.0,1668050393.281103
220962254,RC1_OPTION,0.0,1668050393.281275
220962438,RC2_MIN,1100.0,1668050393.281459
220962513,RC2_TRIM,1500.0,1668050393.281534
220962634,RC2_MAX,1900.0,1668050393.281655
220962791,RC2_REVERSED,0.0,1668050393.281812
220962865,RC2_DZ,20.0,1668050393.281886
220963082,RC2_OPTION,0.0,1668050393.282103
220963258,RC3_MIN,1100.0,1668050393.282279
220963467,RC3_TRIM,1500.0,1668050393.2824879
220963544,RC3_MAX,1900.0,1668050393.2825649
220963690,RC3_REVERSED,0.0,1668050393.282711
220963824,RC3_DZ,30.0,1668050393.282845
220964024,RC3_OPTION,0.0,1668050393.283045
220964104,RC4_MIN,1100.0,1668050393.283125
220964282,RC4_TRIM,1500.0,1668050393.283303
220964470,RC4_MAX,1900.0,1668050393.283491
220964624,RC4_REVERSED,0.0,1668050393.283645
220964703,RC4_DZ,20.0,1668050393.283724
220964836,RC4_OPTION,0.0,1668050393.2838569
220965041,RC5_MIN,1100.0,1668050393.284062
220965139,RC5_TRIM,1100.0,1668050393.28416
220965303,RC5_MAX,1900.0,1668050393.284324
220965522,RC5_REVERSED,0.0,1668050393.284543
220965645,RC5_DZ,0.0,1668050393.284666
220965783,RC5_OPTION,0.0,1668050393.284804
220965865,RC6_MIN,1100.0,1668050393.284886
220966075,RC6_TRIM,1100.0,1668050393.285096
220966260,RC6_MAX,1900.0,1668050393.285281
220966483,RC6_REVERSED,0.0,1668050393.285504
220966615,RC6_DZ,0.0,1668050393.285636
220966697,RC6_OPTION,0.0,1668050393.285718
220966836,RC7_MIN,1100.0,1668050393.285857
220967046,RC7_TRIM,1100.0,1668050393.286067
220967212,RC7_MAX,1900.0,1668050393.286233
220967459,RC7_REVERSED,0.0,1668050393.28648
220967589,RC7_DZ,0.0,1668050393.28661
220967673,RC7_OPTION,0.0,1668050393.286694
220967813,RC8_MIN,1100.0,1668050393.286834
220968018,RC8_TRIM,1100.0,1668050393.287039
220968194,RC8_MAX,1900.0,1668050393.287215
220968476,RC8_REVERSED,0.0,1668050393.287497
220968655,RC8_DZ,0.0,1668050393.287676
220968799,RC8_OPTION,0.0,1668050393.28782
220968888,RC9_MIN,1100.0,1668050393.287909
220969110,RC9_TRIM,1500.0,1668050393.288131
220981380,RC9_MAX,1900.0,1668050393.300401
220981583,RC9_REVERSED,0.0,1668050393.300604
220981742,RC9_DZ,0.0,1668050393.300763
220981891,RC9_OPTION,0.0,1668050393.300912
220982113,RC10_MIN,1100.0,1668050393.3011339
220982296,RC10_TRIM,1100.0,1668050393.301317
220982473,RC10_MAX,1900.0,1668050393.301494
220982644,RC10_REVERSED,0.0,1668050393.301665
220982814,RC10_DZ,0.0,1668050393.301835
220982943,RC10_OPTION,0.0,1668050393.301964
220983122,RC11_MIN,1100.0,1668050393.302143
220983307,RC11_TRIM,1100.0,1668050393.3023279
220983508,RC11_MAX,1900.0,1668050393.302529
220983698,RC11_REVERSED,0.0,1668050393.3027189
220983846,RC11_DZ,0.0,1668050393.302867
220984051,RC11_OPTION,0.0,1668050393.303072
220984238,RC12_MIN,1100.0,1668050393.303259
220984447,RC12_TRIM,1100.0,1668050393.303468
220984559,RC12_MAX,1900.0,1668050393.30358
220984781,RC12_REVERSED,0.0,1668050393.303802
220984967,RC12_DZ,0.0,1668050393.303988
220985104,RC12_OPTION,0.0,1668050393.304125
220985288,RC13_MIN,1100.0,1668050393.304309
220985492,RC13_TRIM,1500.0,1668050393.304513
220985635,RC13_MAX,1900.0,1668050393.304656
220985837,RC13_REVERSED,0.0,1668050393.304858
220986048,RC13_DZ,0.0,1668050393.305069
220986236,RC13_OPTION,0.0,1668050393.305257
220986445,RC14_MIN,1100.0,1668050393.305466
220986583,RC14_TRIM,1500.0,1668050393.305604
220986680,RC14_MAX,1900.0,1668050393.305701
220986922,RC14_REVERSED,0.0,1668050393.305943
220987097,RC14_DZ,0.0,1668050393.306118
220987283,RC14_OPTION,0.0,1668050393.306304
220987495,RC15_MIN,1100.0,1668050393.306516
220987642,RC15_TRIM,1500.0,1668050393.306663
220987813,RC15_MAX,1900.0,1668050393.306834
220988060,RC15_REVERSED,0.0,1668050393.307081
220988254,RC15_DZ,0.0,1668050393.307275
220988463,RC15_OPTION,0.0,1668050393.307484
220988650,RC16_MIN,1100.0,1668050393.307671
220988840,RC16_TRIM,1500.0,1668050393.307861
220989064,RC16_MAX,1900.0,1668050393.308085
220989290,RC16_REVERSED,0.0,1668050393.308311
220989502,RC16_DZ,0.0,1668050393.308523
220989652,RC16_OPTION,0.0,1668050393.308673
220989859,RC_OVERRIDE_TIME,3.0,1668050393.30888
220990190,RC_OPTIONS,0.0,1668050393.309211
220990576,VISO_TYPE,0.0,1668050393.309597
220990775,VISO_POS_X,0.0,1668050393.309796
220990961,VISO_POS_Y,0.0,1668050393.309982
220991205,VISO_POS_Z,0.0,1668050393.310226
220991429,VISO_ORIENT,0.0,1668050393.31045
220991700,TCAL_ENABLED,1.0,1668050393.310721
220991914,TCAL_TEMP_MIN,0.0,1668050393.310935
220992196,TCAL_TEMP_MAX,0.0,1668050393.311217
220992383,TCAL_BARO_EXP,0.0,1668050393.311404
220992539,SRTL_ACCURACY,2.0,1668050393.31156
220992687,SRTL_POINTS,300.0,1668050393.311708
220992850,PILOT_SPEED_DN,0.0,1668050393.311871
220993084,LAND_ALT_LOW,1000.0,1668050393.312105
220993284,FHLD_XY_P,0.20000000298023224,1668050393.312305
220993506,FHLD_XY_I,0.30000001192092896,1668050393.312527
220993660,FHLD_XY_IMAX,3000.0,1668050393.312681
220993825,FHLD_XY_FILT_HZ,5.0,1668050393.312846
220994065,FHLD_FLOW_MAX,0.6000000238418579,1668050393.313086
220994269,FHLD_FILT_HZ,5.0,1668050393.3132899
220994532,FHLD_QUAL_MIN,10.0,1668050393.313553
220994813,FHLD_BRAKE_RATE,8.0,1668050393.313834
220996128,FOLL_ENABLE,0.0,1668050393.315149
220996485,AUTOTUNE_AXES,0.0,1668050393.315506
220996645,AUTOTUNE_AGGR,0.10000000149011612,1668050393.315666
220996818,AUTOTUNE_MIN_D,0.0010000000474974513,1668050393.315839
220997520,SCR_ENABLE,0.0,1668050393.316541
220997680,TUNE_MIN,0.0,1668050393.316701
220997853,TUNE_MAX,0.0,1668050393.316874
220999306,OA_TYPE,0.0,1668050393.318327
221000435,SID_AXIS,0.0,1668050393.319456
221000690,FS_VIBE_ENABLE,1.0,1668050393.319711
221001057,FS_OPTIONS,0.0,1668050393.320078
221001426,ZIGZAG_AUTO_PUMP,0.0,1668050393.320447
221001544,CAM_RC_TYPE,0.0,1668050393.320565
221001641,FFT_ENABLE,0.0,1668050393.320662
221011843,MOT_THST_HOVER,0.1599999964237213,1668050393.330864
227197129,MOT_THST_HOVER,0.1599999964237213,1668050399.51615
233047799,MOT_THST_HOVER,0.1599999964237213,1668050405.36682
238314999,MOT_THST_HOVER,0.1599999964237213,1668050410.63402
243001806,STAT_RUNTIME,2672.0,1668050415.320827
246434612,MOT_THST_HOVER,0.1599999964237213,1668050418.753633
246464705,MOT_THST_HOVER,0.1599999964237213,1668050418.783726
252799189,MOT_THST_HOVER,0.1599999964237213,1668050425.11821
258402629,MOT_THST_HOVER,0.1599999964237213,1668050430.72165
273035770,STAT_RUNTIME,2703.0,1668050445.354791
289732983,MOT_THST_HOVER,0.1599999964237213,1668050462.052004
303047558,STAT_RUNTIME,2733.0,1668050475.366579
334047460,STAT_RUNTIME,2764.0,1668050506.366481
364887476,STAT_FLTTIME,18.0,1668050537.206497
364889480,STAT_RUNTIME,2794.0,1668050537.208501
382089056,COMPASS_LEARN,0.0,1668050554.408077
394889745,STAT_FLTTIME,48.0,1668050567.208766
394891471,STAT_RUNTIME,2824.0,1668050567.210492
424894301,STAT_FLTTIME,78.0,1668050597.213322
424894804,STAT_RUNTIME,2854.0,1668050597.213825
455891794,STAT_FLTTIME,109.0,1668050628.210815
455892442,STAT_RUNTIME,2885.0,1668050628.211463
486891791,STAT_FLTTIME,140.0,1668050659.210812
486892234,STAT_RUNTIME,2916.0,1668050659.211255
517727339,STAT_FLTTIME,171.0,1668050690.04636
517729687,STAT_RUNTIME,2947.0,1668050690.048708
521425599,MOT_THST_HOVER,0.15895594656467438,1668050693.74462
547743583,STAT_FLTTIME,173.0,1668050720.062604
547745735,STAT_RUNTIME,2977.0,1668050720.064756
578743367,STAT_RUNTIME,3008.0,1668050751.062388
602969736,COMPASS_LEARN,3.0,1668050775.288757
602970310,COMPASS_LEARN,3.0,1668050775.289331
609743171,STAT_RUNTIME,3039.0,1668050782.062192
640743226,STAT_RUNTIME,3070.0,1668050813.062247
671582974,STAT_RUNTIME,3101.0,1668050843.901995
702583368,STAT_RUNTIME,3132.0,1668050874.902389
733583088,STAT_RUNTIME,3163.0,1668050905.902109
763585290,STAT_FLTTIME,187.0,1668050935.904311
763585688,STAT_RUNTIME,3193.0,1668050935.904709
794585323,STAT_FLTTIME,218.0,1668050966.904344
794585697,STAT_RUNTIME,3224.0,1668050966.904718
825585470,STAT_FLTTIME,249.0,1668050997.904491
825585809,STAT_RUNTIME,3255.0,1668050997.90483
856423630,STAT_FLTTIME,280.0,1668051028.742651
856425333,STAT_RUNTIME,3286.0,1668051028.744354
869122772,COMPASS_OFS_X,67.49866485595703,1668051041.441793
869122798,COMPASS_OFS_Y,94.22216033935547,1668051041.441819
869122885,COMPASS_OFS_Z,-104.88538360595703,1668051041.441906
869123138,COMPASS_DEV_ID,658953.0,1668051041.442159
869123275,COMPASS_SCALE,0.0,1668051041.442296
869123589,COMPASS_LEARN,0.0,1668051041.44261
887428252,STAT_FLTTIME,311.0,1668051059.747273
887430175,STAT_RUNTIME,3317.0,1668051059.749196
918427939,STAT_FLTTIME,342.0,1668051090.74696
918428371,STAT_RUNTIME,3348.0,1668051090.747392
949423580,STAT_FLTTIME,372.0,1668051121.742601
949425491,STAT_RUNTIME,3379.0,1668051121.744512
949823030,MOT_THST_HOVER,0.15895594656467438,1668051122.142051
979437212,STAT_FLTTIME,375.0,1668051151.756233
979437636,STAT_RUNTIME,3409.0,1668051151.756657
1010277834,STAT_FLTTIME,406.0,1668051182.596855
1010279440,STAT_RUNTIME,3440.0,1668051182.598461
1040277770,STAT_FLTTIME,436.0,1668051212.596791
1040279408,STAT_RUNTIME,3470.0,1668051212.598429
1070279270,STAT_FLTTIME,466.0,1668051242.598291
1070279693,STAT_RUNTIME,3500.0,1668051242.5987139
1101279417,STAT_FLTTIME,497.0,1668051273.598438
1101279755,STAT_RUNTIME,3531.0,1668051273.598776
1132277929,STAT_FLTTIME,528.0,1668051304.59695
1132279717,STAT_RUNTIME,3562.0,1668051304.598738
1163117584,STAT_FLTTIME,559.0,1668051335.436605
1163117915,STAT_RUNTIME,3593.0,1668051335.436936
1174312744,MOT_THST_HOVER,0.15895594656467438,1668051346.631765
1193132515,STAT_FLTTIME,568.0,1668051365.451536
1193132800,STAT_RUNTIME,3623.0,1668051365.451821
1224132136,STAT_RUNTIME,3654.0,1668051396.451157
1255132181,STAT_RUNTIME,3685.0,1668051427.451202
1286132139,STAT_RUNTIME,3716.0,1668051458.45116
1317132176,STAT_RUNTIME,3747.0,1668051489.451197
