TimeUS,Lat,Lng,Alt,RelHomeAlt,RelOriginAlt,timestamp
221061930.0,14.083778299999999,100.42014979999999,10.779999732971191,-0.02145925909280777,0.17854073643684387,1668050393.380951
221161523.0,14.083778299999999,100.42014979999999,10.829999923706055,0.025620348751544952,0.2256203442811966,1668050393.480544
221261538.0,14.083778299999999,100.42014979999999,10.880000114440918,0.07272034138441086,0.2727203369140625,1668050393.580559
221361350.0,14.0837782,100.42014979999999,10.929999351501465,0.12140294164419174,0.3214029371738434,1668050393.680371
221461342.0,14.0837782,100.42014979999999,10.969999313354492,0.16998186707496643,0.3699818551540375,1668050393.780363
221561403.0,14.0837782,100.42014979999999,11.019999504089355,0.2181301712989807,0.41813015937805176,1668050393.880424
221661339.0,14.0837782,100.42014979999999,11.069999694824219,0.2643904685974121,0.46439045667648315,1668050393.98036
221761334.0,14.0837782,100.42014979999999,11.109999656677246,0.30873388051986694,0.508733868598938,1668050394.080355
221861289.0,14.0837782,100.42014979999999,11.15999984741211,0.3513908386230469,0.5513908267021179,1668050394.18031
221961686.0,14.0837782,100.42014979999999,11.199999809265137,0.39241278171539307,0.5924127697944641,1668050394.280707
222061403.0,14.0837781,100.42014979999999,11.239999771118164,0.4333500862121582,0.6333500742912292,1668050394.380424
222161390.0,14.0837781,100.4201499,11.279999732971191,0.4727582335472107,0.6727582216262817,1668050394.480411
222261347.0,14.083777999999999,100.42014999999999,11.319999694824219,0.5118400454521179,0.711840033531189,1668050394.580368
222361519.0,14.083777999999999,100.42014999999999,11.359999656677246,0.5500947833061218,0.7500947713851929,1668050394.68054
222461439.0,14.0837779,100.42014999999999,11.389999389648438,0.5851578712463379,0.7851578593254089,1668050394.78046
222561408.0,14.0837779,100.42014999999999,11.420000076293945,0.6199812889099121,0.8199812769889832,1668050394.880429
222661519.0,14.0837778,100.42014999999999,11.460000038146973,0.6529874801635742,0.8529874682426453,1668050394.98054
222761344.0,14.0837778,100.42014999999999,11.489999771118164,0.6858067512512207,0.8858067393302917,1668050395.080365
222861440.0,14.083777699999999,100.4201501,11.519999504089355,0.7171436548233032,0.9171436429023743,1668050395.180461
222961473.0,14.083777699999999,100.4201501,11.550000190734863,0.7460030317306519,0.9460030198097229,1668050395.280494
223061717.0,14.0837776,100.4201501,11.579999923706055,0.7747220993041992,0.9747220873832703,1668050395.380738
223161682.0,14.0837776,100.4201501,11.609999656677246,0.8021768927574158,1.0021768808364868,1668050395.4807029
223261414.0,14.0837776,100.4201501,11.630000114440918,0.8290807604789734,1.0290807485580444,1668050395.580435
223361638.0,14.0837776,100.4201501,11.65999984741211,0.8544774651527405,1.0544774532318115,1668050395.680659
223461387.0,14.0837776,100.4201501,11.679999351501465,0.8788867592811584,1.0788867473602295,1668050395.780408
223561390.0,14.0837776,100.42014999999999,11.710000038146973,0.9012710452079773,1.1012710332870483,1668050395.880411
223661357.0,14.0837776,100.42014999999999,11.729999542236328,0.923498809337616,1.123498797416687,1668050395.980378
223761437.0,14.0837775,100.42014999999999,11.75,0.9445304274559021,1.1445304155349731,1668050396.080458
223861358.0,14.0837775,100.42014999999999,11.769999504089355,0.9663483500480652,1.1663483381271362,1668050396.180379
223961403.0,14.083777399999999,100.42014999999999,11.789999961853027,0.9881169199943542,1.1881169080734253,1668050396.2804239
224061674.0,14.083777399999999,100.4201501,11.809999465942383,1.0086281299591064,1.2086281776428223,1668050396.380695
224161368.0,14.083777399999999,100.42014999999999,11.829999923706055,1.0287829637527466,1.2287830114364624,1668050396.4803889
224261409.0,14.083777399999999,100.42014999999999,11.84999942779541,1.047709584236145,1.2477096319198608,1668050396.58043
227273587.0,14.0837766,100.42014979999999,12.699999809265137,1.8945119380950928,2.0945119857788086,1668050399.592608
227373332.0,14.083776499999999,100.42014979999999,12.699999809265137,1.899705171585083,2.099705219268799,1668050399.692353
227473356.0,14.083776499999999,100.4201497,12.699999809265137,1.8965058326721191,2.096505880355835,1668050399.792377
227573400.0,14.083776499999999,100.4201497,12.6899995803833,1.887488842010498,2.087488889694214,1668050399.892421
227673260.0,14.083776499999999,100.4201497,12.679999351501465,1.8738367557525635,2.0738368034362793,1668050399.992281
227773387.0,14.083776499999999,100.4201497,12.65999984741211,1.857574224472046,2.0575742721557617,1668050400.092408
227873310.0,14.083776499999999,100.4201497,12.639999389648438,1.8396368026733398,2.0396368503570557,1668050400.192331
227973318.0,14.083776499999999,100.42014979999999,12.619999885559082,1.8193840980529785,2.0193841457366943,1668050400.292339
228073397.0,14.0837766,100.42014979999999,12.59999942779541,1.7983988523483276,1.9983989000320435,1668050400.392418
228173472.0,14.0837766,100.42014979999999,12.579999923706055,1.7776278257369995,1.9776278734207153,1668050400.492493
228273193.0,14.0837766,100.42014979999999,12.559999465942383,1.7576868534088135,1.9576869010925293,1668050400.5922139
228373234.0,14.0837766,100.42014979999999,12.539999961853027,1.7388865947723389,1.9388866424560547,1668050400.692255
228473365.0,14.0837766,100.42014979999999,12.529999732971191,1.7203742265701294,1.9203742742538452,1668050400.792386
228573369.0,14.083776499999999,100.42014979999999,12.50999927520752,1.7025028467178345,1.9025028944015503,1668050400.89239
228673617.0,14.083776499999999,100.42014979999999,12.489999771118164,1.6847954988479614,1.8847955465316772,1668050400.9926379
228773425.0,14.083776499999999,100.42014979999999,12.469999313354492,1.6680576801300049,1.8680577278137207,1668050401.092446
228873396.0,14.083776499999999,100.42014979999999,12.460000038146973,1.6513392925262451,1.851339340209961,1668050401.192417
228973294.0,14.0837766,100.4201497,12.4399995803833,1.6347200870513916,1.8347201347351074,1668050401.292315
229073492.0,14.083776499999999,100.4201497,12.420000076293945,1.6186318397521973,1.818631887435913,1668050401.392513
229173292.0,14.083776499999999,100.4201497,12.40999984741211,1.603896141052246,1.803896188735962,1668050401.492313
229273368.0,14.0837764,100.4201497,12.389999389648438,1.5885396003723145,1.7885396480560303,1668050401.5923889
229373363.0,14.0837764,100.4201497,11.109999656677246,0.30571192502975464,nan,1668050401.692384
229473317.0,14.0837764,100.4201497,11.079999923706055,0.27295708656311035,nan,1668050401.792338
229573353.0,14.0837763,100.4201497,10.84999942779541,0.040943559259176254,nan,1668050401.892374
229673341.0,14.0837763,100.4201497,11.09999942779541,0.2920640707015991,nan,1668050401.992362
229773381.0,14.0837763,100.4201497,11.0,0.1965290904045105,nan,1668050402.092402
229873221.0,14.0837763,100.4201496,10.960000038146973,0.15558552742004395,nan,1668050402.192242
229973353.0,14.083776199999999,100.4201497,11.0,0.19106994569301605,nan,1668050402.292374
230073376.0,14.083776199999999,100.4201497,11.010000228881836,0.20471780002117157,nan,1668050402.392397
233087074.0,14.0837753,100.420149,12.569999694824219,1.7641490697860718,1.9641491174697876,1668050405.406095
233186769.0,14.0837752,100.420149,12.559999465942383,1.7532100677490234,1.9532101154327393,1668050405.50579
233286722.0,14.0837752,100.420149,12.539999961853027,1.7331560850143433,1.933156132698059,1668050405.605743
233387077.0,14.083775099999999,100.420149,12.50999927520752,1.707810640335083,1.9078106880187988,1668050405.706098
233486856.0,14.083775099999999,100.420149,12.489999771118164,1.6800355911254883,1.880035638809204,1668050405.805877
233586872.0,14.083775099999999,100.420149,12.460000038146973,1.6504043340682983,1.8504043817520142,1668050405.905893
233686778.0,14.083775,100.4201489,12.429999351501465,1.620525598526001,1.8205256462097168,1668050406.005799
233786773.0,14.083775,100.4201489,12.389999389648438,1.5899955034255981,1.789995551109314,1668050406.105794
233886671.0,14.083775,100.4201489,12.359999656677246,1.5592856407165527,1.7592856884002686,1668050406.205692
233986666.0,14.083775,100.42014879999999,12.329999923706055,1.5281929969787598,1.7281930446624756,1668050406.305687
234086807.0,14.0837749,100.42014879999999,12.300000190734863,1.497116208076477,1.6971162557601929,1668050406.405828
234186731.0,14.0837749,100.42014879999999,12.269999504089355,1.4661413431167603,1.666141390800476,1668050406.505752
234286713.0,14.0837749,100.42014879999999,12.239999771118164,1.4362913370132446,1.6362913846969604,1668050406.6057339
234387175.0,14.083774799999999,100.4201487,12.210000038146973,1.4072941541671753,1.6072942018508911,1668050406.706196
234486745.0,14.083774799999999,100.42014879999999,12.179999351501465,1.3789024353027344,1.5789024829864502,1668050406.805766
234586852.0,14.0837747,100.4201487,12.15999984741211,1.3512192964553833,1.5512193441390991,1668050406.905873
234686781.0,14.0837747,100.4201487,12.130000114440918,1.3245775699615479,1.5245776176452637,1668050407.005802
234786745.0,14.0837746,100.4201487,12.09999942779541,1.2990212440490723,1.499021291732788,1668050407.105766
234886733.0,14.0837746,100.4201487,12.079999923706055,1.2745000123977661,1.474500060081482,1668050407.205754
234986667.0,14.0837746,100.4201487,12.059999465942383,1.2505098581314087,1.4505099058151245,1668050407.305688
235086781.0,14.083774499999999,100.42014859999999,12.029999732971191,1.2273458242416382,1.427345871925354,1668050407.405802
235186821.0,14.083774499999999,100.42014859999999,12.00999927520752,1.2056409120559692,1.405640959739685,1668050407.505842
235286934.0,14.0837744,100.4201487,11.989999771118164,1.1850460767745972,1.385046124458313,1668050407.605955
235387035.0,14.0837744,100.42014859999999,11.969999313354492,1.1653321981430054,1.3653322458267212,1668050407.7060559
235486855.0,14.0837744,100.42014859999999,11.949999809265137,1.147186040878296,1.3471860885620117,1668050407.805876
235586741.0,14.0837744,100.42014859999999,11.929999351501465,1.1298189163208008,1.3298189640045166,1668050407.905762
235686770.0,14.0837743,100.4201485,11.920000076293945,1.1124123334884644,1.3124123811721802,1668050408.005791
238399062.0,14.0837738,100.4201484,11.920000076293945,1.1153630018234253,1.3153630495071411,1668050410.718083
238499427.0,14.0837738,100.4201485,11.90999984741211,1.1039060354232788,1.3039060831069946,1668050410.818448
238598815.0,14.0837738,100.4201485,11.889999389648438,1.0874876976013184,1.2874877452850342,1668050410.917836
238698894.0,14.0837737,100.4201485,11.869999885559082,1.0680112838745117,1.2680113315582275,1668050411.017915
238798946.0,14.083773599999999,100.4201485,11.84999942779541,1.0466139316558838,1.2466139793395996,1668050411.117967
238898895.0,14.083773599999999,100.4201485,11.829999923706055,1.0238136053085327,1.2238136529922485,1668050411.217916
238998885.0,14.083773599999999,100.4201485,11.800000190734863,0.9992473721504211,1.1992473602294922,1668050411.317906
239098852.0,14.083773599999999,100.4201485,11.779999732971191,0.9749131798744202,1.1749131679534912,1668050411.417873
239198904.0,14.0837735,100.4201485,11.75,0.949916422367096,1.149916410446167,1668050411.517925
239298900.0,14.0837735,100.42014859999999,11.729999542236328,0.9262205958366394,1.1262205839157104,1668050411.6179209
239398870.0,14.0837735,100.4201485,11.710000038146973,0.9033187031745911,1.103318691253662,1668050411.717891
239498993.0,14.0837734,100.42014859999999,11.6899995803833,0.8808524012565613,1.0808523893356323,1668050411.818014
239598875.0,14.083773299999999,100.42014859999999,11.65999984741211,0.8581675887107849,1.058167576789856,1668050411.917896
239698948.0,14.083773299999999,100.4201487,11.639999389648438,0.8370576500892639,1.037057638168335,1668050412.017969
239798866.0,14.083773299999999,100.4201487,11.619999885559082,0.815175473690033,1.015175461769104,1668050412.117887
239898830.0,14.083773299999999,100.4201487,11.59999942779541,0.7952138185501099,0.9952138066291809,1668050412.217851
239998999.0,14.083773299999999,100.4201487,11.579999923706055,0.7753342390060425,0.9753342270851135,1668050412.31802
240098819.0,14.083773299999999,100.4201487,11.559999465942383,0.7558291554450989,0.9558291435241699,1668050412.41784
240198835.0,14.083773299999999,100.4201487,11.539999961853027,0.7363388538360596,0.9363388419151306,1668050412.517856
240298829.0,14.083773299999999,100.4201487,11.519999504089355,0.7186821103096008,0.9186820983886719,1668050412.61785
240398930.0,14.083773299999999,100.42014859999999,11.50999927520752,0.701692521572113,0.9016925096511841,1668050412.717951
240498933.0,14.083773299999999,100.42014859999999,11.489999771118164,0.6854722499847412,0.8854722380638123,1668050412.817954
240599047.0,14.0837732,100.42014859999999,11.469999313354492,0.6687290668487549,0.8687290549278259,1668050412.918068
240698874.0,14.0837732,100.42014859999999,11.460000038146973,0.6523407697677612,0.8523407578468323,1668050413.017895
240799096.0,14.0837732,100.42014859999999,11.4399995803833,0.6359782218933105,0.8359782099723816,1668050413.118117
240898851.0,14.0837732,100.42014859999999,11.429999351501465,0.62027508020401,0.820275068283081,1668050413.217872
240998987.0,14.0837731,100.4201487,11.40999984741211,0.6044613718986511,0.8044613599777222,1668050413.318008
241098873.0,14.0837731,100.4201487,11.389999389648438,0.5883458852767944,0.7883458733558655,1668050413.417894
241198846.0,14.0837731,100.4201487,11.380000114440918,0.5726994872093201,0.7726994752883911,1668050413.517867
241298889.0,14.0837731,100.4201487,11.359999656677246,0.5574358701705933,0.7574358582496643,1668050413.61791
241399032.0,14.0837731,100.42014859999999,11.34999942779541,0.5434982180595398,0.7434982061386108,1668050413.718053
241499100.0,14.0837731,100.42014859999999,11.329999923706055,0.529864490032196,0.7298644781112671,1668050413.818121
241598842.0,14.083772999999999,100.42014859999999,11.319999694824219,0.5167616605758667,0.7167616486549377,1668050413.917863
241698827.0,14.083772999999999,100.4201485,11.309999465942383,0.5025933980941772,0.7025933861732483,1668050414.017848
241798843.0,14.083772999999999,100.4201485,11.289999961853027,0.48899132013320923,0.6889913082122803,1668050414.117864
241898825.0,14.083772999999999,100.4201485,11.279999732971191,0.4765527844429016,0.6765527725219727,1668050414.217846
241999011.0,14.083772999999999,100.4201485,11.269999504089355,0.4650721549987793,0.6650721430778503,1668050414.318032
242098943.0,14.083772999999999,100.4201485,11.25999927520752,0.4536500573158264,0.6536500453948975,1668050414.417964
242198893.0,14.0837729,100.42014859999999,11.25,0.4414181113243103,0.6414180994033813,1668050414.517914
242298818.0,14.0837729,100.42014859999999,11.229999542236328,0.4289056658744812,0.6289056539535522,1668050414.617839
242399013.0,14.0837729,100.42014859999999,11.219999313354492,0.41744470596313477,0.6174446940422058,1668050414.718034
242499102.0,14.0837729,100.42014859999999,11.210000038146973,0.40609753131866455,0.6060975193977356,1668050414.818123
242598783.0,14.0837728,100.42014859999999,11.199999809265137,0.3952491879463196,0.5952491760253906,1668050414.917804
242699045.0,14.0837728,100.42014859999999,11.1899995803833,0.38472980260849,0.584729790687561,1668050415.018066
242798982.0,14.0837728,100.42014859999999,11.179999351501465,0.3749017119407654,0.5749017000198364,1668050415.118003
242899091.0,14.0837728,100.42014859999999,11.170000076293945,0.3651033043861389,0.56510329246521,1668050415.218112
242999055.0,14.0837728,100.4201485,11.15999984741211,0.3559878468513489,0.5559878349304199,1668050415.318076
243098900.0,14.0837728,100.4201485,11.149999618530273,0.3472517728805542,0.5472517609596252,1668050415.417921
243198857.0,14.083772699999999,100.4201485,11.139999389648438,0.3378467559814453,0.5378467440605164,1668050415.517878
243298959.0,14.083772699999999,100.42014859999999,11.130000114440918,0.328368604183197,0.5283685922622681,1668050415.61798
243398842.0,14.083772699999999,100.42014859999999,11.119999885559082,0.31975191831588745,0.5197519063949585,1668050415.717863
246511096.0,14.083772699999999,100.4201489,10.989999771118164,0.18449631333351135,0.3844963014125824,1668050418.830117
246610836.0,14.083772699999999,100.4201489,10.989999771118164,0.18046164512634277,0.3804616332054138,1668050418.929857
246710957.0,14.083772699999999,100.420149,10.979999542236328,0.17587321996688843,0.3758732080459595,1668050419.029978
246810739.0,14.083772699999999,100.420149,10.969999313354492,0.1692790389060974,0.36927902698516846,1668050419.12976
246910828.0,14.083772699999999,100.420149,10.969999313354492,0.16295546293258667,0.3629554510116577,1668050419.229849
247010719.0,14.0837726,100.420149,10.960000038146973,0.15531209111213684,0.3553120791912079,1668050419.32974
247110770.0,14.0837726,100.42014909999999,10.949999809265137,0.14820441603660583,0.3482044041156769,1668050419.429791
247210877.0,14.0837726,100.42014909999999,10.9399995803833,0.13976982235908508,0.33976981043815613,1668050419.529898
247310763.0,14.0837726,100.42014909999999,10.9399995803833,0.13127684593200684,0.3312768340110779,1668050419.6297839
247410658.0,14.083772699999999,100.42014909999999,10.929999351501465,0.12310083955526352,0.32310083508491516,1668050419.7296789
247510686.0,14.083772699999999,100.4201492,10.920000076293945,0.11549287289381027,0.3154928684234619,1668050419.829707
247610711.0,14.083772699999999,100.4201492,10.90999984741211,0.10855355113744736,0.308553546667099,1668050419.929732
247710907.0,14.083772699999999,100.4201492,10.90999984741211,0.10193749517202377,0.3019374907016754,1668050420.029928
247810738.0,14.083772699999999,100.4201492,10.899999618530273,0.09536569565534592,0.29536569118499756,1668050420.129759
247910739.0,14.083772699999999,100.42014909999999,10.889999389648438,0.08903797715902328,0.2890379726886749,1668050420.22976
248010686.0,14.083772699999999,100.4201492,10.889999389648438,0.08348094671964645,0.2834809422492981,1668050420.329707
248110812.0,14.083772699999999,100.4201492,10.880000114440918,0.07734441012144089,0.27734440565109253,1668050420.429833
248211068.0,14.083772699999999,100.4201492,10.880000114440918,0.07174810022115707,0.2717480957508087,1668050420.530089
248310700.0,14.083772699999999,100.4201492,10.869999885559082,0.06736140698194504,0.2673614025115967,1668050420.629721
248410825.0,14.0837728,100.4201492,10.869999885559082,0.06293805688619614,0.2629380524158478,1668050420.729846
248510703.0,14.0837728,100.4201492,10.859999656677246,0.057837896049022675,0.2578378915786743,1668050420.829724
248610740.0,14.0837728,100.4201492,10.859999656677246,0.05291973799467087,0.2529197335243225,1668050420.929761
248710935.0,14.0837729,100.42014929999999,10.84999942779541,0.04816120117902756,0.2481611967086792,1668050421.029956
248810737.0,14.0837729,100.42014929999999,10.84999942779541,0.043708063662052155,0.2437080591917038,1668050421.129758
248910664.0,14.0837729,100.42014929999999,10.84000015258789,0.039429910480976105,0.23942990601062775,1668050421.229685
249010829.0,14.0837729,100.42014929999999,10.84000015258789,0.03505399078130722,0.23505398631095886,1668050421.32985
249110743.0,14.0837729,100.42014929999999,10.84000015258789,0.030645422637462616,0.23064541816711426,1668050421.429764
249210774.0,14.0837729,100.42014929999999,10.829999923706055,0.027224458754062653,0.2272244542837143,1668050421.529795
249310820.0,14.0837729,100.42014929999999,10.829999923706055,0.024219699203968048,0.2242196947336197,1668050421.629841
249410779.0,14.0837729,100.42014929999999,10.829999923706055,0.021122582256793976,0.22112257778644562,1668050421.7298
249510688.0,14.0837729,100.4201492,10.819999694824219,0.018720753490924835,0.21872074902057648,1668050421.829709
249610764.0,14.0837729,100.4201492,10.819999694824219,0.016315527260303497,0.21631552278995514,1668050421.929785
249710793.0,14.0837729,100.4201492,10.819999694824219,0.01342744380235672,0.21342743933200836,1668050422.029814
249810788.0,14.0837729,100.4201492,10.819999694824219,0.010517306625843048,0.2105173021554947,1668050422.129809
252822875.0,14.083773299999999,100.4201492,10.679999351501465,-0.12118484079837799,0.07881515473127365,1668050425.141896
252922662.0,14.083773299999999,100.4201492,10.679999351501465,-0.12419580668210983,0.07580418884754181,1668050425.241683
253022700.0,14.083773299999999,100.42014929999999,10.679999351501465,-0.12582558393478394,0.07417440414428711,1668050425.341721
253122669.0,14.0837734,100.42014929999999,10.679999351501465,-0.12725088000297546,0.07274912297725677,1668050425.44169
253222814.0,14.0837734,100.42014929999999,10.679999351501465,-0.12774014472961426,0.07225984334945679,1668050425.541835
253322710.0,14.0837734,100.42014929999999,10.679999351501465,-0.1277487576007843,0.07225123047828674,1668050425.641731
253422673.0,14.0837734,100.42014929999999,10.679999351501465,-0.1275063455104828,0.07249365746974945,1668050425.741694
253522693.0,14.0837734,100.42014929999999,10.679999351501465,-0.12528833746910095,0.07471166551113129,1668050425.841714
253622700.0,14.0837734,100.42014929999999,10.679999351501465,-0.12381420284509659,0.07618579268455505,1668050425.941721
253722848.0,14.0837734,100.4201494,10.679999351501465,-0.12270807474851608,0.07729192078113556,1668050426.041869
253822671.0,14.0837734,100.4201494,10.679999351501465,-0.12193749099969864,0.078062504529953,1668050426.141692
253922713.0,14.0837734,100.4201494,10.679999351501465,-0.1216689869761467,0.07833100855350494,1668050426.241734
254022750.0,14.0837735,100.4201494,10.679999351501465,-0.12098126113414764,0.079018734395504,1668050426.341771
254122815.0,14.0837735,100.4201495,10.679999351501465,-0.12012027949094772,0.07987971603870392,1668050426.4418359
254222613.0,14.0837735,100.4201495,10.6899995803833,-0.11905954778194427,0.08094044774770737,1668050426.541634
254322628.0,14.0837735,100.4201495,10.6899995803833,-0.11904247850179672,0.08095751702785492,1668050426.641649
254422729.0,14.083773599999999,100.4201495,10.6899995803833,-0.11917072534561157,0.08082927018404007,1668050426.74175
254522623.0,14.083773599999999,100.4201495,10.679999351501465,-0.12093041837215424,0.0790695771574974,1668050426.841644
254622659.0,14.083773599999999,100.4201495,10.679999351501465,-0.12319018691778183,0.07680980861186981,1668050426.94168
254722630.0,14.083773599999999,100.4201495,10.679999351501465,-0.1258096992969513,0.07419028878211975,1668050427.041651
254822615.0,14.0837737,100.4201495,10.679999351501465,-0.12729468941688538,0.07270530611276627,1668050427.141636
254922751.0,14.0837737,100.4201495,10.679999351501465,-0.12861675024032593,0.07138324528932571,1668050427.241772
255022757.0,14.0837737,100.4201495,10.679999351501465,-0.12992055714130402,0.07007943838834763,1668050427.341778
255122708.0,14.0837738,100.4201495,10.670000076293945,-0.13135725259780884,0.06864273548126221,1668050427.441729
255222611.0,14.0837738,100.4201495,10.670000076293945,-0.13254216313362122,0.06745783984661102,1668050427.541632
255322674.0,14.0837738,100.4201495,10.670000076293945,-0.13404591381549835,0.06595408171415329,1668050427.641695
255422647.0,14.0837738,100.4201496,10.670000076293945,-0.1354113668203354,0.06458862870931625,1668050427.741668
255522670.0,14.0837738,100.4201496,10.670000076293945,-0.1367643028497696,0.06323569267988205,1668050427.841691
258434875.0,14.083774199999999,100.4201495,10.539999961853027,-0.2642138600349426,-0.06421385705471039,1668050430.753896
258534764.0,14.083774199999999,100.4201495,10.539999961853027,-0.26332250237464905,-0.063322514295578,1668050430.853785
258634736.0,14.083774199999999,100.4201496,10.539999961853027,-0.2612636387348175,-0.06126365438103676,1668050430.953757
258734933.0,14.0837743,100.4201496,10.550000190734863,-0.25807952880859375,-0.05807952210307121,1668050431.053954
258834735.0,14.0837743,100.4201496,10.550000190734863,-0.25403156876564026,-0.054031576961278915,1668050431.153756
258934839.0,14.0837743,100.4201496,10.550000190734863,-0.25050538778305054,-0.05050540342926979,1668050431.25386
259034689.0,14.0837743,100.4201496,10.559999465942383,-0.246755450963974,-0.04675545170903206,1668050431.35371
259134736.0,14.0837743,100.4201496,10.559999465942383,-0.24301005899906158,-0.04301006719470024,1668050431.453757
259234810.0,14.0837743,100.4201496,10.569999694824219,-0.23991526663303375,-0.03991527110338211,1668050431.553831
259334754.0,14.0837743,100.4201496,10.569999694824219,-0.23749063909053802,-0.037490639835596085,1668050431.653775
259434848.0,14.0837743,100.4201497,10.569999694824219,-0.23385284841060638,-0.03385285288095474,1668050431.753869
259534793.0,14.0837743,100.4201497,10.569999694824219,-0.23010393977165222,-0.030103936791419983,1668050431.853814
259634891.0,14.0837744,100.4201497,10.579999923706055,-0.22766026854515076,-0.027660269290208817,1668050431.953912
259734774.0,14.0837744,100.4201497,10.579999923706055,-0.2246284931898117,-0.024628493934869766,1668050432.053795
259834790.0,14.0837744,100.4201497,10.579999923706055,-0.22091130912303925,-0.020911315456032753,1668050432.153811
259934746.0,14.0837744,100.4201497,10.59000015258789,-0.2168821096420288,-0.01688210852444172,1668050432.253767
260034779.0,14.0837744,100.4201497,10.59000015258789,-0.21215957403182983,-0.012159578502178192,1668050432.3538
260134776.0,14.0837744,100.4201497,10.59999942779541,-0.2077101767063141,-0.007710181176662445,1668050432.453797
260234741.0,14.0837744,100.4201497,10.59999942779541,-0.20323266088962555,-0.003232658375054598,1668050432.553762
260334730.0,14.0837744,100.4201497,10.609999656677246,-0.19946934282779694,0.000530658639036119,1668050432.653751
260434769.0,14.0837744,100.42014979999999,10.609999656677246,-0.19571323692798615,0.0042867520824074745,1668050432.75379
260534903.0,14.0837744,100.42014979999999,10.609999656677246,-0.19346077740192413,0.0065392181277275085,1668050432.853924
260634751.0,14.0837744,100.42014979999999,10.609999656677246,-0.19164888560771942,0.008351114578545094,1668050432.953772
260734743.0,14.0837744,100.42014979999999,10.609999656677246,-0.19036725163459778,0.009632748551666737,1668050433.053764
260834746.0,14.083774499999999,100.42014979999999,10.619999885559082,-0.18958598375320435,0.010414006188511848,1668050433.1537669
260934724.0,14.0837744,100.42014979999999,10.619999885559082,-0.1888379156589508,0.01116208452731371,1668050433.253745
261034755.0,14.0837744,100.42014979999999,10.619999885559082,-0.18850094079971313,0.011499051004648209,1668050433.353776
261134894.0,14.0837744,100.42014979999999,10.619999885559082,-0.18820416927337646,0.01179582066833973,1668050433.4539149
261234729.0,14.0837744,100.42014979999999,10.619999885559082,-0.1879851371049881,0.012014852836728096,1668050433.55375
261334815.0,14.0837744,100.42014979999999,10.619999885559082,-0.1874144822359085,0.012585513293743134,1668050433.653836
261434888.0,14.0837744,100.42014979999999,10.619999885559082,-0.18690887093544006,0.013091121800243855,1668050433.7539089
261534844.0,14.0837744,100.42014979999999,10.619999885559082,-0.18640220165252686,0.013597787357866764,1668050433.853865
261634721.0,14.0837744,100.4201497,10.619999885559082,-0.18670889735221863,0.01329109538346529,1668050433.953742
261734776.0,14.083774499999999,100.4201497,10.619999885559082,-0.18705041706562042,0.012949577532708645,1668050434.053797
261834853.0,14.083774499999999,100.4201497,10.619999885559082,-0.1870083510875702,0.012991645373404026,1668050434.153874
261934749.0,14.083774499999999,100.4201497,10.619999885559082,-0.1859550029039383,0.014044995419681072,1668050434.2537699
262034809.0,14.083774499999999,100.4201497,10.619999885559082,-0.1843809336423874,0.015619063749909401,1668050434.35383
262134772.0,14.083774499999999,100.4201497,10.619999885559082,-0.18316854536533356,0.016831452026963234,1668050434.453793
262234758.0,14.083774499999999,100.4201497,10.619999885559082,-0.18275664746761322,0.017243344336748123,1668050434.553779
262334911.0,14.083774499999999,100.4201497,10.619999885559082,-0.1818549633026123,0.01814502477645874,1668050434.653932
262434760.0,14.083774499999999,100.4201497,10.619999885559082,-0.18063145875930786,0.01936854049563408,1668050434.753781
262534753.0,14.083774499999999,100.4201497,10.630000114440918,-0.1792055368423462,0.020794454962015152,1668050434.853774
262634775.0,14.083774499999999,100.4201496,10.630000114440918,-0.17797957360744476,0.02202041819691658,1668050434.953796
262734787.0,14.083774499999999,100.4201496,10.630000114440918,-0.17759104073047638,0.022408954799175262,1668050435.053808
262834788.0,14.083774499999999,100.4201496,10.630000114440918,-0.17792585492134094,0.02207413874566555,1668050435.153809
262934750.0,14.083774499999999,100.4201496,10.630000114440918,-0.17933475971221924,0.020665239542722702,1668050435.253771
263034809.0,14.083774499999999,100.4201496,10.619999885559082,-0.18102945387363434,0.018970539793372154,1668050435.35383
263134763.0,14.083774499999999,100.4201496,10.619999885559082,-0.18250668048858643,0.01749330759048462,1668050435.453784
263234822.0,14.083774499999999,100.4201496,10.619999885559082,-0.18335777521133423,0.016642214730381966,1668050435.553843
263334779.0,14.083774499999999,100.4201496,10.619999885559082,-0.18356627225875854,0.016433728858828545,1668050435.6538
263434859.0,14.083774499999999,100.4201497,10.619999885559082,-0.1837472915649414,0.016252711415290833,1668050435.75388
263534878.0,14.083774499999999,100.4201497,10.619999885559082,-0.18399512767791748,0.01600486971437931,1668050435.853899
263634777.0,14.083774499999999,100.4201497,10.619999885559082,-0.18416856229305267,0.015831438824534416,1668050435.953798
263734767.0,14.083774499999999,100.4201497,10.619999885559082,-0.18443357944488525,0.015566419810056686,1668050436.053788
263834768.0,14.083774499999999,100.4201497,10.619999885559082,-0.18497781455516815,0.015022183768451214,1668050436.153789
263934729.0,14.0837744,100.4201497,10.619999885559082,-0.1857738494873047,0.014226149767637253,1668050436.25375
264034820.0,14.0837744,100.4201497,10.619999885559082,-0.1864752471446991,0.013524755835533142,1668050436.353841
264134817.0,14.0837744,100.42014979999999,10.619999885559082,-0.1857849508523941,0.014215042814612389,1668050436.4538379
264234707.0,14.0837744,100.42014979999999,10.619999885559082,-0.18501579761505127,0.014984198845922947,1668050436.553728
264334723.0,14.0837744,100.4201499,10.619999885559082,-0.1850108504295349,0.014989150688052177,1668050436.653744
264434774.0,14.0837743,100.4201499,10.619999885559082,-0.1854007989168167,0.01459919661283493,1668050436.753795
264534803.0,14.0837743,100.42014999999999,10.619999885559082,-0.18589535355567932,0.014104647561907768,1668050436.853824
264634745.0,14.0837743,100.42014999999999,10.619999885559082,-0.18583928048610687,0.01416071504354477,1668050436.9537659
264734794.0,14.0837743,100.4201501,10.619999885559082,-0.18519356846809387,0.014806423336267471,1668050437.053815
264834717.0,14.0837743,100.4201501,10.619999885559082,-0.18564768135547638,0.014352318830788136,1668050437.153738
264934704.0,14.0837743,100.4201501,10.619999885559082,-0.1865704506635666,0.0134295504540205,1668050437.253725
265034821.0,14.0837743,100.4201501,10.619999885559082,-0.18748678267002106,0.01251321192830801,1668050437.353842
265134773.0,14.0837743,100.4201501,10.619999885559082,-0.18872664868831635,0.011273347772657871,1668050437.453794
265234773.0,14.0837743,100.4201501,10.609999656677246,-0.19008883833885193,0.00991116277873516,1668050437.553794
265334773.0,14.0837743,100.4201502,10.609999656677246,-0.1917235404253006,0.008276456035673618,1668050437.653794
265434721.0,14.0837743,100.4201502,10.609999656677246,-0.1933986097574234,0.006601379252970219,1668050437.753742
265534944.0,14.0837743,100.4201502,10.609999656677246,-0.19504396617412567,0.0049560293555259705,1668050437.853965
265634757.0,14.0837743,100.42015029999999,10.609999656677246,-0.19526217877864838,0.0047378214076161385,1668050437.953778
265734860.0,14.0837743,100.42015029999999,10.609999656677246,-0.19580034911632538,0.004199649672955275,1668050438.053881
265834761.0,14.0837743,100.42015029999999,10.609999656677246,-0.19610898196697235,0.003891013329848647,1668050438.153782
265934767.0,14.0837743,100.42015029999999,10.609999656677246,-0.1955672651529312,0.0044327243231236935,1668050438.253788
266034766.0,14.0837743,100.42015029999999,10.609999656677246,-0.1954711228609085,0.004528870806097984,1668050438.353787
266134811.0,14.0837743,100.4201504,10.609999656677246,-0.19566096365451813,0.004339031875133514,1668050438.453832
266234806.0,14.0837743,100.42015049999999,10.609999656677246,-0.19596444070339203,0.004035549703985453,1668050438.553827
266334741.0,14.0837743,100.42015049999999,10.609999656677246,-0.19655649363994598,0.0034435000270605087,1668050438.653762
266434753.0,14.0837743,100.42015049999999,10.609999656677246,-0.19686762988567352,0.003132372396066785,1668050438.753774
266534765.0,14.0837743,100.42015049999999,10.609999656677246,-0.19717475771903992,0.0028252359479665756,1668050438.853786
266634731.0,14.0837743,100.4201506,10.609999656677246,-0.1969628632068634,0.003037139540538192,1668050438.953752
266734797.0,14.0837743,100.4201506,10.609999656677246,-0.19650427997112274,0.003495716955512762,1668050439.053818
266834943.0,14.0837743,100.4201506,10.609999656677246,-0.1959599107503891,0.004040091298520565,1668050439.153964
266934758.0,14.0837743,100.4201506,10.609999656677246,-0.19559301435947418,0.004406975582242012,1668050439.253779
267034731.0,14.0837743,100.4201506,10.609999656677246,-0.19522970914840698,0.004770283587276936,1668050439.353752
267134771.0,14.0837743,100.4201507,10.609999656677246,-0.194840207695961,0.005159792490303516,1668050439.453792
267234758.0,14.0837743,100.4201507,10.609999656677246,-0.19539976119995117,0.004600233398377895,1668050439.553779
267334698.0,14.0837743,100.4201507,10.609999656677246,-0.1953834891319275,0.004616513382643461,1668050439.653719
267434679.0,14.0837743,100.4201507,10.609999656677246,-0.19431832432746887,0.00568167120218277,1668050439.7537
267534783.0,14.0837743,100.4201507,10.609999656677246,-0.19371679425239563,0.006283205468207598,1668050439.8538039
267634817.0,14.083774199999999,100.4201507,10.609999656677246,-0.19376222789287567,0.006237773224711418,1668050439.9538379
267734922.0,14.083774199999999,100.4201507,10.609999656677246,-0.19352906942367554,0.006470926571637392,1668050440.053943
267834749.0,14.0837743,100.4201507,10.609999656677246,-0.19248290359973907,0.0075170970521867275,1668050440.15377
267934755.0,14.0837743,100.4201507,10.609999656677246,-0.19162005186080933,0.008379950188100338,1668050440.253776
268034820.0,14.083774199999999,100.4201507,10.609999656677246,-0.19075947999954224,0.009240522980690002,1668050440.353841
268134747.0,14.083774199999999,100.4201507,10.609999656677246,-0.19047969579696655,0.009520299732685089,1668050440.453768
268234794.0,14.083774199999999,100.4201506,10.609999656677246,-0.19001618027687073,0.00998381432145834,1668050440.553815
268334696.0,14.083774199999999,100.4201506,10.609999656677246,-0.19046443700790405,0.009535551071166992,1668050440.653717
268434746.0,14.0837741,100.4201506,10.609999656677246,-0.19112198054790497,0.008878020569682121,1668050440.753767
268534889.0,14.0837741,100.4201506,10.609999656677246,-0.19233644008636475,0.007663549855351448,1668050440.85391
268634856.0,14.0837741,100.4201506,10.609999656677246,-0.1930168867111206,0.006983104161918163,1668050440.953877
268734770.0,14.083774,100.4201506,10.609999656677246,-0.193968266248703,0.006031735800206661,1668050441.053791
268834745.0,14.083774,100.4201507,10.609999656677246,-0.1941727101802826,0.005827278830111027,1668050441.153766
268934767.0,14.083774,100.4201507,10.609999656677246,-0.1946299821138382,0.00537001620978117,1668050441.253788
269034733.0,14.083774,100.4201507,10.609999656677246,-0.1951066553592682,0.00489333551377058,1668050441.353754
269134792.0,14.083774,100.4201507,10.609999656677246,-0.19495698809623718,0.005043006967753172,1668050441.453813
269234758.0,14.083774,100.4201508,10.609999656677246,-0.1942283660173416,0.005771624390035868,1668050441.553779
269334729.0,14.083773899999999,100.4201509,10.609999656677246,-0.19354979693889618,0.006450202781707048,1668050441.65375
269434775.0,14.083773899999999,100.4201509,10.609999656677246,-0.1925782710313797,0.007421726360917091,1668050441.753796
269534937.0,14.083773899999999,100.4201509,10.609999656677246,-0.1923275738954544,0.007672421168535948,1668050441.853958
269634679.0,14.0837738,100.42015099999999,10.609999656677246,-0.1918024718761444,0.008197526447474957,1668050441.9537
269734836.0,14.0837738,100.42015099999999,10.609999656677246,-0.1907465010881424,0.00925350096076727,1668050442.053857
269834760.0,14.0837738,100.42015099999999,10.619999885559082,-0.18890899419784546,0.011090998537838459,1668050442.153781
269934838.0,14.0837737,100.42015099999999,10.619999885559082,-0.18753071129322052,0.012469287030398846,1668050442.253859
270034796.0,14.0837737,100.4201511,10.619999885559082,-0.1856338381767273,0.01436616014689207,1668050442.353817
270134802.0,14.0837737,100.4201511,10.619999885559082,-0.1845865100622177,0.015413482673466206,1668050442.453823
270234749.0,14.083773599999999,100.42015119999999,10.619999885559082,-0.18390780687332153,0.01609218120574951,1668050442.55377
270334734.0,14.083773599999999,100.42015119999999,10.619999885559082,-0.18395420908927917,0.016045792028307915,1668050442.653755
270434904.0,14.083773599999999,100.42015119999999,10.619999885559082,-0.1844179779291153,0.015582021325826645,1668050442.753925
270534780.0,14.083773599999999,100.4201513,10.619999885559082,-0.1843392699956894,0.01566072553396225,1668050442.853801
270634713.0,14.083773599999999,100.4201513,10.619999885559082,-0.18511326611042023,0.01488672848790884,1668050442.953734
270734762.0,14.083773599999999,100.4201513,10.619999885559082,-0.18475323915481567,0.015246759168803692,1668050443.053783
270834717.0,14.083773599999999,100.4201514,10.619999885559082,-0.18437787890434265,0.015622113831341267,1668050443.153738
270934669.0,14.083773599999999,100.4201514,10.619999885559082,-0.18381625413894653,0.01618373580276966,1668050443.25369
271034762.0,14.083773599999999,100.42015149999999,10.619999885559082,-0.1835821270942688,0.01641787216067314,1668050443.353783
271134768.0,14.083773599999999,100.4201516,10.619999885559082,-0.18369874358177185,0.016301246359944344,1668050443.453789
271234721.0,14.083773599999999,100.4201516,10.619999885559082,-0.18501456081867218,0.014985434710979462,1668050443.553742
271334788.0,14.083773599999999,100.4201516,10.619999885559082,-0.1860501766204834,0.013949812389910221,1668050443.653809
271434824.0,14.083773599999999,100.4201516,10.619999885559082,-0.18801015615463257,0.011989842168986797,1668050443.753845
271534833.0,14.083773599999999,100.4201516,10.619999885559082,-0.1893593966960907,0.010640599764883518,1668050443.853854
271634811.0,14.083773599999999,100.42015169999999,10.609999656677246,-0.1900303214788437,0.009969670325517654,1668050443.953832
271734675.0,14.083773599999999,100.42015169999999,10.609999656677246,-0.19023263454437256,0.009767353534698486,1668050444.053696
271834816.0,14.0837737,100.4201518,10.609999656677246,-0.19016216695308685,0.009837828576564789,1668050444.153837
271934770.0,14.0837737,100.4201518,10.619999885559082,-0.1898772418498993,0.010122749954462051,1668050444.253791
272034863.0,14.0837737,100.4201518,10.619999885559082,-0.18968451023101807,0.010315479710698128,1668050444.353884
272134838.0,14.0837737,100.4201519,10.619999885559082,-0.18981149792671204,0.01018850039690733,1668050444.453859
272234837.0,14.0837737,100.4201519,10.609999656677246,-0.19025540351867676,0.009744592942297459,1668050444.553858
272334759.0,14.0837737,100.420152,10.609999656677246,-0.19079433381557465,0.009205661714076996,1668050444.65378
272434718.0,14.0837737,100.420152,10.609999656677246,-0.1913897842168808,0.008610215969383717,1668050444.7537389
272534820.0,14.0837737,100.420152,10.609999656677246,-0.1917552947998047,0.008244694210588932,1668050444.853841
272634706.0,14.0837737,100.4201521,10.609999656677246,-0.1920858919620514,0.007914102636277676,1668050444.953727
272734772.0,14.0837737,100.4201521,10.609999656677246,-0.1923908144235611,0.007609183434396982,1668050445.053793
272834727.0,14.0837737,100.4201521,10.609999656677246,-0.192619189620018,0.007380807772278786,1668050445.153748
272934728.0,14.0837737,100.4201521,10.609999656677246,-0.193198099732399,0.006801896262913942,1668050445.253749
273034838.0,14.0837737,100.42015219999999,10.609999656677246,-0.193302184343338,0.006697806995362043,1668050445.353859
273134866.0,14.0837737,100.42015219999999,10.609999656677246,-0.19260413944721222,0.00739585654810071,1668050445.453887
273234752.0,14.0837737,100.42015219999999,10.609999656677246,-0.19149531424045563,0.008504684083163738,1668050445.553773
273334721.0,14.083773599999999,100.42015219999999,10.609999656677246,-0.19075055420398712,0.00924944318830967,1668050445.653742
274134820.0,14.083773599999999,100.4201523,10.619999885559082,0.010171610862016678,0.010171610862016678,1668050446.453841
274234681.0,14.083773599999999,100.42015239999999,10.609999656677246,0.008819503709673882,0.008819503709673882,1668050446.5537019
274334681.0,14.083773599999999,100.42015239999999,10.609999656677246,0.006389877293258905,0.006389877293258905,1668050446.653702
274434650.0,14.083773599999999,100.42015239999999,10.609999656677246,0.0034651870373636484,0.0034651870373636484,1668050446.753671
274534695.0,14.083773599999999,100.42015239999999,10.609999656677246,0.00017205136828124523,0.00017205136828124523,1668050446.853716
274634652.0,14.083773599999999,100.42015239999999,10.59999942779541,-0.003215102246031165,-0.003215102246031165,1668050446.953673
274734708.0,14.0837735,100.42015239999999,10.59999942779541,-0.006745972204953432,-0.006745972204953432,1668050447.053729
274834661.0,14.0837735,100.4201525,10.59000015258789,-0.010571226477622986,-0.010571226477622986,1668050447.153682
274934764.0,14.0837735,100.4201525,10.59000015258789,-0.014301473274827003,-0.014301473274827003,1668050447.253785
275034698.0,14.0837735,100.4201525,10.59000015258789,-0.018015189096331596,-0.018015189096331596,1668050447.353719
275134739.0,14.0837735,100.4201525,10.579999923706055,-0.02210240066051483,-0.02210240066051483,1668050447.45376
275234777.0,14.0837735,100.4201526,10.579999923706055,-0.025896359235048294,-0.025896359235048294,1668050447.553798
275334677.0,14.0837735,100.4201526,10.579999923706055,-0.02983381599187851,-0.02983381599187851,1668050447.653698
275434658.0,14.0837735,100.4201526,10.569999694824219,-0.033653292804956436,-0.033653292804956436,1668050447.753679
275534730.0,14.0837735,100.4201526,10.569999694824219,-0.03729821369051933,-0.03729821369051933,1668050447.853751
275634713.0,14.0837734,100.4201526,10.559999465942383,-0.04103056341409683,-0.04103056341409683,1668050447.953734
275734692.0,14.0837734,100.42015269999999,10.559999465942383,-0.045060597360134125,-0.045060597360134125,1668050448.053713
275834761.0,14.0837734,100.42015269999999,10.559999465942383,-0.04854268208146095,-0.04854268208146095,1668050448.153782
275934678.0,14.0837735,100.42015269999999,10.550000190734863,-0.05239534005522728,-0.05239534005522728,1668050448.253699
276034827.0,14.0837735,100.42015269999999,10.550000190734863,-0.05559537187218666,-0.05559537187218666,1668050448.353848
276134741.0,14.0837735,100.42015269999999,10.550000190734863,-0.0590004026889801,-0.0590004026889801,1668050448.453762
276234742.0,14.0837734,100.4201526,10.539999961853027,-0.06235245242714882,-0.06235245242714882,1668050448.553763
276334750.0,14.0837734,100.4201526,10.539999961853027,-0.06546471267938614,-0.06546471267938614,1668050448.653771
276434764.0,14.0837734,100.4201526,10.539999961853027,-0.06888583302497864,-0.06888583302497864,1668050448.753785
276534673.0,14.0837734,100.4201526,10.529999732971191,-0.0721520408987999,-0.0721520408987999,1668050448.853694
276634693.0,14.083773299999999,100.4201526,10.529999732971191,-0.07529593259096146,-0.07529593259096146,1668050448.953714
276734969.0,14.083773299999999,100.42015269999999,10.529999732971191,-0.07846367359161377,-0.07846367359161377,1668050449.05399
276834700.0,14.083773299999999,100.42015269999999,10.519999504089355,-0.08182079344987869,-0.08182079344987869,1668050449.153721
276934677.0,14.083773299999999,100.42015269999999,10.519999504089355,-0.08497077226638794,-0.08497077226638794,1668050449.2536979
277034715.0,14.083773299999999,100.42015269999999,10.519999504089355,-0.0886075496673584,-0.0886075496673584,1668050449.353736
277134771.0,14.0837732,100.42015269999999,10.510000228881836,-0.09207016229629517,-0.09207016229629517,1668050449.453792
277234746.0,14.0837732,100.42015269999999,10.510000228881836,-0.09533552080392838,-0.09533552080392838,1668050449.553767
277334784.0,14.0837732,100.42015269999999,10.510000228881836,-0.09814916551113129,-0.09814916551113129,1668050449.653805
277434717.0,14.0837731,100.4201526,10.5,-0.10113407671451569,-0.10113407671451569,1668050449.753738
277534696.0,14.0837731,100.4201526,10.5,-0.1036607176065445,-0.1036607176065445,1668050449.853717
277634759.0,14.0837731,100.42015239999999,10.5,-0.10597527027130127,-0.10597527027130127,1668050449.95378
277734692.0,14.0837731,100.42015239999999,10.5,-0.10817914456129074,-0.10817914456129074,1668050450.053713
277834679.0,14.0837731,100.42015239999999,10.489999771118164,-0.11025046557188034,-0.11025046557188034,1668050450.1536999
277934713.0,14.0837731,100.42015239999999,10.489999771118164,-0.11215780675411224,-0.11215780675411224,1668050450.2537339
278034717.0,14.0837731,100.4201525,10.489999771118164,-0.1139606237411499,-0.1139606237411499,1668050450.353738
278134839.0,14.0837731,100.4201525,10.489999771118164,-0.1155511736869812,-0.1155511736869812,1668050450.45386
278234684.0,14.0837731,100.4201525,10.489999771118164,-0.11758274585008621,-0.11758274585008621,1668050450.553705
278334654.0,14.0837731,100.4201525,10.489999771118164,-0.11923883110284805,-0.11923883110284805,1668050450.653675
278434703.0,14.0837731,100.4201526,10.479999542236328,-0.12089847773313522,-0.12089847773313522,1668050450.753724
278534879.0,14.0837731,100.4201526,10.479999542236328,-0.12292506545782089,-0.12292506545782089,1668050450.8539
278634683.0,14.083772999999999,100.42015269999999,10.479999542236328,-0.12452748417854309,-0.12452748417854309,1668050450.9537039
278734732.0,14.083772999999999,100.42015269999999,10.479999542236328,-0.12611840665340424,-0.12611840665340424,1668050451.053753
278834689.0,14.083772999999999,100.4201528,10.479999542236328,-0.1276262104511261,-0.1276262104511261,1668050451.15371
278934677.0,14.083772999999999,100.4201528,10.479999542236328,-0.12900693714618683,-0.12900693714618683,1668050451.2536979
279034668.0,14.0837731,100.42015289999999,10.469999313354492,-0.1307683140039444,-0.1307683140039444,1668050451.353689
279134693.0,14.0837731,100.42015289999999,10.469999313354492,-0.1324472427368164,-0.1324472427368164,1668050451.453714
279234773.0,14.0837731,100.42015289999999,10.469999313354492,-0.13453994691371918,-0.13453994691371918,1668050451.553794
279334657.0,14.0837732,100.4201528,10.469999313354492,-0.13648103177547455,-0.13648103177547455,1668050451.653678
279435003.0,14.0837731,100.4201528,10.469999313354492,-0.13844940066337585,-0.13844940066337585,1668050451.754024
279534754.0,14.0837732,100.4201528,10.460000038146973,-0.1400415599346161,-0.1400415599346161,1668050451.853775
279634825.0,14.0837732,100.4201528,10.460000038146973,-0.14203640818595886,-0.14203640818595886,1668050451.953846
279734719.0,14.0837732,100.4201528,10.460000038146973,-0.14306019246578217,-0.14306019246578217,1668050452.05374
279834679.0,14.0837732,100.4201528,10.460000038146973,-0.14428693056106567,-0.14428693056106567,1668050452.1536999
279934672.0,14.0837732,100.4201528,10.460000038146973,-0.14539149403572083,-0.14539149403572083,1668050452.253693
280034701.0,14.083773299999999,100.42015269999999,10.460000038146973,-0.14617116749286652,-0.14617116749286652,1668050452.353722
280134735.0,14.0837732,100.42015269999999,10.460000038146973,-0.1473109871149063,-0.1473109871149063,1668050452.453756
280234752.0,14.0837732,100.42015269999999,10.460000038146973,-0.14823263883590698,-0.14823263883590698,1668050452.553773
280334752.0,14.0837732,100.42015269999999,10.460000038146973,-0.14904768764972687,-0.14904768764972687,1668050452.653773
280434693.0,14.0837732,100.42015269999999,10.460000038146973,-0.14977240562438965,-0.14977240562438965,1668050452.753714
280534677.0,14.0837732,100.42015269999999,10.449999809265137,-0.15049083530902863,-0.15049083530902863,1668050452.853698
280634654.0,14.0837732,100.42015269999999,10.449999809265137,-0.15110993385314941,-0.15110993385314941,1668050452.953675
280734697.0,14.0837732,100.42015269999999,10.449999809265137,-0.15206995606422424,-0.15206995606422424,1668050453.053718
280834688.0,14.0837732,100.4201526,10.449999809265137,-0.15301614999771118,-0.15301614999771118,1668050453.153709
280934670.0,14.0837732,100.4201526,10.449999809265137,-0.15395565330982208,-0.15395565330982208,1668050453.253691
281034706.0,14.0837732,100.4201526,10.449999809265137,-0.15443828701972961,-0.15443828701972961,1668050453.353727
281134790.0,14.0837731,100.4201526,10.449999809265137,-0.15518338978290558,-0.15518338978290558,1668050453.453811
281234771.0,14.0837731,100.4201526,10.449999809265137,-0.15600866079330444,-0.15600866079330444,1668050453.553792
281334642.0,14.0837731,100.4201526,10.449999809265137,-0.15682505071163177,-0.15682505071163177,1668050453.653663
281434675.0,14.0837732,100.4201526,10.449999809265137,-0.1578940749168396,-0.1578940749168396,1668050453.753696
281534817.0,14.0837732,100.4201526,10.449999809265137,-0.1589793562889099,-0.1589793562889099,1668050453.853838
281634738.0,14.0837732,100.4201525,10.449999809265137,-0.15961790084838867,-0.15961790084838867,1668050453.953759
281734663.0,14.0837732,100.4201525,10.4399995803833,-0.16072441637516022,-0.16072441637516022,1668050454.053684
281834685.0,14.0837732,100.4201525,10.4399995803833,-0.16152864694595337,-0.16152864694595337,1668050454.153706
281934689.0,14.0837732,100.4201525,10.4399995803833,-0.16284912824630737,-0.16284912824630737,1668050454.25371
282034785.0,14.0837732,100.4201525,10.4399995803833,-0.16381612420082092,-0.16381612420082092,1668050454.353806
282134856.0,14.0837732,100.4201526,10.4399995803833,-0.16500569880008698,-0.16500569880008698,1668050454.453877
282234677.0,14.0837732,100.4201526,10.4399995803833,-0.16575415432453156,-0.16575415432453156,1668050454.553698
282335158.0,14.0837732,100.4201525,10.4399995803833,-0.16655269265174866,-0.16655269265174866,1668050454.654179
282434686.0,14.0837732,100.4201525,10.4399995803833,-0.16747938096523285,-0.16747938096523285,1668050454.753707
282534685.0,14.0837732,100.4201525,10.4399995803833,-0.16843420267105103,-0.16843420267105103,1668050454.853706
282634711.0,14.0837732,100.4201525,10.4399995803833,-0.16902801394462585,-0.16902801394462585,1668050454.953732
282734733.0,14.083773299999999,100.42015239999999,10.4399995803833,-0.16966472566127777,-0.16966472566127777,1668050455.053754
282834671.0,14.083773299999999,100.42015239999999,10.429999351501465,-0.17023466527462006,-0.17023466527462006,1668050455.153692
282934724.0,14.083773299999999,100.42015239999999,10.429999351501465,-0.1707552969455719,-0.1707552969455719,1668050455.253745
283034868.0,14.083773299999999,100.42015239999999,10.429999351501465,-0.17151717841625214,-0.17151717841625214,1668050455.353889
283134670.0,14.0837734,100.42015239999999,10.429999351501465,-0.17187197506427765,-0.17187197506427765,1668050455.453691
283234698.0,14.0837734,100.4201523,10.429999351501465,-0.1721840351819992,-0.1721840351819992,1668050455.553719
283334804.0,14.0837734,100.4201523,10.429999351501465,-0.17266176640987396,-0.17266176640987396,1668050455.653825
283434667.0,14.0837734,100.4201523,10.429999351501465,-0.1731387972831726,-0.1731387972831726,1668050455.753688
283534769.0,14.0837735,100.42015219999999,10.429999351501465,-0.1735379546880722,-0.1735379546880722,1668050455.85379
283634814.0,14.0837735,100.42015219999999,10.429999351501465,-0.17390026152133942,-0.17390026152133942,1668050455.953835
283734671.0,14.0837735,100.42015219999999,10.429999351501465,-0.17396873235702515,-0.17396873235702515,1668050456.053692
283834754.0,14.0837735,100.42015219999999,10.429999351501465,-0.17430120706558228,-0.17430120706558228,1668050456.153775
283934896.0,14.083773599999999,100.42015219999999,10.429999351501465,-0.1745898276567459,-0.1745898276567459,1668050456.253917
284034807.0,14.083773599999999,100.4201521,10.429999351501465,-0.17473262548446655,-0.17473262548446655,1668050456.353828
284134702.0,14.0837737,100.420152,10.429999351501465,-0.17466384172439575,-0.17466384172439575,1668050456.453723
284234680.0,14.0837737,100.420152,10.429999351501465,-0.17460869252681732,-0.17460869252681732,1668050456.553701
284335006.0,14.0837737,100.420152,10.429999351501465,-0.17477618157863617,-0.17477618157863617,1668050456.654027
284434766.0,14.0837738,100.4201519,10.429999351501465,-0.17485620081424713,-0.17485620081424713,1668050456.753787
284534691.0,14.0837738,100.4201519,10.429999351501465,-0.17440956830978394,-0.17440956830978394,1668050456.853712
284634684.0,14.0837738,100.4201518,10.429999351501465,-0.17434769868850708,-0.17434769868850708,1668050456.953705
284734740.0,14.0837738,100.4201518,10.429999351501465,-0.17418278753757477,-0.17418278753757477,1668050457.053761
284834803.0,14.083773899999999,100.4201518,10.429999351501465,-0.1745544672012329,-0.1745544672012329,1668050457.153824
284934671.0,14.083773899999999,100.4201518,10.429999351501465,-0.1744438111782074,-0.1744438111782074,1668050457.253692
285034712.0,14.083773899999999,100.4201518,10.429999351501465,-0.1740209460258484,-0.1740209460258484,1668050457.353733
285134694.0,14.083773899999999,100.42015169999999,10.429999351501465,-0.17417587339878082,-0.17417587339878082,1668050457.453715
285234663.0,14.083773899999999,100.42015169999999,10.429999351501465,-0.17414502799510956,-0.17414502799510956,1668050457.553684
285335194.0,14.083773899999999,100.42015169999999,10.429999351501465,-0.17431282997131348,-0.17431282997131348,1668050457.654215
285434667.0,14.083774,100.42015169999999,10.429999351501465,-0.17410404980182648,-0.17410404980182648,1668050457.753688
285534813.0,14.083774,100.42015169999999,10.429999351501465,-0.17386890947818756,-0.17386890947818756,1668050457.853834
285634644.0,14.083774,100.4201516,10.429999351501465,-0.17403912544250488,-0.17403912544250488,1668050457.953665
285734942.0,14.083774,100.42015149999999,10.429999351501465,-0.17441928386688232,-0.17441928386688232,1668050458.053963
285834736.0,14.083774,100.42015149999999,10.429999351501465,-0.1744498908519745,-0.1744498908519745,1668050458.153757
285934686.0,14.083774,100.42015149999999,10.429999351501465,-0.17419278621673584,-0.17419278621673584,1668050458.253707
286034790.0,14.083774,100.42015149999999,10.429999351501465,-0.1743803173303604,-0.1743803173303604,1668050458.353811
286134696.0,14.083773899999999,100.42015149999999,10.429999351501465,-0.17470932006835938,-0.17470932006835938,1668050458.453717
286234666.0,14.083773899999999,100.4201514,10.429999351501465,-0.17482972145080566,-0.17482972145080566,1668050458.553687
286334905.0,14.083773899999999,100.4201514,10.429999351501465,-0.17455270886421204,-0.17455270886421204,1668050458.653926
286434671.0,14.083773899999999,100.4201513,10.429999351501465,-0.17457188665866852,-0.17457188665866852,1668050458.753692
286534947.0,14.083773899999999,100.4201513,10.429999351501465,-0.17475374042987823,-0.17475374042987823,1668050458.853968
286634756.0,14.083774,100.4201513,10.429999351501465,-0.17509159445762634,-0.17509159445762634,1668050458.953777
286734708.0,14.083774,100.4201513,10.429999351501465,-0.17502017319202423,-0.17502017319202423,1668050459.053729
286834722.0,14.083774,100.42015119999999,10.429999351501465,-0.17476490139961243,-0.17476490139961243,1668050459.153743
286934727.0,14.083774,100.42015119999999,10.429999351501465,-0.174945667386055,-0.174945667386055,1668050459.253748
287034702.0,14.0837741,100.42015119999999,10.429999351501465,-0.1751822531223297,-0.1751822531223297,1668050459.353723
287134758.0,14.0837741,100.42015119999999,10.429999351501465,-0.17532426118850708,-0.17532426118850708,1668050459.453779
287234691.0,14.083774,100.42015119999999,10.429999351501465,-0.1750158965587616,-0.1750158965587616,1668050459.553712
287334852.0,14.083774,100.42015119999999,10.429999351501465,-0.17511239647865295,-0.17511239647865295,1668050459.653873
287434670.0,14.083774,100.42015119999999,10.429999351501465,-0.1751079261302948,-0.1751079261302948,1668050459.753691
287534897.0,14.083774,100.42015119999999,10.429999351501465,-0.17535609006881714,-0.17535609006881714,1668050459.853918
287634633.0,14.083774,100.42015119999999,10.429999351501465,-0.1751285046339035,-0.1751285046339035,1668050459.953654
287734698.0,14.083774,100.42015119999999,10.429999351501465,-0.17497456073760986,-0.17497456073760986,1668050460.053719
287834808.0,14.083774,100.42015119999999,10.429999351501465,-0.1749735325574875,-0.1749735325574875,1668050460.153829
287934712.0,14.083774,100.4201511,10.429999351501465,-0.17519603669643402,-0.17519603669643402,1668050460.253733
288034737.0,14.083774,100.4201511,10.429999351501465,-0.17516154050827026,-0.17516154050827026,1668050460.353758
288134730.0,14.0837741,100.4201511,10.429999351501465,-0.174973726272583,-0.174973726272583,1668050460.453751
288234752.0,14.0837741,100.4201511,10.429999351501465,-0.1749996840953827,-0.1749996840953827,1668050460.553773
288334934.0,14.083774,100.42015099999999,10.429999351501465,-0.17521841824054718,-0.17521841824054718,1668050460.653955
288434878.0,14.0837741,100.42015099999999,10.429999351501465,-0.17539392411708832,-0.17539392411708832,1668050460.753899
288534726.0,14.0837741,100.4201509,10.429999351501465,-0.17519064247608185,-0.17519064247608185,1668050460.853747
288634808.0,14.0837741,100.4201509,10.429999351501465,-0.1752566546201706,-0.1752566546201706,1668050460.953829
288734763.0,14.083774,100.4201509,10.429999351501465,-0.17519114911556244,-0.17519114911556244,1668050461.053784
288834756.0,14.083774,100.4201508,10.429999351501465,-0.1752825677394867,-0.1752825677394867,1668050461.153777
288934700.0,14.083774,100.4201508,10.429999351501465,-0.17554078996181488,-0.17554078996181488,1668050461.253721
289034680.0,14.083774,100.4201508,10.429999351501465,-0.17556162178516388,-0.17556162178516388,1668050461.3537009
289134691.0,14.083774,100.4201508,10.429999351501465,-0.17568142712116241,-0.17568142712116241,1668050461.453712
289234697.0,14.083774,100.4201509,10.429999351501465,-0.17569074034690857,-0.17569074034690857,1668050461.553718
289334913.0,14.083774,100.4201509,10.429999351501465,-0.17565113306045532,-0.17565113306045532,1668050461.653934
289434718.0,14.083773899999999,100.4201508,10.429999351501465,-0.17553137242794037,-0.17553137242794037,1668050461.7537389
289534697.0,14.083773899999999,100.4201508,10.429999351501465,-0.17548729479312897,-0.17548729479312897,1668050461.853718
289634741.0,14.083774,100.4201507,10.429999351501465,-0.17546381056308746,-0.17546381056308746,1668050461.953762
289746724.0,14.083774,100.4201507,10.789999961853027,0.1856108158826828,nan,1668050462.0657449
289846456.0,14.083774,100.4201506,10.639999389648438,0.03275484964251518,nan,1668050462.165477
289946609.0,14.083774,100.4201506,10.4399995803833,-0.16415297985076904,-0.16415297985076904,1668050462.26563
290046638.0,14.083774,100.4201506,10.449999809265137,-0.1532202661037445,-0.1532202661037445,1668050462.365659
290146659.0,14.0837741,100.42015049999999,10.460000038146973,-0.1448790729045868,-0.1448790729045868,1668050462.46568
