TimeUS,Vcc,VServo,Flags,Safety,timestamp
221040774.0,4.982226371765137,5.182000160217285,7.0,2.0,1668050393.359795
221158465.0,4.990283012390137,5.177000045776367,7.0,2.0,1668050393.477486
221258422.0,5.012841701507568,5.182000160217285,7.0,2.0,1668050393.577443
221358439.0,5.017675876617432,5.184000015258789,7.0,2.0,1668050393.67746
221458415.0,5.012841701507568,5.182000160217285,7.0,2.0,1668050393.777436
221558774.0,5.014452934265137,5.184000015258789,7.0,2.0,1668050393.877795
221658338.0,5.020898342132568,5.182000160217285,7.0,2.0,1668050393.977359
221758628.0,5.017675876617432,5.182000160217285,7.0,2.0,1668050394.0776489
221858830.0,5.020898342132568,5.182000160217285,7.0,2.0,1668050394.177851
221958679.0,5.017675876617432,5.179000377655029,7.0,2.0,1668050394.2777
222058649.0,5.012841701507568,5.182000160217285,7.0,2.0,1668050394.37767
222158481.0,5.017675876617432,5.184000015258789,7.0,2.0,1668050394.4775019
222258750.0,5.012841701507568,5.179000377655029,7.0,2.0,1668050394.577771
222358471.0,5.016064167022705,5.182000160217285,7.0,2.0,1668050394.677492
222458766.0,5.017675876617432,5.182000160217285,7.0,2.0,1668050394.777787
222558486.0,5.017675876617432,5.184000015258789,7.0,2.0,1668050394.877507
222658732.0,5.020898342132568,5.184000015258789,7.0,2.0,1668050394.977753
222758591.0,5.020898342132568,5.182000160217285,7.0,2.0,1668050395.077612
222858361.0,5.019287109375,5.184000015258789,7.0,2.0,1668050395.177382
222958848.0,5.019287109375,5.186000347137451,7.0,2.0,1668050395.277869
223058814.0,5.016064167022705,5.182000160217285,7.0,2.0,1668050395.377835
223158755.0,5.014452934265137,5.179000377655029,7.0,2.0,1668050395.477776
223258871.0,5.017675876617432,5.182000160217285,7.0,2.0,1668050395.577892
223358447.0,5.012841701507568,5.184000015258789,7.0,2.0,1668050395.677468
223458622.0,5.014452934265137,5.182000160217285,7.0,2.0,1668050395.777643
223558689.0,5.020898342132568,5.177000045776367,7.0,2.0,1668050395.87771
223658658.0,5.017675876617432,5.182000160217285,7.0,2.0,1668050395.977679
223758390.0,5.022509574890137,5.182000160217285,7.0,2.0,1668050396.077411
223858681.0,5.020898342132568,5.182000160217285,7.0,2.0,1668050396.177702
223958481.0,5.017675876617432,5.182000160217285,7.0,2.0,1668050396.277502
224058702.0,5.012841701507568,5.182000160217285,7.0,2.0,1668050396.377723
224158751.0,5.012841701507568,5.184000015258789,7.0,2.0,1668050396.477772
224258757.0,5.014452934265137,5.184000015258789,7.0,2.0,1668050396.577778
224358685.0,5.014452934265137,5.182000160217285,7.0,2.0,1668050396.677706
227258428.0,4.993505954742432,5.179000377655029,7.0,2.0,1668050399.577449
227370742.0,4.996728420257568,5.182000160217285,7.0,2.0,1668050399.689763
227470666.0,4.996728420257568,5.184000015258789,7.0,2.0,1668050399.789687
227571001.0,5.017675876617432,5.182000160217285,7.0,2.0,1668050399.890022
227670333.0,5.020898342132568,5.184000015258789,7.0,2.0,1668050399.989354
227770531.0,5.019287109375,5.184000015258789,7.0,2.0,1668050400.089552
227870391.0,5.020898342132568,5.184000015258789,7.0,2.0,1668050400.1894119
227970503.0,5.022509574890137,5.184000015258789,7.0,2.0,1668050400.289524
228070824.0,5.012841701507568,5.186000347137451,7.0,2.0,1668050400.389845
228170416.0,5.012841701507568,5.186000347137451,7.0,2.0,1668050400.489437
228270423.0,5.016064167022705,5.184000015258789,7.0,2.0,1668050400.589444
228370662.0,5.012841701507568,5.182000160217285,7.0,2.0,1668050400.689683
228470748.0,5.016064167022705,5.182000160217285,7.0,2.0,1668050400.789769
228570811.0,5.017675876617432,5.184000015258789,7.0,2.0,1668050400.889832
228670845.0,5.019287109375,5.184000015258789,7.0,2.0,1668050400.989866
228770689.0,5.020898342132568,5.186000347137451,7.0,2.0,1668050401.08971
228870478.0,5.016064167022705,5.182000160217285,7.0,2.0,1668050401.189499
228970795.0,5.020898342132568,5.184000015258789,7.0,2.0,1668050401.289816
229070787.0,4.993505954742432,5.184000015258789,7.0,2.0,1668050401.389808
229170892.0,4.988671779632568,5.184000015258789,7.0,2.0,1668050401.489913
229270659.0,5.017675876617432,5.182000160217285,7.0,2.0,1668050401.58968
229370714.0,5.001562595367432,5.184000015258789,7.0,2.0,1668050401.689735
229470320.0,4.991894245147705,5.182000160217285,7.0,2.0,1668050401.789341
229570757.0,4.991894245147705,5.184000015258789,7.0,2.0,1668050401.889778
229670855.0,4.999950885772705,5.182000160217285,7.0,2.0,1668050401.989876
229770613.0,5.017675876617432,5.182000160217285,7.0,2.0,1668050402.089634
229870571.0,5.022509574890137,5.184000015258789,7.0,2.0,1668050402.189592
229970683.0,5.019287109375,5.184000015258789,7.0,2.0,1668050402.289704
230070766.0,5.012841701507568,5.184000015258789,7.0,2.0,1668050402.389787
233070719.0,4.990283012390137,5.184000015258789,7.0,2.0,1668050405.38974
233183795.0,4.996728420257568,5.184000015258789,7.0,2.0,1668050405.502816
233283894.0,4.991894245147705,5.182000160217285,7.0,2.0,1668050405.602915
233384111.0,5.016064167022705,5.184000015258789,7.0,2.0,1668050405.703132
233483904.0,5.017675876617432,5.184000015258789,7.0,2.0,1668050405.8029249
233583945.0,5.016064167022705,5.184000015258789,7.0,2.0,1668050405.902966
233684194.0,5.019287109375,5.186000347137451,7.0,2.0,1668050406.003215
233783826.0,5.020898342132568,5.186000347137451,7.0,2.0,1668050406.102847
233883793.0,5.017675876617432,5.184000015258789,7.0,2.0,1668050406.202814
233983968.0,5.020898342132568,5.184000015258789,7.0,2.0,1668050406.302989
234083994.0,5.014452934265137,5.184000015258789,7.0,2.0,1668050406.403015
234184095.0,5.016064167022705,5.184000015258789,7.0,2.0,1668050406.503116
234283899.0,5.017675876617432,5.184000015258789,7.0,2.0,1668050406.60292
234383886.0,5.012841701507568,5.184000015258789,7.0,2.0,1668050406.702907
234483878.0,5.016064167022705,5.184000015258789,7.0,2.0,1668050406.802899
234584126.0,5.020898342132568,5.184000015258789,7.0,2.0,1668050406.903147
234684069.0,5.016064167022705,5.184000015258789,7.0,2.0,1668050407.00309
234784106.0,5.020898342132568,5.184000015258789,7.0,2.0,1668050407.103127
234883866.0,5.020898342132568,5.184000015258789,7.0,2.0,1668050407.202887
234983810.0,5.017675876617432,5.184000015258789,7.0,2.0,1668050407.302831
235084067.0,4.990283012390137,5.184000015258789,7.0,2.0,1668050407.403088
235184072.0,4.990283012390137,5.184000015258789,7.0,2.0,1668050407.503093
235284072.0,5.017675876617432,5.182000160217285,7.0,2.0,1668050407.603093
235384209.0,4.998339653015137,5.184000015258789,7.0,2.0,1668050407.70323
235483969.0,4.990283012390137,5.182000160217285,7.0,2.0,1668050407.80299
235583859.0,4.991894245147705,5.182000160217285,7.0,2.0,1668050407.90288
235684111.0,5.001562595367432,5.182000160217285,7.0,2.0,1668050408.003132
238383703.0,4.991894245147705,5.182000160217285,7.0,2.0,1668050410.702724
238495668.0,4.991894245147705,5.184000015258789,7.0,2.0,1668050410.814689
238595871.0,5.006396293640137,5.184000015258789,7.0,2.0,1668050410.914892
238695760.0,5.020898342132568,5.184000015258789,7.0,2.0,1668050411.014781
238795863.0,5.020898342132568,5.184000015258789,7.0,2.0,1668050411.114884
238895798.0,5.017675876617432,5.186000347137451,7.0,2.0,1668050411.214819
238995691.0,5.019287109375,5.186000347137451,7.0,2.0,1668050411.314712
239095812.0,5.016064167022705,5.184000015258789,7.0,2.0,1668050411.414833
239195724.0,5.014452934265137,5.184000015258789,7.0,2.0,1668050411.514745
239295858.0,5.006396293640137,5.184000015258789,7.0,2.0,1668050411.614879
239395710.0,5.012841701507568,5.184000015258789,7.0,2.0,1668050411.714731
239495886.0,5.014452934265137,5.184000015258789,7.0,2.0,1668050411.814907
239595815.0,5.017675876617432,5.184000015258789,7.0,2.0,1668050411.914836
239695912.0,5.017675876617432,5.184000015258789,7.0,2.0,1668050412.0149329
239795767.0,5.020898342132568,5.184000015258789,7.0,2.0,1668050412.114788
239895681.0,5.016064167022705,5.186000347137451,7.0,2.0,1668050412.214702
239995780.0,5.019287109375,5.184000015258789,7.0,2.0,1668050412.314801
240095748.0,5.017675876617432,5.184000015258789,7.0,2.0,1668050412.414769
240195724.0,5.012841701507568,5.182000160217285,7.0,2.0,1668050412.514745
240295752.0,5.012841701507568,5.186000347137451,7.0,2.0,1668050412.614773
240395832.0,5.017675876617432,5.184000015258789,7.0,2.0,1668050412.714853
240495787.0,5.014452934265137,5.184000015258789,7.0,2.0,1668050412.814808
240595668.0,5.019287109375,5.186000347137451,7.0,2.0,1668050412.914689
240695720.0,5.022509574890137,5.186000347137451,7.0,2.0,1668050413.014741
240795900.0,5.019287109375,5.184000015258789,7.0,2.0,1668050413.114921
240895813.0,5.022509574890137,5.182000160217285,7.0,2.0,1668050413.214834
240995819.0,5.017675876617432,5.184000015258789,7.0,2.0,1668050413.31484
241095800.0,4.990283012390137,5.184000015258789,7.0,2.0,1668050413.414821
241195688.0,4.993505954742432,5.177000045776367,7.0,2.0,1668050413.514709
241296089.0,5.014452934265137,5.184000015258789,7.0,2.0,1668050413.61511
241395786.0,4.998339653015137,5.184000015258789,7.0,2.0,1668050413.714807
241495691.0,4.9951171875,5.182000160217285,7.0,2.0,1668050413.814712
241595870.0,4.990283012390137,5.184000015258789,7.0,2.0,1668050413.914891
241695679.0,4.999950885772705,5.179000377655029,7.0,2.0,1668050414.0147
241795838.0,5.020898342132568,5.184000015258789,7.0,2.0,1668050414.114859
241895724.0,5.017675876617432,5.184000015258789,7.0,2.0,1668050414.214745
241995834.0,5.022509574890137,5.182000160217285,7.0,2.0,1668050414.314855
242095770.0,5.012841701507568,5.186000347137451,7.0,2.0,1668050414.4147909
242195755.0,5.012841701507568,5.179000377655029,7.0,2.0,1668050414.514776
242295761.0,5.024120807647705,5.184000015258789,7.0,2.0,1668050414.614782
242395771.0,5.016064167022705,5.186000347137451,7.0,2.0,1668050414.714792
242495764.0,5.01123046875,5.182000160217285,7.0,2.0,1668050414.814785
242595650.0,5.016064167022705,5.184000015258789,7.0,2.0,1668050414.914671
242695775.0,5.016064167022705,5.184000015258789,7.0,2.0,1668050415.014796
242796130.0,5.022509574890137,5.184000015258789,7.0,2.0,1668050415.115151
242895791.0,5.020898342132568,5.184000015258789,7.0,2.0,1668050415.214812
242995720.0,5.019287109375,5.182000160217285,7.0,2.0,1668050415.314741
243095825.0,5.01123046875,5.186000347137451,7.0,2.0,1668050415.414846
243195763.0,5.01123046875,5.184000015258789,7.0,2.0,1668050415.514784
243295717.0,5.019287109375,5.184000015258789,7.0,2.0,1668050415.614738
243395889.0,5.020898342132568,5.182000160217285,7.0,2.0,1668050415.71491
246495813.0,4.993505954742432,5.184000015258789,7.0,2.0,1668050418.8148339
246607662.0,4.998339653015137,5.182000160217285,7.0,2.0,1668050418.926683
246707450.0,5.009619235992432,5.182000160217285,7.0,2.0,1668050419.026471
246807670.0,5.017675876617432,5.184000015258789,7.0,2.0,1668050419.126691
246907500.0,5.017675876617432,5.184000015258789,7.0,2.0,1668050419.226521
247007669.0,5.020898342132568,5.184000015258789,7.0,2.0,1668050419.32669
247107802.0,5.012841701507568,5.191000461578369,7.0,2.0,1668050419.426823
247207500.0,5.016064167022705,5.186000347137451,7.0,2.0,1668050419.526521
247307717.0,5.016064167022705,5.182000160217285,7.0,2.0,1668050419.626738
247407499.0,5.012841701507568,5.184000015258789,7.0,2.0,1668050419.72652
247507645.0,5.01123046875,5.182000160217285,7.0,2.0,1668050419.8266659
247607646.0,5.016064167022705,5.184000015258789,7.0,2.0,1668050419.926667
247707706.0,5.019287109375,5.184000015258789,7.0,2.0,1668050420.026727
247807544.0,5.019287109375,5.182000160217285,7.0,2.0,1668050420.126565
247907631.0,5.017675876617432,5.184000015258789,7.0,2.0,1668050420.226652
248007640.0,5.019287109375,5.184000015258789,7.0,2.0,1668050420.3266609
248107497.0,5.019287109375,5.184000015258789,7.0,2.0,1668050420.426518
248207638.0,5.012841701507568,5.184000015258789,7.0,2.0,1668050420.526659
248307666.0,5.012841701507568,5.184000015258789,7.0,2.0,1668050420.626687
248407675.0,5.014452934265137,5.184000015258789,7.0,2.0,1668050420.726696
248507465.0,5.01123046875,5.184000015258789,7.0,2.0,1668050420.8264859
248607633.0,5.019287109375,5.184000015258789,7.0,2.0,1668050420.926654
248707452.0,5.019287109375,5.184000015258789,7.0,2.0,1668050421.026473
248807612.0,5.019287109375,5.184000015258789,7.0,2.0,1668050421.126633
248907567.0,5.020898342132568,5.184000015258789,7.0,2.0,1668050421.226588
249007482.0,5.019287109375,5.186000347137451,7.0,2.0,1668050421.326503
249107640.0,5.014452934265137,5.182000160217285,7.0,2.0,1668050421.426661
249207665.0,5.019287109375,5.182000160217285,7.0,2.0,1668050421.526686
249307635.0,5.012841701507568,5.184000015258789,7.0,2.0,1668050421.626656
249407554.0,5.016064167022705,5.184000015258789,7.0,2.0,1668050421.726575
249507660.0,5.019287109375,5.184000015258789,7.0,2.0,1668050421.826681
249607500.0,5.016064167022705,5.184000015258789,7.0,2.0,1668050421.926521
249707616.0,5.017675876617432,5.186000347137451,7.0,2.0,1668050422.026637
249807628.0,5.024120807647705,5.184000015258789,7.0,2.0,1668050422.126649
252807573.0,5.017675876617432,5.182000160217285,7.0,2.0,1668050425.126594
252919424.0,4.996728420257568,5.182000160217285,7.0,2.0,1668050425.238445
253019624.0,4.999950885772705,5.179000377655029,7.0,2.0,1668050425.338645
253119568.0,5.014452934265137,5.184000015258789,7.0,2.0,1668050425.438589
253219535.0,5.014452934265137,5.186000347137451,7.0,2.0,1668050425.538556
253319589.0,5.019287109375,5.177000045776367,7.0,2.0,1668050425.63861
253419401.0,5.012841701507568,5.182000160217285,7.0,2.0,1668050425.738422
253519522.0,5.016064167022705,5.184000015258789,7.0,2.0,1668050425.838543
253619404.0,5.022509574890137,5.184000015258789,7.0,2.0,1668050425.938425
253719580.0,5.016064167022705,5.184000015258789,7.0,2.0,1668050426.038601
253819585.0,5.022509574890137,5.184000015258789,7.0,2.0,1668050426.138606
253919637.0,5.020898342132568,5.186000347137451,7.0,2.0,1668050426.238658
254019571.0,5.019287109375,5.184000015258789,7.0,2.0,1668050426.338592
254119446.0,5.012841701507568,5.184000015258789,7.0,2.0,1668050426.438467
254219591.0,5.016064167022705,5.182000160217285,7.0,2.0,1668050426.538612
254319556.0,5.014452934265137,5.184000015258789,7.0,2.0,1668050426.638577
254419575.0,5.014452934265137,5.184000015258789,7.0,2.0,1668050426.738596
254519467.0,5.014452934265137,5.184000015258789,7.0,2.0,1668050426.838488
254619614.0,5.017675876617432,5.186000347137451,7.0,2.0,1668050426.9386349
254719673.0,5.020898342132568,5.184000015258789,7.0,2.0,1668050427.038694
254819661.0,5.019287109375,5.184000015258789,7.0,2.0,1668050427.138682
254919607.0,5.020898342132568,5.184000015258789,7.0,2.0,1668050427.238628
255019539.0,5.020898342132568,5.184000015258789,7.0,2.0,1668050427.33856
255119588.0,5.012841701507568,5.184000015258789,7.0,2.0,1668050427.438609
255219432.0,5.014452934265137,5.184000015258789,7.0,2.0,1668050427.538453
255319601.0,5.012841701507568,5.184000015258789,7.0,2.0,1668050427.638622
255419459.0,5.012841701507568,5.184000015258789,7.0,2.0,1668050427.73848
255519587.0,5.008007526397705,5.184000015258789,7.0,2.0,1668050427.838608
258419634.0,4.991894245147705,5.184000015258789,7.0,2.0,1668050430.738655
258531780.0,4.9951171875,5.182000160217285,7.0,2.0,1668050430.850801
258631718.0,4.998339653015137,5.182000160217285,7.0,2.0,1668050430.950739
258731508.0,5.019287109375,5.184000015258789,7.0,2.0,1668050431.050529
258831732.0,5.022509574890137,5.184000015258789,7.0,2.0,1668050431.150753
258931638.0,5.017675876617432,5.184000015258789,7.0,2.0,1668050431.250659
259031715.0,5.017675876617432,5.184000015258789,7.0,2.0,1668050431.350736
259131572.0,5.017675876617432,5.184000015258789,7.0,2.0,1668050431.450593
259231664.0,5.012841701507568,5.186000347137451,7.0,2.0,1668050431.550685
259331663.0,5.014452934265137,5.184000015258789,7.0,2.0,1668050431.6506839
259431716.0,5.019287109375,5.184000015258789,7.0,2.0,1668050431.750737
259531686.0,5.012841701507568,5.184000015258789,7.0,2.0,1668050431.850707
259631624.0,5.019287109375,5.184000015258789,7.0,2.0,1668050431.950645
259731767.0,5.016064167022705,5.186000347137451,7.0,2.0,1668050432.050788
259831653.0,5.019287109375,5.186000347137451,7.0,2.0,1668050432.150674
259931704.0,5.020898342132568,5.186000347137451,7.0,2.0,1668050432.250725
260031638.0,5.016064167022705,5.184000015258789,7.0,2.0,1668050432.350659
260131704.0,5.014452934265137,5.184000015258789,7.0,2.0,1668050432.450725
260231743.0,5.019287109375,5.186000347137451,7.0,2.0,1668050432.550764
260331784.0,5.01123046875,5.177000045776367,7.0,2.0,1668050432.650805
260431752.0,5.014452934265137,5.184000015258789,7.0,2.0,1668050432.750773
260531549.0,5.020898342132568,5.184000015258789,7.0,2.0,1668050432.85057
260631711.0,5.017675876617432,5.184000015258789,7.0,2.0,1668050432.950732
260731634.0,5.016064167022705,5.186000347137451,7.0,2.0,1668050433.050655
260831739.0,5.019287109375,5.186000347137451,7.0,2.0,1668050433.15076
260931612.0,5.01123046875,5.184000015258789,7.0,2.0,1668050433.250633
261031689.0,5.019287109375,5.184000015258789,7.0,2.0,1668050433.35071
261131512.0,5.014452934265137,5.179000377655029,7.0,2.0,1668050433.450533
261231700.0,5.014452934265137,5.184000015258789,7.0,2.0,1668050433.550721
261331750.0,5.019287109375,5.184000015258789,7.0,2.0,1668050433.650771
261431633.0,5.016064167022705,5.184000015258789,7.0,2.0,1668050433.750654
261531684.0,5.016064167022705,5.184000015258789,7.0,2.0,1668050433.850705
261631561.0,5.024120807647705,5.184000015258789,7.0,2.0,1668050433.950582
261731757.0,5.016064167022705,5.184000015258789,7.0,2.0,1668050434.050778
261831627.0,5.024120807647705,5.184000015258789,7.0,2.0,1668050434.1506479
261931708.0,5.020898342132568,5.184000015258789,7.0,2.0,1668050434.250729
262031648.0,5.017675876617432,5.184000015258789,7.0,2.0,1668050434.350669
262131737.0,5.014452934265137,5.184000015258789,7.0,2.0,1668050434.450758
262231710.0,5.014452934265137,5.184000015258789,7.0,2.0,1668050434.550731
262331671.0,5.016064167022705,5.182000160217285,7.0,2.0,1668050434.650692
262431714.0,5.017675876617432,5.184000015258789,7.0,2.0,1668050434.750735
262531770.0,5.016064167022705,5.184000015258789,7.0,2.0,1668050434.850791
262631728.0,5.019287109375,5.182000160217285,7.0,2.0,1668050434.950749
262731667.0,5.025732517242432,5.186000347137451,7.0,2.0,1668050435.050688
262831651.0,5.019287109375,5.184000015258789,7.0,2.0,1668050435.150672
262931590.0,5.020898342132568,5.186000347137451,7.0,2.0,1668050435.250611
263031838.0,5.019287109375,5.184000015258789,7.0,2.0,1668050435.350859
263131741.0,5.014452934265137,5.184000015258789,7.0,2.0,1668050435.450762
263231724.0,5.016064167022705,5.182000160217285,7.0,2.0,1668050435.550745
263331672.0,5.014452934265137,5.186000347137451,7.0,2.0,1668050435.650693
263431687.0,5.017675876617432,5.184000015258789,7.0,2.0,1668050435.750708
263531659.0,5.016064167022705,5.184000015258789,7.0,2.0,1668050435.8506799
263631645.0,5.019287109375,5.184000015258789,7.0,2.0,1668050435.950666
263731746.0,5.019287109375,5.182000160217285,7.0,2.0,1668050436.050767
263831646.0,5.020898342132568,5.184000015258789,7.0,2.0,1668050436.150667
263931748.0,5.020898342132568,5.179000377655029,7.0,2.0,1668050436.250769
264031701.0,5.019287109375,5.182000160217285,7.0,2.0,1668050436.350722
264131649.0,5.019287109375,5.184000015258789,7.0,2.0,1668050436.45067
264231743.0,5.012841701507568,5.184000015258789,7.0,2.0,1668050436.550764
264331617.0,5.016064167022705,5.184000015258789,7.0,2.0,1668050436.650638
264431794.0,5.014452934265137,5.184000015258789,7.0,2.0,1668050436.750815
264531625.0,5.006396293640137,5.182000160217285,7.0,2.0,1668050436.850646
264631807.0,5.020898342132568,5.182000160217285,7.0,2.0,1668050436.950828
264731676.0,5.017675876617432,5.184000015258789,7.0,2.0,1668050437.050697
264831727.0,5.020898342132568,5.186000347137451,7.0,2.0,1668050437.150748
264931725.0,5.020898342132568,5.184000015258789,7.0,2.0,1668050437.250746
265031686.0,5.017675876617432,5.184000015258789,7.0,2.0,1668050437.350707
265131768.0,5.016064167022705,5.184000015258789,7.0,2.0,1668050437.450789
265231673.0,5.017675876617432,5.182000160217285,7.0,2.0,1668050437.550694
265331673.0,5.014452934265137,5.184000015258789,7.0,2.0,1668050437.650694
265431672.0,5.014452934265137,5.184000015258789,7.0,2.0,1668050437.750693
265531769.0,5.020898342132568,5.184000015258789,7.0,2.0,1668050437.85079
265631655.0,5.016064167022705,5.186000347137451,7.0,2.0,1668050437.950676
265731770.0,5.020898342132568,5.184000015258789,7.0,2.0,1668050438.050791
265831812.0,5.019287109375,5.182000160217285,7.0,2.0,1668050438.150833
265931535.0,5.017675876617432,5.182000160217285,7.0,2.0,1668050438.250556
266031731.0,5.020898342132568,5.184000015258789,7.0,2.0,1668050438.3507519
266131679.0,5.014452934265137,5.184000015258789,7.0,2.0,1668050438.4507
266231753.0,5.016064167022705,5.186000347137451,7.0,2.0,1668050438.550774
266331566.0,5.017675876617432,5.184000015258789,7.0,2.0,1668050438.650587
266431662.0,5.014452934265137,5.184000015258789,7.0,2.0,1668050438.750683
266531730.0,5.016064167022705,5.184000015258789,7.0,2.0,1668050438.850751
266631776.0,5.024120807647705,5.184000015258789,7.0,2.0,1668050438.950797
266731797.0,5.016064167022705,5.182000160217285,7.0,2.0,1668050439.050818
266831557.0,5.022509574890137,5.184000015258789,7.0,2.0,1668050439.150578
266931706.0,5.022509574890137,5.184000015258789,7.0,2.0,1668050439.250727
267031654.0,5.017675876617432,5.184000015258789,7.0,2.0,1668050439.3506749
267131752.0,5.019287109375,5.186000347137451,7.0,2.0,1668050439.450773
267231683.0,5.016064167022705,5.186000347137451,7.0,2.0,1668050439.550704
267331670.0,5.014452934265137,5.184000015258789,7.0,2.0,1668050439.650691
267431663.0,5.017675876617432,5.184000015258789,7.0,2.0,1668050439.750684
267531748.0,5.012841701507568,5.186000347137451,7.0,2.0,1668050439.850769
267631744.0,5.020898342132568,5.182000160217285,7.0,2.0,1668050439.950765
267731629.0,5.022509574890137,5.184000015258789,7.0,2.0,1668050440.05065
267831781.0,5.016064167022705,5.184000015258789,7.0,2.0,1668050440.150802
267931643.0,5.019287109375,5.184000015258789,7.0,2.0,1668050440.250664
268031689.0,5.020898342132568,5.184000015258789,7.0,2.0,1668050440.35071
268131662.0,5.012841701507568,5.184000015258789,7.0,2.0,1668050440.4506829
268231660.0,5.016064167022705,5.182000160217285,7.0,2.0,1668050440.5506809
268331649.0,5.014452934265137,5.182000160217285,7.0,2.0,1668050440.65067
268431716.0,5.014452934265137,5.184000015258789,7.0,2.0,1668050440.750737
268531741.0,5.016064167022705,5.184000015258789,7.0,2.0,1668050440.850762
268631729.0,5.017675876617432,5.179000377655029,7.0,2.0,1668050440.9507499
268731687.0,5.020898342132568,5.182000160217285,7.0,2.0,1668050441.050708
268831769.0,5.024120807647705,5.191000461578369,7.0,2.0,1668050441.15079
268931710.0,5.016064167022705,5.184000015258789,7.0,2.0,1668050441.250731
269031616.0,5.020898342132568,5.184000015258789,7.0,2.0,1668050441.350637
269131735.0,5.017675876617432,5.184000015258789,7.0,2.0,1668050441.450756
269231626.0,5.014452934265137,5.186000347137451,7.0,2.0,1668050441.550647
269331758.0,5.01123046875,5.184000015258789,7.0,2.0,1668050441.650779
269431693.0,5.014452934265137,5.184000015258789,7.0,2.0,1668050441.750714
269531624.0,5.012841701507568,5.191000461578369,7.0,2.0,1668050441.850645
269631749.0,5.019287109375,5.182000160217285,7.0,2.0,1668050441.95077
269731620.0,5.017675876617432,5.182000160217285,7.0,2.0,1668050442.050641
269831787.0,5.019287109375,5.184000015258789,7.0,2.0,1668050442.150808
269931602.0,5.022509574890137,5.184000015258789,7.0,2.0,1668050442.250623
270031682.0,5.017675876617432,5.184000015258789,7.0,2.0,1668050442.350703
270131583.0,5.017675876617432,5.182000160217285,7.0,2.0,1668050442.450604
270231692.0,5.017675876617432,5.184000015258789,7.0,2.0,1668050442.550713
270331654.0,5.012841701507568,5.184000015258789,7.0,2.0,1668050442.650675
270431631.0,5.014452934265137,5.184000015258789,7.0,2.0,1668050442.750652
270531748.0,5.019287109375,5.184000015258789,7.0,2.0,1668050442.850769
270631637.0,5.017675876617432,5.184000015258789,7.0,2.0,1668050442.950658
270731759.0,5.019287109375,5.184000015258789,7.0,2.0,1668050443.05078
270831604.0,5.022509574890137,5.186000347137451,7.0,2.0,1668050443.150625
270931801.0,5.017675876617432,5.186000347137451,7.0,2.0,1668050443.250822
271031635.0,5.019287109375,5.184000015258789,7.0,2.0,1668050443.350656
271131774.0,5.012841701507568,5.186000347137451,7.0,2.0,1668050443.450795
271231713.0,5.012841701507568,5.186000347137451,7.0,2.0,1668050443.550734
271331678.0,5.019287109375,5.184000015258789,7.0,2.0,1668050443.650699
271431735.0,5.014452934265137,5.184000015258789,7.0,2.0,1668050443.750756
271531647.0,5.016064167022705,5.182000160217285,7.0,2.0,1668050443.850668
271631619.0,5.022509574890137,5.184000015258789,7.0,2.0,1668050443.95064
271731636.0,5.017675876617432,5.186000347137451,7.0,2.0,1668050444.050657
271831728.0,5.020898342132568,5.182000160217285,7.0,2.0,1668050444.150749
271931639.0,5.019287109375,5.186000347137451,7.0,2.0,1668050444.25066
272031801.0,5.019287109375,5.184000015258789,7.0,2.0,1668050444.350822
272131711.0,5.017675876617432,5.182000160217285,7.0,2.0,1668050444.450732
272231658.0,5.014452934265137,5.184000015258789,7.0,2.0,1668050444.550679
272331720.0,5.012841701507568,5.184000015258789,7.0,2.0,1668050444.650741
272431626.0,5.017675876617432,5.184000015258789,7.0,2.0,1668050444.750647
272531681.0,5.014452934265137,5.184000015258789,7.0,2.0,1668050444.850702
272631631.0,5.020898342132568,5.184000015258789,7.0,2.0,1668050444.950652
272731715.0,5.022509574890137,5.182000160217285,7.0,2.0,1668050445.050736
272831748.0,5.019287109375,5.184000015258789,7.0,2.0,1668050445.150769
272931812.0,5.019287109375,5.182000160217285,7.0,2.0,1668050445.250833
273031789.0,5.017675876617432,5.186000347137451,7.0,2.0,1668050445.35081
273131678.0,5.017675876617432,5.191000461578369,7.0,2.0,1668050445.450699
273231738.0,5.014452934265137,5.186000347137451,7.0,2.0,1668050445.550759
273331641.0,5.014452934265137,5.182000160217285,7.0,2.0,1668050445.650662
274231704.0,4.991894245147705,5.182000160217285,7.0,6.0,1668050446.550725
274331707.0,4.993505954742432,5.184000015258789,7.0,6.0,1668050446.650728
274431657.0,4.991894245147705,5.182000160217285,7.0,6.0,1668050446.750678
274531665.0,4.993505954742432,5.182000160217285,7.0,6.0,1668050446.850686
274631663.0,4.9951171875,5.184000015258789,7.0,6.0,1668050446.950684
274731792.0,4.993505954742432,5.182000160217285,7.0,6.0,1668050447.050813
274831667.0,4.9951171875,5.179000377655029,7.0,6.0,1668050447.150688
274931692.0,4.996728420257568,5.184000015258789,7.0,6.0,1668050447.2507129
275031725.0,4.993505954742432,5.182000160217285,7.0,6.0,1668050447.350746
275131640.0,4.990283012390137,5.182000160217285,7.0,6.0,1668050447.450661
275231701.0,4.9951171875,5.186000347137451,7.0,6.0,1668050447.550722
275331628.0,4.987060546875,5.182000160217285,7.0,6.0,1668050447.650649
275431730.0,4.991894245147705,5.182000160217285,7.0,6.0,1668050447.750751
275531598.0,4.985449314117432,5.182000160217285,7.0,6.0,1668050447.850619
275631777.0,4.9951171875,5.182000160217285,7.0,6.0,1668050447.950798
275731720.0,4.996728420257568,5.182000160217285,7.0,6.0,1668050448.050741
275831653.0,4.993505954742432,5.182000160217285,7.0,6.0,1668050448.150674
275931707.0,4.9951171875,5.179000377655029,7.0,6.0,1668050448.250728
276031661.0,4.996728420257568,5.184000015258789,7.0,6.0,1668050448.350682
276131729.0,4.990283012390137,5.182000160217285,7.0,6.0,1668050448.4507499
276231671.0,4.993505954742432,5.179000377655029,7.0,6.0,1668050448.550692
276331726.0,4.993505954742432,5.182000160217285,7.0,6.0,1668050448.650747
276431751.0,4.991894245147705,5.182000160217285,7.0,6.0,1668050448.750772
276531733.0,4.991894245147705,5.182000160217285,7.0,6.0,1668050448.850754
276631708.0,4.996728420257568,5.182000160217285,7.0,6.0,1668050448.950729
276731681.0,4.990283012390137,5.182000160217285,7.0,6.0,1668050449.050702
276831733.0,4.9951171875,5.182000160217285,7.0,6.0,1668050449.150754
276931638.0,4.991894245147705,5.182000160217285,7.0,6.0,1668050449.250659
277031814.0,5.012841701507568,5.184000015258789,7.0,6.0,1668050449.350835
277131684.0,5.01123046875,5.184000015258789,7.0,6.0,1668050449.450705
277231720.0,5.008007526397705,5.184000015258789,7.0,6.0,1668050449.550741
277331709.0,5.009619235992432,5.184000015258789,7.0,6.0,1668050449.65073
277431750.0,5.012841701507568,5.184000015258789,7.0,6.0,1668050449.750771
277531712.0,5.01123046875,5.186000347137451,7.0,6.0,1668050449.850733
277631697.0,5.014452934265137,5.184000015258789,7.0,6.0,1668050449.950718
277731762.0,5.017675876617432,5.182000160217285,7.0,6.0,1668050450.050783
277831675.0,5.012841701507568,5.182000160217285,7.0,6.0,1668050450.150696
277931721.0,5.012841701507568,5.179000377655029,7.0,6.0,1668050450.250742
278031642.0,5.012841701507568,5.191000461578369,7.0,6.0,1668050450.350663
278131699.0,5.008007526397705,5.182000160217285,7.0,6.0,1668050450.45072
278231669.0,5.012841701507568,5.184000015258789,7.0,6.0,1668050450.55069
278331772.0,5.008007526397705,5.184000015258789,7.0,6.0,1668050450.650793
278431690.0,5.01123046875,5.184000015258789,7.0,6.0,1668050450.750711
278531659.0,5.016064167022705,5.182000160217285,7.0,6.0,1668050450.8506799
278631693.0,5.014452934265137,5.182000160217285,7.0,6.0,1668050450.9507139
278731678.0,5.014452934265137,5.182000160217285,7.0,6.0,1668050451.050699
278831721.0,5.016064167022705,5.184000015258789,7.0,6.0,1668050451.150742
278931630.0,5.009619235992432,5.182000160217285,7.0,6.0,1668050451.250651
279031698.0,5.01123046875,5.179000377655029,7.0,6.0,1668050451.350719
279131807.0,5.01123046875,5.179000377655029,7.0,6.0,1668050451.450828
279231751.0,5.01123046875,5.182000160217285,7.0,6.0,1668050451.550772
279331727.0,5.009619235992432,5.182000160217285,7.0,6.0,1668050451.650748
279431654.0,5.009619235992432,5.179000377655029,7.0,6.0,1668050451.750675
279531694.0,5.009619235992432,5.186000347137451,7.0,6.0,1668050451.850715
279631655.0,5.016064167022705,5.184000015258789,7.0,6.0,1668050451.950676
279731747.0,5.012841701507568,5.184000015258789,7.0,6.0,1668050452.050768
279831608.0,5.014452934265137,5.182000160217285,7.0,6.0,1668050452.150629
279931747.0,5.014452934265137,5.184000015258789,7.0,6.0,1668050452.250768
280031592.0,5.009619235992432,5.182000160217285,7.0,6.0,1668050452.3506129
280131718.0,5.012841701507568,5.182000160217285,7.0,6.0,1668050452.450739
280231713.0,5.009619235992432,5.184000015258789,7.0,6.0,1668050452.550734
280331641.0,5.009619235992432,5.179000377655029,7.0,6.0,1668050452.650662
280431797.0,5.006396293640137,5.184000015258789,7.0,6.0,1668050452.750818
280531668.0,5.009619235992432,5.184000015258789,7.0,6.0,1668050452.850689
280631694.0,5.01123046875,5.182000160217285,7.0,6.0,1668050452.950715
280731715.0,5.012841701507568,5.184000015258789,7.0,6.0,1668050453.050736
280831698.0,5.012841701507568,5.182000160217285,7.0,6.0,1668050453.150719
280931651.0,5.01123046875,5.182000160217285,7.0,6.0,1668050453.250672
281031722.0,5.014452934265137,5.182000160217285,7.0,6.0,1668050453.350743
281131748.0,5.008007526397705,5.177000045776367,7.0,6.0,1668050453.450769
281231721.0,5.009619235992432,5.184000015258789,7.0,6.0,1668050453.550742
281331708.0,5.008007526397705,5.184000015258789,7.0,6.0,1668050453.650729
281431639.0,5.008007526397705,5.182000160217285,7.0,6.0,1668050453.75066
281531761.0,5.009619235992432,5.182000160217285,7.0,6.0,1668050453.850782
281631685.0,5.01123046875,5.184000015258789,7.0,6.0,1668050453.950706
281731708.0,5.012841701507568,5.184000015258789,7.0,6.0,1668050454.050729
281831651.0,5.012841701507568,5.179000377655029,7.0,6.0,1668050454.150672
281931804.0,5.01123046875,5.184000015258789,7.0,6.0,1668050454.250825
282031754.0,5.009619235992432,5.184000015258789,7.0,6.0,1668050454.350775
282131665.0,5.012841701507568,5.182000160217285,7.0,6.0,1668050454.450686
282231748.0,5.006396293640137,5.184000015258789,7.0,6.0,1668050454.550769
282331664.0,5.009619235992432,5.184000015258789,7.0,6.0,1668050454.650685
282431694.0,5.01123046875,5.182000160217285,7.0,6.0,1668050454.750715
282531845.0,5.006396293640137,5.179000377655029,7.0,6.0,1668050454.850866
282631752.0,5.012841701507568,5.182000160217285,7.0,6.0,1668050454.950773
282731675.0,5.016064167022705,5.182000160217285,7.0,6.0,1668050455.050696
282831746.0,5.012841701507568,5.182000160217285,7.0,6.0,1668050455.150767
282931781.0,5.012841701507568,5.182000160217285,7.0,6.0,1668050455.250802
283031629.0,5.01123046875,5.184000015258789,7.0,6.0,1668050455.35065
283131692.0,5.009619235992432,5.182000160217285,7.0,6.0,1668050455.450713
283231672.0,5.008007526397705,5.179000377655029,7.0,6.0,1668050455.550693
283331821.0,5.009619235992432,5.182000160217285,7.0,6.0,1668050455.650842
283431702.0,5.008007526397705,5.179000377655029,7.0,6.0,1668050455.750723
283531775.0,5.01123046875,5.182000160217285,7.0,6.0,1668050455.850796
283631571.0,5.014452934265137,5.184000015258789,7.0,6.0,1668050455.950592
283731760.0,5.014452934265137,5.182000160217285,7.0,6.0,1668050456.050781
283831757.0,5.014452934265137,5.182000160217285,7.0,6.0,1668050456.150778
283931747.0,5.006396293640137,5.182000160217285,7.0,6.0,1668050456.250768
284031712.0,5.01123046875,5.182000160217285,7.0,6.0,1668050456.350733
284131606.0,5.008007526397705,5.186000347137451,7.0,6.0,1668050456.450627
284231718.0,5.009619235992432,5.177000045776367,7.0,6.0,1668050456.550739
284331679.0,5.008007526397705,5.182000160217285,7.0,6.0,1668050456.6507
284431743.0,5.008007526397705,5.184000015258789,7.0,6.0,1668050456.750764
284531660.0,5.009619235992432,5.179000377655029,7.0,6.0,1668050456.850681
284631794.0,5.016064167022705,5.184000015258789,7.0,6.0,1668050456.950815
284731746.0,5.012841701507568,5.182000160217285,7.0,6.0,1668050457.050767
284831668.0,5.01123046875,5.179000377655029,7.0,6.0,1668050457.150689
284931683.0,5.019287109375,5.182000160217285,7.0,6.0,1668050457.250704
285031598.0,5.006396293640137,5.179000377655029,7.0,6.0,1668050457.350619
285131694.0,5.008007526397705,5.182000160217285,7.0,6.0,1668050457.450715
285231669.0,5.012841701507568,5.179000377655029,7.0,6.0,1668050457.55069
285331759.0,5.008007526397705,5.182000160217285,7.0,6.0,1668050457.65078
285431813.0,5.012841701507568,5.182000160217285,7.0,6.0,1668050457.750834
285531782.0,5.006396293640137,5.184000015258789,7.0,6.0,1668050457.850803
285631713.0,5.012841701507568,5.184000015258789,7.0,6.0,1668050457.950734
285731591.0,5.004785060882568,5.182000160217285,7.0,6.0,1668050458.050612
285831733.0,5.01123046875,5.184000015258789,7.0,6.0,1668050458.150754
285931723.0,5.01123046875,5.182000160217285,7.0,6.0,1668050458.250744
286031690.0,5.014452934265137,5.179000377655029,7.0,6.0,1668050458.3507109
286131639.0,5.008007526397705,5.184000015258789,7.0,6.0,1668050458.45066
286231731.0,5.009619235992432,5.179000377655029,7.0,6.0,1668050458.550752
286331704.0,5.012841701507568,5.184000015258789,7.0,6.0,1668050458.650725
286431784.0,5.004785060882568,5.179000377655029,7.0,6.0,1668050458.750805
286531765.0,5.008007526397705,5.182000160217285,7.0,6.0,1668050458.850786
286631689.0,5.008007526397705,5.184000015258789,7.0,6.0,1668050458.95071
286731827.0,5.012841701507568,5.179000377655029,7.0,6.0,1668050459.050848
286831722.0,5.012841701507568,5.182000160217285,7.0,6.0,1668050459.150743
286931777.0,5.01123046875,5.182000160217285,7.0,6.0,1668050459.250798
287031686.0,5.009619235992432,5.186000347137451,7.0,6.0,1668050459.350707
287131731.0,5.014452934265137,5.182000160217285,7.0,6.0,1668050459.450752
287231667.0,5.006396293640137,5.184000015258789,7.0,6.0,1668050459.550688
287331765.0,5.006396293640137,5.182000160217285,7.0,6.0,1668050459.650786
287431733.0,5.008007526397705,5.179000377655029,7.0,6.0,1668050459.7507539
287531750.0,5.008007526397705,5.184000015258789,7.0,6.0,1668050459.850771
287631792.0,5.012841701507568,5.182000160217285,7.0,6.0,1668050459.950813
287731647.0,5.012841701507568,5.179000377655029,7.0,6.0,1668050460.050668
287831706.0,5.009619235992432,5.182000160217285,7.0,6.0,1668050460.150727
287931664.0,5.008007526397705,5.179000377655029,7.0,6.0,1668050460.250685
288031758.0,5.009619235992432,5.184000015258789,7.0,6.0,1668050460.350779
288131717.0,5.004785060882568,5.179000377655029,7.0,6.0,1668050460.450738
288231776.0,5.012841701507568,5.179000377655029,7.0,6.0,1668050460.550797
288331755.0,5.004785060882568,5.184000015258789,7.0,6.0,1668050460.650776
288431637.0,5.009619235992432,5.182000160217285,7.0,6.0,1668050460.750658
288531736.0,5.012841701507568,5.182000160217285,7.0,6.0,1668050460.850757
288631686.0,5.008007526397705,5.182000160217285,7.0,6.0,1668050460.950707
288731727.0,5.014452934265137,5.179000377655029,7.0,6.0,1668050461.0507479
288831794.0,5.020898342132568,5.177000045776367,7.0,6.0,1668050461.150815
288931749.0,5.016064167022705,5.184000015258789,7.0,6.0,1668050461.25077
289031653.0,5.01123046875,5.184000015258789,7.0,6.0,1668050461.350674
289131784.0,5.01123046875,5.184000015258789,7.0,6.0,1668050461.450805
289231731.0,5.008007526397705,5.184000015258789,7.0,6.0,1668050461.550752
289331672.0,5.01123046875,5.184000015258789,7.0,6.0,1668050461.650693
289431706.0,5.009619235992432,5.184000015258789,7.0,6.0,1668050461.750727
289531642.0,5.01123046875,5.184000015258789,7.0,6.0,1668050461.850663
289631923.0,5.019287109375,5.182000160217285,7.0,6.0,1668050461.950944
289731671.0,5.009619235992432,5.182000160217285,7.0,6.0,1668050462.050692
289843336.0,4.998339653015137,5.182000160217285,7.0,2.0,1668050462.162357
289943512.0,4.993505954742432,5.182000160217285,7.0,2.0,1668050462.262533
290043344.0,5.016064167022705,5.182000160217285,7.0,2.0,1668050462.362365
290143456.0,5.016064167022705,5.182000160217285,7.0,2.0,1668050462.462477
290243438.0,5.014452934265137,5.182000160217285,7.0,2.0,1668050462.562459
290343443.0,5.016064167022705,5.184000015258789,7.0,2.0,1668050462.662464
290443492.0,5.019287109375,5.182000160217285,7.0,2.0,1668050462.762513
290543317.0,5.014452934265137,5.184000015258789,7.0,2.0,1668050462.862338
290643486.0,5.020898342132568,5.184000015258789,7.0,2.0,1668050462.962507
290743325.0,5.022509574890137,5.182000160217285,7.0,2.0,1668050463.062346
290843462.0,5.017675876617432,5.186000347137451,7.0,2.0,1668050463.162483
290943437.0,5.020898342132568,5.184000015258789,7.0,2.0,1668050463.262458
291043320.0,5.016064167022705,5.184000015258789,7.0,2.0,1668050463.362341
291143359.0,5.012841701507568,5.182000160217285,7.0,2.0,1668050463.46238
291243294.0,5.017675876617432,5.184000015258789,7.0,2.0,1668050463.562315
291343537.0,5.014452934265137,5.182000160217285,7.0,2.0,1668050463.662558
291443330.0,5.017675876617432,5.184000015258789,7.0,2.0,1668050463.762351
291543421.0,5.019287109375,5.177000045776367,7.0,2.0,1668050463.862442
291643399.0,5.019287109375,5.182000160217285,7.0,2.0,1668050463.96242
291743547.0,5.017675876617432,5.184000015258789,7.0,2.0,1668050464.062568
291843515.0,5.022509574890137,5.179000377655029,7.0,2.0,1668050464.162536
291943292.0,5.014452934265137,5.182000160217285,7.0,2.0,1668050464.262313
292043602.0,5.014452934265137,5.186000347137451,7.0,2.0,1668050464.362623
292143430.0,5.016064167022705,5.182000160217285,7.0,2.0,1668050464.462451
292243520.0,5.014452934265137,5.184000015258789,7.0,2.0,1668050464.562541
292343540.0,5.016064167022705,5.184000015258789,7.0,2.0,1668050464.662561
292443519.0,5.008007526397705,5.184000015258789,7.0,2.0,1668050464.76254
292543378.0,5.020898342132568,5.182000160217285,7.0,2.0,1668050464.862399
292643477.0,5.022509574890137,5.184000015258789,7.0,2.0,1668050464.962498
292743409.0,5.019287109375,5.184000015258789,7.0,2.0,1668050465.06243
292843284.0,5.019287109375,5.184000015258789,7.0,2.0,1668050465.1623049
292943394.0,5.022509574890137,5.184000015258789,7.0,2.0,1668050465.262415
293043433.0,5.014452934265137,5.184000015258789,7.0,2.0,1668050465.362454
293143397.0,5.006396293640137,5.184000015258789,7.0,2.0,1668050465.462418
293243235.0,5.016064167022705,5.182000160217285,7.0,2.0,1668050465.562256
293343522.0,5.01123046875,5.182000160217285,7.0,2.0,1668050465.662543
293443353.0,5.016064167022705,5.184000015258789,7.0,2.0,1668050465.762374
293543566.0,5.016064167022705,5.184000015258789,7.0,2.0,1668050465.862587
293643392.0,5.017675876617432,5.186000347137451,7.0,2.0,1668050465.962413
293743379.0,5.022509574890137,5.184000015258789,7.0,2.0,1668050466.0624
293843428.0,5.017675876617432,5.182000160217285,7.0,2.0,1668050466.162449
293943485.0,5.020898342132568,5.182000160217285,7.0,2.0,1668050466.262506
294043399.0,5.017675876617432,5.184000015258789,7.0,2.0,1668050466.36242
294143387.0,5.012841701507568,5.184000015258789,7.0,2.0,1668050466.462408
294243518.0,5.012841701507568,5.182000160217285,7.0,2.0,1668050466.562539
294343567.0,5.017675876617432,5.184000015258789,7.0,2.0,1668050466.662588
294443463.0,5.01123046875,5.184000015258789,7.0,2.0,1668050466.762484
294543560.0,5.017675876617432,5.184000015258789,7.0,2.0,1668050466.862581
294643395.0,5.017675876617432,5.184000015258789,7.0,2.0,1668050466.962416
294743482.0,5.019287109375,5.184000015258789,7.0,2.0,1668050467.062503
294843373.0,5.019287109375,5.184000015258789,7.0,2.0,1668050467.162394
294943449.0,5.017675876617432,5.184000015258789,7.0,2.0,1668050467.26247
295043371.0,5.014452934265137,5.184000015258789,7.0,2.0,1668050467.362392
295143513.0,4.996728420257568,5.184000015258789,7.0,6.0,1668050467.462534
295243302.0,4.991894245147705,5.182000160217285,7.0,6.0,1668050467.562323
295343444.0,4.9951171875,5.182000160217285,7.0,6.0,1668050467.662465
295443448.0,4.996728420257568,5.182000160217285,7.0,6.0,1668050467.762469
295543406.0,4.991894245147705,5.182000160217285,7.0,6.0,1668050467.862427
295643423.0,4.9951171875,5.182000160217285,7.0,6.0,1668050467.962444
295743386.0,4.998339653015137,5.184000015258789,7.0,6.0,1668050468.062407
295843492.0,4.9951171875,5.182000160217285,7.0,6.0,1668050468.162513
295943292.0,4.998339653015137,5.182000160217285,7.0,6.0,1668050468.262313
296043451.0,4.990283012390137,5.182000160217285,7.0,6.0,1668050468.362472
296143304.0,4.991894245147705,5.182000160217285,7.0,6.0,1668050468.462325
296243483.0,4.991894245147705,5.184000015258789,7.0,6.0,1668050468.562504
296343501.0,4.990283012390137,5.179000377655029,7.0,6.0,1668050468.662522
296443459.0,4.990283012390137,5.182000160217285,7.0,6.0,1668050468.76248
296543557.0,4.998339653015137,5.182000160217285,7.0,6.0,1668050468.862578
296643418.0,4.991894245147705,5.184000015258789,7.0,6.0,1668050468.962439
296743448.0,4.991894245147705,5.182000160217285,7.0,6.0,1668050469.062469
296843378.0,4.996728420257568,5.184000015258789,7.0,6.0,1668050469.162399
296943403.0,4.991894245147705,5.182000160217285,7.0,6.0,1668050469.262424
297043387.0,4.990283012390137,5.184000015258789,7.0,6.0,1668050469.362408
297143547.0,4.990283012390137,5.182000160217285,7.0,6.0,1668050469.462568
297243470.0,4.990283012390137,5.182000160217285,7.0,6.0,1668050469.562491
297343406.0,4.991894245147705,5.182000160217285,7.0,6.0,1668050469.662427
297443555.0,4.988671779632568,5.182000160217285,7.0,6.0,1668050469.762576
297543489.0,4.993505954742432,5.184000015258789,7.0,6.0,1668050469.86251
297643438.0,4.998339653015137,5.182000160217285,7.0,6.0,1668050469.962459
297743308.0,4.991894245147705,5.184000015258789,7.0,6.0,1668050470.062329
297843432.0,4.993505954742432,5.184000015258789,7.0,6.0,1668050470.162453
297943422.0,5.017675876617432,5.184000015258789,7.0,6.0,1668050470.262443
298043494.0,5.01123046875,5.182000160217285,7.0,6.0,1668050470.362515
298143493.0,5.01123046875,5.182000160217285,7.0,6.0,1668050470.462514
298243396.0,5.012841701507568,5.182000160217285,7.0,6.0,1668050470.562417
298343444.0,5.01123046875,5.184000015258789,7.0,6.0,1668050470.662465
298443302.0,5.012841701507568,5.186000347137451,7.0,6.0,1668050470.762323
298543548.0,5.016064167022705,5.184000015258789,7.0,6.0,1668050470.862569
298643398.0,5.014452934265137,5.182000160217285,7.0,6.0,1668050470.962419
298743450.0,5.019287109375,5.191000461578369,7.0,6.0,1668050471.062471
298843529.0,5.016064167022705,5.184000015258789,7.0,6.0,1668050471.16255
298943493.0,5.009619235992432,5.191000461578369,7.0,6.0,1668050471.2625139
299043554.0,5.016064167022705,5.184000015258789,7.0,6.0,1668050471.362575
299143404.0,5.009619235992432,5.182000160217285,7.0,6.0,1668050471.462425
299243617.0,5.01123046875,5.179000377655029,7.0,6.0,1668050471.562638
299343380.0,5.009619235992432,5.184000015258789,7.0,6.0,1668050471.662401
299443467.0,5.008007526397705,5.182000160217285,7.0,6.0,1668050471.762488
299543406.0,5.012841701507568,5.184000015258789,7.0,6.0,1668050471.862427
299643446.0,5.012841701507568,5.184000015258789,7.0,6.0,1668050471.962467
299743372.0,5.006396293640137,5.184000015258789,7.0,6.0,1668050472.062393
299843479.0,5.014452934265137,5.182000160217285,7.0,6.0,1668050472.1625
299943511.0,5.012841701507568,5.182000160217285,7.0,6.0,1668050472.262532
300043387.0,5.008007526397705,5.182000160217285,7.0,6.0,1668050472.362408
300143563.0,5.012841701507568,5.182000160217285,7.0,6.0,1668050472.462584
300243395.0,5.008007526397705,5.184000015258789,7.0,6.0,1668050472.562416
300343413.0,5.006396293640137,5.182000160217285,7.0,6.0,1668050472.662434
300443288.0,5.014452934265137,5.177000045776367,7.0,6.0,1668050472.762309
300543572.0,5.008007526397705,5.182000160217285,7.0,6.0,1668050472.862593
300643462.0,5.016064167022705,5.184000015258789,7.0,6.0,1668050472.962483
300743478.0,5.014452934265137,5.182000160217285,7.0,6.0,1668050473.062499
300843527.0,5.012841701507568,5.184000015258789,7.0,6.0,1668050473.162548
300943354.0,5.016064167022705,5.182000160217285,7.0,6.0,1668050473.2623749
301043584.0,5.009619235992432,5.182000160217285,7.0,6.0,1668050473.362605
301143410.0,5.014452934265137,5.179000377655029,7.0,6.0,1668050473.462431
301243386.0,5.01123046875,5.186000347137451,7.0,6.0,1668050473.562407
301343592.0,5.009619235992432,5.186000347137451,7.0,6.0,1668050473.662613
301443536.0,5.008007526397705,5.179000377655029,7.0,6.0,1668050473.762557
301543485.0,5.016064167022705,5.182000160217285,7.0,6.0,1668050473.862506
301643512.0,5.012841701507568,5.182000160217285,7.0,6.0,1668050473.962533
301743449.0,5.014452934265137,5.182000160217285,7.0,6.0,1668050474.06247
301843346.0,5.016064167022705,5.182000160217285,7.0,6.0,1668050474.162367
301943434.0,5.009619235992432,5.186000347137451,7.0,6.0,1668050474.262455
302043294.0,5.009619235992432,5.182000160217285,7.0,6.0,1668050474.362315
302143489.0,5.008007526397705,5.182000160217285,7.0,6.0,1668050474.4625099
302243397.0,5.009619235992432,5.179000377655029,7.0,6.0,1668050474.562418
302343537.0,5.01123046875,5.182000160217285,7.0,6.0,1668050474.662558
302443279.0,5.006396293640137,5.182000160217285,7.0,6.0,1668050474.7623
302543485.0,5.014452934265137,5.182000160217285,7.0,6.0,1668050474.862506
302643530.0,5.016064167022705,5.182000160217285,7.0,6.0,1668050474.9625509
302743542.0,5.012841701507568,5.182000160217285,7.0,6.0,1668050475.062563
302843462.0,5.012841701507568,5.184000015258789,7.0,6.0,1668050475.162483
302943395.0,5.014452934265137,5.191000461578369,7.0,6.0,1668050475.262416
303043553.0,5.009619235992432,5.179000377655029,7.0,6.0,1668050475.362574
303143403.0,5.006396293640137,5.184000015258789,7.0,6.0,1668050475.462424
303243481.0,5.012841701507568,5.179000377655029,7.0,6.0,1668050475.562502
303343428.0,5.004785060882568,5.182000160217285,7.0,6.0,1668050475.662449
303443510.0,5.01123046875,5.184000015258789,7.0,6.0,1668050475.762531
303543379.0,5.01123046875,5.189000129699707,7.0,6.0,1668050475.8624
303643386.0,5.01123046875,5.184000015258789,7.0,6.0,1668050475.9624069
303743427.0,5.016064167022705,5.186000347137451,7.0,6.0,1668050476.062448
303843498.0,5.009619235992432,5.179000377655029,7.0,6.0,1668050476.162519
303943475.0,5.016064167022705,5.184000015258789,7.0,6.0,1668050476.262496
304043298.0,5.008007526397705,5.179000377655029,7.0,6.0,1668050476.362319
304143569.0,5.009619235992432,5.182000160217285,7.0,6.0,1668050476.46259
304243427.0,5.003173828125,5.184000015258789,7.0,6.0,1668050476.562448
304343584.0,5.01123046875,5.184000015258789,7.0,6.0,1668050476.662605
304443417.0,5.006396293640137,5.182000160217285,7.0,6.0,1668050476.762438
304543490.0,5.012841701507568,5.177000045776367,7.0,6.0,1668050476.862511
304643410.0,5.01123046875,5.184000015258789,7.0,6.0,1668050476.962431
304743434.0,5.009619235992432,5.179000377655029,7.0,6.0,1668050477.062455
304843536.0,5.014452934265137,5.182000160217285,7.0,6.0,1668050477.162557
304943396.0,5.004785060882568,5.179000377655029,7.0,6.0,1668050477.262417
305043596.0,5.01123046875,5.182000160217285,7.0,6.0,1668050477.362617
305143486.0,5.009619235992432,5.184000015258789,7.0,6.0,1668050477.462507
305243574.0,5.009619235992432,5.182000160217285,7.0,6.0,1668050477.562595
305343554.0,5.003173828125,5.182000160217285,7.0,6.0,1668050477.662575
305443390.0,5.01123046875,5.179000377655029,7.0,6.0,1668050477.7624109
305543514.0,5.008007526397705,5.184000015258789,7.0,6.0,1668050477.862535
305643361.0,5.017675876617432,5.182000160217285,7.0,6.0,1668050477.962382
305743533.0,5.01123046875,5.179000377655029,7.0,6.0,1668050478.062554
305843399.0,5.01123046875,5.184000015258789,7.0,6.0,1668050478.16242
305943506.0,5.012841701507568,5.179000377655029,7.0,6.0,1668050478.262527
306043483.0,5.012841701507568,5.184000015258789,7.0,6.0,1668050478.362504
306143517.0,5.003173828125,5.179000377655029,7.0,6.0,1668050478.462538
306243419.0,5.016064167022705,5.184000015258789,7.0,6.0,1668050478.56244
306343397.0,5.003173828125,5.179000377655029,7.0,6.0,1668050478.662418
306443429.0,5.012841701507568,5.184000015258789,7.0,6.0,1668050478.76245
306543334.0,5.01123046875,5.182000160217285,7.0,6.0,1668050478.862355
306643430.0,5.012841701507568,5.186000347137451,7.0,6.0,1668050478.962451
306743407.0,5.008007526397705,5.179000377655029,7.0,6.0,1668050479.062428
306843436.0,5.01123046875,5.182000160217285,7.0,6.0,1668050479.162457
306943514.0,5.008007526397705,5.182000160217285,7.0,6.0,1668050479.262535
307043525.0,5.006396293640137,5.179000377655029,7.0,6.0,1668050479.362546
307143456.0,5.008007526397705,5.182000160217285,7.0,6.0,1668050479.462477
307243374.0,5.008007526397705,5.179000377655029,7.0,6.0,1668050479.562395
307343453.0,5.012841701507568,5.184000015258789,7.0,6.0,1668050479.662474
307443360.0,4.999950885772705,5.179000377655029,7.0,6.0,1668050479.762381
307543503.0,5.012841701507568,5.179000377655029,7.0,6.0,1668050479.862524
307643488.0,5.014452934265137,5.182000160217285,7.0,6.0,1668050479.962509
307743396.0,5.012841701507568,5.179000377655029,7.0,6.0,1668050480.062417
307843421.0,5.008007526397705,5.184000015258789,7.0,6.0,1668050480.162442
307943495.0,5.016064167022705,5.179000377655029,7.0,6.0,1668050480.262516
308043532.0,5.006396293640137,5.179000377655029,7.0,6.0,1668050480.362553
308143406.0,5.012841701507568,5.186000347137451,7.0,6.0,1668050480.462427
308243557.0,5.006396293640137,5.182000160217285,7.0,6.0,1668050480.562578
308343409.0,5.008007526397705,5.179000377655029,7.0,6.0,1668050480.66243
308443484.0,5.014452934265137,5.184000015258789,7.0,6.0,1668050480.762505
308543311.0,5.014452934265137,5.182000160217285,7.0,6.0,1668050480.862332
308643531.0,5.009619235992432,5.177000045776367,7.0,6.0,1668050480.962552
308743419.0,5.016064167022705,5.179000377655029,7.0,6.0,1668050481.06244
308843564.0,5.012841701507568,5.184000015258789,7.0,6.0,1668050481.162585
308943605.0,5.012841701507568,5.179000377655029,7.0,6.0,1668050481.262626
309043483.0,5.01123046875,5.186000347137451,7.0,6.0,1668050481.362504
309143568.0,5.006396293640137,5.182000160217285,7.0,6.0,1668050481.462589
309243377.0,5.009619235992432,5.182000160217285,7.0,6.0,1668050481.562398
309343569.0,4.991894245147705,5.177000045776367,7.0,6.0,1668050481.66259
309443310.0,5.006396293640137,5.182000160217285,7.0,6.0,1668050481.762331
309543474.0,5.009619235992432,5.186000347137451,7.0,6.0,1668050481.862495
309643402.0,5.014452934265137,5.184000015258789,7.0,6.0,1668050481.962423
309743627.0,5.014452934265137,5.184000015258789,7.0,6.0,1668050482.062648
309843463.0,5.016064167022705,5.179000377655029,7.0,6.0,1668050482.162484
309943284.0,5.01123046875,5.182000160217285,7.0,6.0,1668050482.262305
310043514.0,5.006396293640137,5.186000347137451,7.0,6.0,1668050482.362535
310143409.0,5.014452934265137,5.179000377655029,7.0,6.0,1668050482.46243
310243518.0,5.008007526397705,5.182000160217285,7.0,6.0,1668050482.562539
310343404.0,5.006396293640137,5.184000015258789,7.0,6.0,1668050482.662425
310443486.0,5.009619235992432,5.191000461578369,7.0,6.0,1668050482.762507
310543409.0,5.012841701507568,5.184000015258789,7.0,6.0,1668050482.86243
310643454.0,5.014452934265137,5.182000160217285,7.0,6.0,1668050482.962475
310743539.0,5.01123046875,5.184000015258789,7.0,6.0,1668050483.06256
310843301.0,5.017675876617432,5.179000377655029,7.0,6.0,1668050483.162322
310943461.0,5.017675876617432,5.182000160217285,7.0,6.0,1668050483.262482
311043293.0,5.006396293640137,5.184000015258789,7.0,6.0,1668050483.362314
311143660.0,5.006396293640137,5.184000015258789,7.0,6.0,1668050483.462681
311243394.0,5.008007526397705,5.184000015258789,7.0,6.0,1668050483.562415
311343436.0,5.01123046875,5.184000015258789,7.0,6.0,1668050483.662457
311443413.0,5.009619235992432,5.182000160217285,7.0,6.0,1668050483.762434
311543585.0,5.008007526397705,5.179000377655029,7.0,6.0,1668050483.862606
311643378.0,5.01123046875,5.182000160217285,7.0,6.0,1668050483.962399
311743386.0,5.006396293640137,5.179000377655029,7.0,6.0,1668050484.062407
311843525.0,5.004785060882568,5.182000160217285,7.0,6.0,1668050484.162546
311943402.0,4.996728420257568,5.172000408172607,7.0,6.0,1668050484.262423
312043523.0,5.008007526397705,5.179000377655029,7.0,6.0,1668050484.362544
312143422.0,5.012841701507568,5.184000015258789,7.0,6.0,1668050484.4624429
312243537.0,5.012841701507568,5.182000160217285,7.0,6.0,1668050484.562558
312343433.0,5.014452934265137,5.179000377655029,7.0,6.0,1668050484.662454
312443487.0,5.01123046875,5.182000160217285,7.0,6.0,1668050484.762508
312543446.0,5.014452934265137,5.184000015258789,7.0,6.0,1668050484.862467
312643339.0,5.009619235992432,5.186000347137451,7.0,6.0,1668050484.96236
312743428.0,4.999950885772705,5.189000129699707,7.0,6.0,1668050485.062449
312843438.0,4.998339653015137,5.186000347137451,7.0,6.0,1668050485.162459
312943540.0,5.017675876617432,5.186000347137451,7.0,6.0,1668050485.262561
313043426.0,5.009619235992432,5.184000015258789,7.0,6.0,1668050485.362447
313143427.0,5.012841701507568,5.184000015258789,7.0,6.0,1668050485.462448
313243455.0,5.003173828125,5.182000160217285,7.0,6.0,1668050485.562476
313343470.0,5.008007526397705,5.179000377655029,7.0,6.0,1668050485.662491
313443486.0,5.008007526397705,5.182000160217285,7.0,6.0,1668050485.762507
313543395.0,5.009619235992432,5.179000377655029,7.0,6.0,1668050485.862416
313643485.0,5.012841701507568,5.182000160217285,7.0,6.0,1668050485.962506
313743407.0,5.014452934265137,5.182000160217285,7.0,6.0,1668050486.062428
313843443.0,5.012841701507568,5.182000160217285,7.0,6.0,1668050486.162464
313943455.0,5.004785060882568,5.184000015258789,7.0,6.0,1668050486.262476
314043472.0,5.006396293640137,5.182000160217285,7.0,6.0,1668050486.362493
314143399.0,5.006396293640137,5.184000015258789,7.0,6.0,1668050486.46242
314243454.0,5.008007526397705,5.182000160217285,7.0,6.0,1668050486.562475
314343496.0,5.008007526397705,5.182000160217285,7.0,6.0,1668050486.662517
314443459.0,5.008007526397705,5.182000160217285,7.0,6.0,1668050486.76248
314543557.0,5.016064167022705,5.182000160217285,7.0,6.0,1668050486.862578
314643292.0,5.01123046875,5.182000160217285,7.0,6.0,1668050486.962313
314743491.0,5.009619235992432,5.182000160217285,7.0,6.0,1668050487.062512
314843350.0,5.016064167022705,5.182000160217285,7.0,6.0,1668050487.162371
314943529.0,5.01123046875,5.182000160217285,7.0,6.0,1668050487.2625499
315043327.0,5.006396293640137,5.184000015258789,7.0,6.0,1668050487.362348
315143490.0,5.012841701507568,5.179000377655029,7.0,6.0,1668050487.462511
315243451.0,5.008007526397705,5.179000377655029,7.0,6.0,1668050487.562472
315343508.0,5.008007526397705,5.179000377655029,7.0,6.0,1668050487.662529
315443427.0,5.008007526397705,5.179000377655029,7.0,6.0,1668050487.762448
315543430.0,5.012841701507568,5.182000160217285,7.0,6.0,1668050487.862451
315643596.0,5.016064167022705,5.184000015258789,7.0,6.0,1668050487.962617
315743374.0,5.008007526397705,5.179000377655029,7.0,6.0,1668050488.062395
315843438.0,5.014452934265137,5.184000015258789,7.0,6.0,1668050488.162459
315943383.0,5.017675876617432,5.182000160217285,7.0,6.0,1668050488.262404
316043487.0,5.006396293640137,5.182000160217285,7.0,6.0,1668050488.362508
316143460.0,5.006396293640137,5.179000377655029,7.0,6.0,1668050488.462481
316243410.0,5.01123046875,5.184000015258789,7.0,6.0,1668050488.562431
316343479.0,5.008007526397705,5.182000160217285,7.0,6.0,1668050488.6625
316443387.0,5.009619235992432,5.177000045776367,7.0,6.0,1668050488.762408
316543539.0,5.012841701507568,5.182000160217285,7.0,6.0,1668050488.86256
316643284.0,5.014452934265137,5.179000377655029,7.0,6.0,1668050488.962305
316743420.0,5.008007526397705,5.182000160217285,7.0,6.0,1668050489.0624409
316843470.0,5.008007526397705,5.179000377655029,7.0,6.0,1668050489.162491
316943613.0,5.006396293640137,5.177000045776367,7.0,6.0,1668050489.262634
317043496.0,5.012841701507568,5.184000015258789,7.0,6.0,1668050489.3625169
317143424.0,5.004785060882568,5.184000015258789,7.0,6.0,1668050489.462445
317243428.0,5.012841701507568,5.184000015258789,7.0,6.0,1668050489.562449
317343407.0,4.999950885772705,5.182000160217285,7.0,6.0,1668050489.662428
317443624.0,5.006396293640137,5.179000377655029,7.0,6.0,1668050489.762645
317543479.0,5.006396293640137,5.179000377655029,7.0,6.0,1668050489.8625
317643502.0,5.008007526397705,5.174000263214111,7.0,6.0,1668050489.962523
317743386.0,4.996728420257568,5.184000015258789,7.0,6.0,1668050490.062407
317843314.0,5.006396293640137,5.184000015258789,7.0,6.0,1668050490.162335
317943562.0,5.006396293640137,5.184000015258789,7.0,6.0,1668050490.262583
318043433.0,5.014452934265137,5.184000015258789,7.0,6.0,1668050490.362454
318143613.0,5.008007526397705,5.172000408172607,7.0,6.0,1668050490.462634
318243307.0,5.004785060882568,5.177000045776367,7.0,6.0,1668050490.562328
318343476.0,5.006396293640137,5.174000263214111,7.0,6.0,1668050490.662497
318443303.0,5.01123046875,5.186000347137451,7.0,6.0,1668050490.762324
318543541.0,5.012841701507568,5.184000015258789,7.0,6.0,1668050490.862562
318643424.0,5.014452934265137,5.184000015258789,7.0,6.0,1668050490.962445
318743481.0,5.012841701507568,5.184000015258789,7.0,6.0,1668050491.062502
318843496.0,5.004785060882568,5.184000015258789,7.0,6.0,1668050491.162517
318943412.0,5.012841701507568,5.186000347137451,7.0,6.0,1668050491.262433
319043436.0,5.014452934265137,5.179000377655029,7.0,6.0,1668050491.362457
319143325.0,5.01123046875,5.169000148773193,7.0,6.0,1668050491.462346
319243482.0,5.004785060882568,5.177000045776367,7.0,6.0,1668050491.562503
319343403.0,4.998339653015137,5.174000263214111,7.0,6.0,1668050491.662424
319443453.0,5.001562595367432,5.184000015258789,7.0,6.0,1668050491.762474
319543500.0,5.008007526397705,5.184000015258789,7.0,6.0,1668050491.862521
319643487.0,5.014452934265137,5.182000160217285,7.0,6.0,1668050491.962508
319743520.0,5.012841701507568,5.184000015258789,7.0,6.0,1668050492.062541
319843308.0,5.019287109375,5.186000347137451,7.0,6.0,1668050492.162329
319943404.0,4.998339653015137,5.184000015258789,7.0,6.0,1668050492.262425
320043493.0,5.001562595367432,5.184000015258789,7.0,6.0,1668050492.362514
320143447.0,5.009619235992432,5.186000347137451,7.0,6.0,1668050492.462468
320243466.0,4.999950885772705,5.184000015258789,7.0,6.0,1668050492.562487
320343560.0,5.012841701507568,5.184000015258789,7.0,6.0,1668050492.662581
320443400.0,5.008007526397705,5.182000160217285,7.0,6.0,1668050492.762421
320543493.0,5.006396293640137,5.172000408172607,7.0,6.0,1668050492.862514
