TimeUS,TPX,TPY,PX,PY,TVX,TVY,VX,VY,TAX,TAY,AX,AY,timestamp
395186794.0,82.33500671386719,74.58717346191406,82.37316131591797,74.70246887207031,-1.3005768060684204,-1.8003432750701904,-1.2768809795379639,-1.6588420867919922,-1.312859058380127,-1.8426563739776611,-1.3168412446975708,-1.4767707586288452,1668050567.505815
395287129.0,82.20310974121094,74.41374206542969,82.32327270507812,74.7678451538086,-1.4841049909591675,-2.1262431144714355,-1.3763784170150757,-1.6672613620758057,-1.1778335571289062,-2.348921298980713,-1.2101995944976807,-1.430838942527771,1668050567.60615
395386823.0,82.06233978271484,74.23257446289062,82.24459075927734,74.77069091796875,-1.6406843662261963,-2.399399757385254,-1.4625216722488403,-1.7454688549041748,-1.1579028367996216,-2.35880970954895,-0.9126940965652466,-1.65870201587677,1668050567.705844
395486824.0,81.91173553466797,74.0416259765625,82.17616271972656,74.81587982177734,-1.8126578330993652,-2.727832794189453,-1.538475513458252,-1.7786178588867188,-1.0218909978866577,-2.4208390712738037,-0.5548319816589355,-1.8905863761901855,1668050567.805845
395586875.0,81.75271606445312,73.84131622314453,82.08116912841797,74.79795837402344,-1.9575780630111694,-3.007021427154541,-1.5754320621490479,-1.8813287019729614,-1.0613605976104736,-2.403796434402466,-0.34156692028045654,-2.0257163047790527,1668050567.905896
395687027.0,81.58573150634766,73.63105010986328,81.99725341796875,74.81582641601562,-2.1169161796569824,-3.333416700363159,-1.605725646018982,-1.9610048532485962,-1.1292473077774048,-2.3726613521575928,-0.22557233273983002,-2.1625115871429443,1668050568.006048
395786787.0,81.41165161132812,73.4114990234375,81.89153289794922,74.76908111572266,-2.259002923965454,-3.603447437286377,-1.6278905868530273,-2.0843617916107178,-1.1909170150756836,-2.3423149585723877,-0.21297788619995117,-2.173877477645874,1668050568.105808
395886787.0,81.22980499267578,73.18172454833984,81.80270385742188,74.75473022460938,-2.424731731414795,-3.914940357208252,-1.629490613937378,-2.174241065979004,-1.249904990196228,-2.3113763332366943,-0.28630128502845764,-2.1773970127105713,1668050568.205808
395986871.0,81.04090881347656,72.94261932373047,81.69293975830078,74.67695617675781,-2.575439453125,-4.170428276062012,-1.664103627204895,-2.2963671684265137,-1.3059741258621216,-2.280165672302246,-0.38895750045776367,-2.146721839904785,1668050568.305892
396087451.0,80.87396240234375,72.7712631225586,81.59746551513672,74.63581085205078,-2.7198266983032227,-4.391900062561035,-1.6697521209716797,-2.3902182579040527,-1.4199166297912598,-2.2110087871551514,-0.5068626403808594,-2.107853651046753,1668050568.406472
396187511.0,80.76619720458984,72.7588882446289,81.50880432128906,74.61590576171875,-2.8184823989868164,-4.4665207862854,-1.7013572454452515,-2.44632887840271,-1.4238080978393555,-2.2085049152374268,-0.6058050990104675,-2.0179028511047363,1668050568.506532
396286802.0,80.65719604492188,72.74629211425781,81.41702270507812,74.5963363647461,-2.914430856704712,-4.538151264190674,-1.746847152709961,-2.4914462566375732,-1.375340223312378,-2.239009380340576,-0.714844822883606,-1.9432604312896729,1668050568.605823
396386723.0,80.53952026367188,72.7171630859375,81.31840515136719,74.55927276611328,-3.004741668701172,-4.614694595336914,-1.7822003364562988,-2.546926259994507,-1.343822717666626,-2.258066177368164,-0.7941139340400696,-1.9001506567001343,1668050568.705744
396486841.0,80.41630554199219,72.67474365234375,81.21320343017578,74.50912475585938,-3.0757648944854736,-4.7017598152160645,-1.8264843225479126,-2.600045919418335,-1.2040183544158936,-2.3356075286865234,-0.8126518130302429,-1.8960027694702148,1668050568.805862
396586815.0,80.26786041259766,72.56707763671875,81.08177185058594,74.39397430419922,-3.1210453510284424,-4.797845840454102,-1.8766920566558838,-2.6906912326812744,-1.1592330932617188,-2.358156442642212,-0.7851353287696838,-1.9404422044754028,1668050568.905836
396686966.0,80.1198501586914,72.45148468017578,80.94145965576172,74.27493286132812,-3.141425609588623,-4.903259754180908,-1.933998703956604,-2.76983642578125,-1.0986425876617432,-2.3869872093200684,-0.7159650325775146,-1.97187340259552,1668050569.005987
396786757.0,79.9518814086914,72.2795181274414,80.77899932861328,74.10047149658203,-3.1506521701812744,-5.011150360107422,-2.001199245452881,-2.8819916248321533,-1.030051827430725,-2.4173779487609863,-0.6494912505149841,-2.0249266624450684,1668050569.105778
396887248.0,79.788330078125,72.10638427734375,80.61676788330078,73.92674255371094,-3.1490063667297363,-5.121423244476318,-2.0658175945281982,-2.9903969764709473,-0.9494981169700623,-2.4501380920410156,-0.5915679931640625,-2.055492401123047,1668050569.206269
396986777.0,79.60774230957031,71.88262176513672,80.43584442138672,73.70313262939453,-3.139521837234497,-5.232010841369629,-2.1268672943115234,-3.114331007003784,-0.9043124318122864,-2.4671730995178223,-0.5410699248313904,-2.0967719554901123,1668050569.305798
397087218.0,79.43278503417969,71.65935516357422,80.25335693359375,73.48326873779297,-3.119434356689453,-5.345086097717285,-2.1578969955444336,-3.244227886199951,-0.8795161247253418,-2.476120710372925,-0.49016767740249634,-2.1345674991607666,1668050569.406239
397186731.0,79.24307250976562,71.38981628417969,80.05489349365234,73.21764373779297,-3.1014301776885986,-5.455388069152832,-2.2065014839172363,-3.3780901432037354,-0.9944581389427185,-2.432236671447754,-0.4369050860404968,-2.15964412689209,1668050569.505752
397286873.0,79.06063079833984,71.12810516357422,79.85628509521484,72.96302795410156,-3.086094617843628,-5.556111812591553,-2.2641913890838623,-3.498403549194336,-1.1001261472702026,-2.3863039016723633,-0.4449213445186615,-2.163623332977295,1668050569.605894
397386813.0,78.8624267578125,70.8258056640625,79.6429443359375,72.66580963134766,-3.0864994525909424,-5.624714374542236,-2.3042705059051514,-3.6355857849121094,-0.941136360168457,-2.453361988067627,-0.5227748155593872,-2.1216139793395996,1668050569.705834
397486888.0,78.66551208496094,70.5291519165039,79.4265365600586,72.37816619873047,-3.0880446434020996,-5.664758682250977,-2.3468127250671387,-3.752220869064331,-0.8808899521827698,-2.475632429122925,-0.6019085645675659,-2.107086181640625,1668050569.805909
397586788.0,78.45249938964844,70.19689178466797,79.19686126708984,72.05017852783203,-3.075178861618042,-5.660345554351807,-2.410045623779297,-3.8895134925842285,-0.8830316662788391,-2.4748692512512207,-0.5939885377883911,-2.1397087574005127,1668050569.905809
397686855.0,78.24087524414062,69.87051391601562,78.96675872802734,71.73037719726562,-3.03938889503479,-5.630544185638428,-2.4943788051605225,-4.009367942810059,-0.8078362345695496,-2.500424861907959,-0.5663776397705078,-2.141392230987549,1668050570.005876
397786849.0,78.01504516601562,69.50615692138672,78.72361755371094,71.37211608886719,-2.9777984619140625,-5.560399055480957,-2.54339599609375,-4.136308670043945,-0.4736720025539398,-2.2993364334106445,-0.5573629140853882,-2.1286771297454834,1668050570.10587
397887067.0,77.79469299316406,69.150634765625,78.48336791992188,71.0217514038086,-2.883317470550537,-5.442105770111084,-2.5707037448883057,-4.2522873878479,0.07581061869859695,-1.3761889934539795,-0.4900486171245575,-2.0908968448638916,1668050570.206088
397986900.0,77.58013153076172,68.80156707763672,78.23467254638672,70.63654327392578,-2.747528076171875,-5.239515781402588,-2.5523056983947754,-4.347564697265625,0.6184319257736206,-0.3619058132171631,-0.19492319226264954,-1.8290694952011108,1668050570.305921
398086848.0,77.3772201538086,68.4715347290039,77.99043273925781,70.26664733886719,-2.5793211460113525,-4.9927473068237305,-2.5464119911193848,-4.378446578979492,1.1529548168182373,0.6629642248153687,0.2994619607925415,-1.3035016059875488,1668050570.405869
398186868.0,77.1883544921875,68.16435241699219,77.74590301513672,69.87330627441406,-2.3726749420166016,-4.660781383514404,-2.4549641609191895,-4.348388671875,1.6354748010635376,1.6015545129776,0.849381148815155,-0.49157845973968506,1668050570.505889
398286838.0,77.01483154296875,67.88214874267578,77.51982116699219,69.50482940673828,-2.160989761352539,-4.315616130828857,-2.3167662620544434,-4.230431079864502,1.7495146989822388,1.9605920314788818,1.4126216173171997,0.5163794755935669,1668050570.605859
398386785.0,76.85758972167969,67.62645721435547,77.30146789550781,69.12931823730469,-1.9436405897140503,-3.941659688949585,-2.171166181564331,-4.044823169708252,1.6649187803268433,2.032921314239502,1.8446377515792847,1.4223556518554688,1668050570.705806
398486901.0,76.71522521972656,67.39497375488281,77.10679626464844,68.7911148071289,-1.7397223711013794,-3.5878000259399414,-2.0082736015319824,-3.774418830871582,1.6294137239456177,2.061488389968872,2.017543077468872,2.148202657699585,1668050570.805922
398586836.0,76.58721160888672,67.18711853027344,76.92534637451172,68.46245574951172,-1.5619595050811768,-3.2603394985198975,-1.791921615600586,-3.4591188430786133,1.3426002264022827,1.494630217552185,1.9724642038345337,2.57564115524292,1668050570.905857
398686923.0,76.46991729736328,66.99700164794922,76.7671127319336,68.18172454833984,-1.4225029945373535,-3.0073235034942627,-1.6134194135665894,-3.1116316318511963,0.9024897813796997,0.6673685908317566,1.7492029666900635,2.6794989109039307,1668050571.005944
398786771.0,76.36158752441406,66.82166290283203,76.62187194824219,67.9198989868164,-1.306112289428711,-2.790788412094116,-1.4426674842834473,-2.7775213718414307,0.769649863243103,0.21211174130439758,1.3306777477264404,2.395582914352417,1668050571.105792
398887634.0,76.26152038574219,66.65973663330078,76.49087524414062,67.69673156738281,-1.1758158206939697,-2.5680580139160156,-1.332968831062317,-2.4776597023010254,1.0266754627227783,0.35613295435905457,0.8629745841026306,1.7918081283569336,1668050571.206655
398986879.0,76.17253112792969,66.51581573486328,76.36807250976562,67.48550415039062,-1.039317011833191,-2.3342998027801514,-1.177860975265503,-2.2175111770629883,1.0241702795028687,0.18428069353103638,0.6378042697906494,1.0766701698303223,1668050571.3059
399086808.0,76.09300994873047,66.38719940185547,76.26605987548828,67.31084442138672,-0.9246567487716675,-2.139026403427124,-1.0984054803848267,-2.0213420391082764,1.0647944211959839,0.10423171520233154,0.7025327682495117,0.6197993159294128,1668050571.405829
399186963.0,76.02206420898438,66.27247619628906,76.18269348144531,67.15979766845703,-0.8295261263847351,-1.9688575267791748,-1.0196021795272827,-1.9096037149429321,1.077004313468933,0.2195790857076645,0.7916553616523743,0.2677658200263977,1668050571.505984
399286864.0,75.95907592773438,66.1706314086914,76.11412048339844,67.0128402709961,-0.7508499026298523,-1.8055245876312256,-0.9403790831565857,-1.8150032758712769,0.9569839835166931,0.3360935151576996,0.8889284133911133,0.108364999294281,1668050571.605885
399386959.0,75.90282440185547,66.07970428466797,76.04634857177734,66.85566711425781,-0.6737712025642395,-1.633264422416687,-0.8522405624389648,-1.7635042667388916,0.8324049115180969,0.5745330452919006,0.9305402636528015,0.08394572883844376,1668050571.70598
399486789.0,75.85287475585938,65.99893188476562,75.99668884277344,66.70484924316406,-0.6159439086914062,-1.4692232608795166,-0.7488989233970642,-1.7064193487167358,0.6974934935569763,0.7781704068183899,0.8924043774604797,0.1818905472755432,1668050571.80581
399586820.0,75.80841827392578,65.92706298828125,75.94805145263672,66.5473861694336,-0.559954822063446,-1.2998634576797485,-0.6606898903846741,-1.6543772220611572,0.5612837672233582,0.9451804161071777,0.8235676288604736,0.3623717427253723,1668050571.9058409
399686854.0,75.76876068115234,65.86295318603516,75.91416931152344,66.3951187133789,-0.519737184047699,-1.1373486518859863,-0.5774814486503601,-1.5770353078842163,0.44662368297576904,1.0988143682479858,0.7329995632171631,0.53159499168396,1668050572.0058749
399786831.0,75.73345184326172,65.80587005615234,75.87972259521484,66.2413330078125,-0.47943586111068726,-0.9740968942642212,-0.5247485637664795,-1.4931272268295288,0.3551119267940521,1.1921818256378174,0.637003481388092,0.721695601940155,1668050572.105852
399887354.0,75.7020034790039,65.75503540039062,75.85899353027344,66.09960174560547,-0.4536254107952118,-0.824146568775177,-0.46250638365745544,-1.404494285583496,0.28442734479904175,1.2695986032485962,0.5305044651031494,0.8571796417236328,1668050572.206375
399986782.0,75.67414093017578,65.7099838256836,75.83533477783203,65.96038818359375,-0.42530661821365356,-0.6773979663848877,-0.4250651001930237,-1.304375410079956,0.2297881841659546,1.2990899085998535,0.4077564775943756,0.9697107672691345,1668050572.305803
400086949.0,75.64920806884766,65.66966247558594,75.83499908447266,65.83891296386719,-0.4207782745361328,-0.5491569638252258,-0.3868550658226013,-1.1904250383377075,0.14510181546211243,1.304492473602295,0.3297732174396515,1.0317453145980835,1668050572.40597
400186805.0,75.6270980834961,65.6339111328125,75.82840728759766,65.72232055664062,-0.4104725420475006,-0.426567941904068,-0.3735610842704773,-1.070393443107605,0.0793381854891777,1.2719348669052124,0.2427758425474167,1.0670955181121826,1668050572.505826
400286780.0,75.60737609863281,65.60201263427734,75.83299255371094,65.61705017089844,-0.41179201006889343,-0.31602996587753296,-0.34234529733657837,-0.9703296422958374,0.04477567598223686,1.2689911127090454,0.16684922575950623,1.0696192979812622,1668050572.605801
400386836.0,75.58983612060547,65.57362365722656,75.82842254638672,65.5175552368164,-0.4043002724647522,-0.21183477342128754,-0.3603058159351349,-0.8552407622337341,0.05136973410844803,1.2617541551589966,0.08617732673883438,1.0532857179641724,1668050572.705857
400486785.0,75.57421875,65.54839324951172,75.8280258178711,65.42919158935547,-0.40131866931915283,-0.11927350610494614,-0.35624292492866516,-0.7511894106864929,0.08847350627183914,1.2542016506195068,-0.013537834398448467,1.0385664701461792,1668050572.805806
400586816.0,75.56031799316406,65.52592468261719,75.8172378540039,65.34719848632812,-0.3882025480270386,-0.03351842984557152,-0.37168750166893005,-0.650931715965271,0.15333238244056702,1.2491707801818848,-0.04874572157859802,1.0187565088272095,1668050572.905837
400686980.0,75.54789733886719,65.50585174560547,75.80601501464844,65.27932739257812,-0.374959796667099,0.03761846572160721,-0.39878925681114197,-0.551480770111084,0.24635931849479675,1.2167418003082275,-0.05904075875878334,1.0065871477127075,1668050573.006001
400786784.0,75.53691864013672,65.48809051513672,75.78440856933594,65.21772003173828,-0.35152366757392883,0.10218305140733719,-0.4085129201412201,-0.46512240171432495,0.35874319076538086,1.1842542886734009,-0.025487517938017845,0.9860044121742249,1668050573.105805
400887179.0,75.527099609375,65.47222137451172,75.76817321777344,65.16924285888672,-0.3336637318134308,0.15327438712120056,-0.43635794520378113,-0.3716091513633728,0.44168010354042053,1.129521131515503,0.060621488839387894,0.9598064422607422,1668050573.2062
400986746.0,75.51837921142578,65.45812225341797,75.7429428100586,65.12655639648438,-0.30699488520622253,0.19829709827899933,-0.4526592195034027,-0.29199716448783875,0.5061630010604858,1.0755971670150757,0.13161787390708923,0.9106352925300598,1668050573.305767
401086958.0,75.5105972290039,65.44551086425781,75.72372436523438,65.09710693359375,-0.2864646911621094,0.2298334836959839,-0.45091545581817627,-0.2091200202703476,0.5523719191551208,1.0006673336029053,0.21591876447200775,0.861301839351654,1668050573.405979
401186743.0,75.50370025634766,65.43437957763672,75.69721984863281,65.07261657714844,-0.2588404715061188,0.2561584711074829,-0.4515022933483124,-0.13521413505077362,0.5846933126449585,0.9183289408683777,0.296286016702652,0.8149322271347046,1668050573.505764
401287016.0,75.4975357055664,65.42436218261719,75.68128967285156,65.05643463134766,-0.24189771711826324,0.2739288806915283,-0.42478492856025696,-0.06882832199335098,0.585507333278656,0.8486471176147461,0.35707321763038635,0.7408139109611511,1668050573.606037
401386750.0,75.4920654296875,65.41551971435547,75.65957641601562,65.04415130615234,-0.21928294003009796,0.28766438364982605,-0.42770588397979736,-0.010355295613408089,0.5608940720558167,0.7809929251670837,0.42656004428863525,0.6717231869697571,1668050573.705771
401486804.0,75.48719024658203,65.40762329101562,75.64631652832031,65.03971099853516,-0.20519523322582245,0.2934289574623108,-0.37819361686706543,0.04349232092499733,0.53005051612854,0.7209121584892273,0.4488834738731384,0.5907874703407288,1668050573.805825
401586923.0,75.48280334472656,65.40055084228516,75.62800598144531,65.03800201416016,-0.18770356476306915,0.29357174038887024,-0.366314560174942,0.08328602463006973,0.46665096282958984,0.4907342493534088,0.46321186423301697,0.5248810648918152,1668050573.9059439
401687539.0,75.47856140136719,65.39347839355469,75.61444854736328,65.038818359375,-0.17782948911190033,0.2808676064014435,-0.3373264968395233,0.10219994932413101,0.449076771736145,0.0616656094789505,0.43820497393608093,0.42646658420562744,1668050574.00656
401786777.0,75.4743881225586,65.38522338867188,75.60796356201172,65.04310607910156,-0.1754436045885086,0.24606753885746002,-0.33332762122154236,0.10920049250125885,0.3957861661911011,-0.40326637029647827,0.38016295433044434,0.20799300074577332,1668050574.105798
401887130.0,75.47016906738281,65.37320709228516,75.603515625,65.04460144042969,-0.1758764535188675,0.18150833249092102,-0.29438355565071106,0.08635297417640686,0.3595309257507324,-0.6388190984725952,0.32910826802253723,-0.1435406357049942,1668050574.206151
401986936.0,75.46585083007812,65.35472869873047,75.59516143798828,65.04133605957031,-0.17310772836208344,0.08954185247421265,-0.287113219499588,0.03750661760568619,0.3402029871940613,-0.9692515134811401,0.28620249032974243,-0.4999788701534271,1668050574.305957
402086918.0,75.46141052246094,65.32743835449219,75.58679962158203,65.03030395507812,-0.17090362310409546,-0.026142004877328873,-0.28763094544410706,-0.05488155782222748,0.35851186513900757,-1.167464017868042,0.26925304532051086,-0.8680857419967651,1668050574.405939
402186764.0,75.45674896240234,65.28921508789062,75.57438659667969,65.00848388671875,-0.16514301300048828,-0.16093677282333374,-0.2606065571308136,-0.1706012636423111,0.3735155165195465,-1.373690128326416,0.256789892911911,-1.180612564086914,1668050574.505785
402286764.0,75.451904296875,65.23821258544922,75.5614013671875,64.97467803955078,-0.15919049084186554,-0.3134381175041199,-0.26486462354660034,-0.3126862943172455,0.40726274251937866,-1.4057691097259521,0.262708455324173,-1.4093023538589478,1668050574.605785
402386811.0,75.44682312011719,65.17312622070312,75.54472351074219,64.92558288574219,-0.14981098473072052,-0.47488006949424744,-0.26988935470581055,-0.46978628635406494,0.44547927379608154,-1.3882004022598267,0.28362932801246643,-1.5774457454681396,1668050574.705832
402486895.0,75.44149780273438,65.09300231933594,75.5294418334961,64.86418914794922,-0.14201422035694122,-0.6444130539894104,-0.2658717930316925,-0.6347578763961792,0.48234230279922485,-1.372366189956665,0.3075995445251465,-1.6217341423034668,1668050574.805916
402586888.0,75.43598175048828,64.99810791015625,75.51192474365234,64.7863998413086,-0.13206222653388977,-0.8124403357505798,-0.25587478280067444,-0.80706387758255,0.49080079793930054,-1.3634142875671387,0.3608948886394501,-1.6285752058029175,1668050574.905909
402686771.0,75.4302749633789,64.88803100585938,75.49618530273438,64.6913833618164,-0.12401529401540756,-0.9779930114746094,-0.23441597819328308,-0.974797248840332,0.4977412819862366,-1.3481675386428833,0.4084932506084442,-1.5899978876113892,1668050575.005792
402786749.0,75.42436981201172,64.76290893554688,75.47898864746094,64.57917785644531,-0.11465420573949814,-1.1398074626922607,-0.2294122874736786,-1.1402519941329956,0.4927910268306732,-1.3368422985076904,0.4354483187198639,-1.5340354442596436,1668050575.1057699
402887149.0,75.41826629638672,64.62296295166016,75.46430969238281,64.45101928710938,-0.10788404196500778,-1.298702359199524,-0.22063302993774414,-1.2993971109390259,0.48262202739715576,-1.3366410732269287,0.4550524055957794,-1.4865022897720337,1668050575.20617
402986778.0,75.41200256347656,64.46853637695312,75.44941711425781,64.30721282958984,-0.10092330724000931,-1.4534960985183716,-0.1946152299642563,-1.4468947649002075,0.44538965821266174,-1.3543415069580078,0.48685991764068604,-1.4392127990722656,1668050575.305799
403086849.0,75.40558624267578,64.29969787597656,75.44004821777344,64.14990997314453,-0.09945573657751083,-1.6072602272033691,-0.1692236065864563,-1.5939698219299316,0.40943896770477295,-1.3810162544250488,0.5009490251541138,-1.397188425064087,1668050575.40587
403186840.0,75.39901733398438,64.11674499511719,75.4311294555664,63.97829055786133,-0.09836875647306442,-1.758521556854248,-0.1549949049949646,-1.7334057092666626,0.3620326519012451,-1.4157389402389526,0.5026992559432983,-1.3676072359085083,1668050575.505861
403286808.0,75.392333984375,63.92003631591797,75.4186782836914,63.79487609863281,-0.09363828599452972,-1.9091970920562744,-0.14686135947704315,-1.8645206689834595,0.3614374101161957,-1.460625171661377,0.4813165068626404,-1.3548601865768433,1668050575.605829
403387000.0,75.38554382324219,63.70888137817383,75.40434265136719,63.597679138183594,-0.08694832772016525,-2.059103012084961,-0.11718100309371948,-2.0062506198883057,0.37482520937919617,-1.488991379737854,0.42388296127319336,-1.3699054718017578,1668050575.706021
403486814.0,75.37873077392578,63.48582458496094,75.39446258544922,63.38883590698242,-0.08454082906246185,-2.206054449081421,-0.10959235578775406,-2.1377408504486084,0.3618561029434204,-1.5228387117385864,0.39907899498939514,-1.382826566696167,1668050575.805835
403586832.0,75.37181091308594,63.24873352050781,75.3849105834961,63.16633224487305,-0.08235733211040497,-2.3513190746307373,-0.11056336015462875,-2.2762107849121094,0.3473506569862366,-1.5512975454330444,0.4026084840297699,-1.3949733972549438,1668050575.905853
403686787.0,75.3648681640625,62.99871063232422,75.37128448486328,62.9345588684082,-0.07594294100999832,-2.4981088638305664,-0.09211548417806625,-2.4095208644866943,0.3712983727455139,-1.5764859914779663,0.3804369568824768,-1.4136184453964233,1668050576.0058079
403786773.0,75.35790252685547,62.73609161376953,75.35575866699219,62.68422317504883,-0.06750991940498352,-2.6363749504089355,-0.09195291250944138,-2.544570207595825,0.4055876135826111,-1.5954643487930298,0.36375391483306885,-1.430807113647461,1668050576.105794
403887128.0,75.35093688964844,62.46082305908203,75.33902740478516,62.42361831665039,-0.05776364728808403,-2.775245189666748,-0.10492561012506485,-2.6778712272644043,0.43203654885292053,-1.6146485805511475,0.3866921067237854,-1.426329255104065,1668050576.206149
403986829.0,75.34398651123047,62.17328643798828,75.32173919677734,62.14893341064453,-0.047391388565301895,-2.910392999649048,-0.08898528665304184,-2.8062193393707275,0.47008323669433594,-1.6180623769760132,0.42109644412994385,-1.448956847190857,1668050576.30585
404087000.0,75.3370132446289,61.873260498046875,75.30171203613281,61.8659553527832,-0.034342117607593536,-3.0477213859558105,-0.09223675727844238,-2.9393413066864014,0.5042599439620972,-1.645769715309143,0.4341179430484772,-1.4399162530899048,1668050576.4060209
404186757.0,75.33003997802734,61.56218719482422,75.2813720703125,61.566810607910156,-0.021056680008769035,-3.177422523498535,-0.0998077392578125,-3.0592265129089355,0.541353166103363,-1.660502552986145,0.47994980216026306,-1.4553358554840088,1668050576.505778
404286942.0,75.32301330566406,61.23826217651367,75.25968170166016,61.25640869140625,-0.007677283138036728,-3.3060388565063477,-0.08144216984510422,-3.192196846008301,-0.05349693074822426,-1.2612626552581787,0.46810516715049744,-1.4578777551651,1668050576.605963
404386817.0,75.31526947021484,60.90420913696289,75.23799133300781,60.933563232421875,-0.010636415332555771,-3.4178972244262695,-0.11803991347551346,-3.295057535171509,-0.1578637659549713,-1.498718500137329,0.4298054873943329,-1.369376540184021,1668050576.705838
404486825.0,75.30449676513672,60.561004638671875,75.2128677368164,60.60144805908203,-0.03841865435242653,-3.5234878063201904,-0.1424950808286667,-3.4095888137817383,-0.07239692658185959,-1.5243515968322754,0.20034058392047882,-1.268993616104126,1668050576.805846
404586771.0,75.28874206542969,60.2080078125,75.18507385253906,60.257659912109375,-0.08135957270860672,-3.626342296600342,-0.17642374336719513,-3.5054802894592285,-0.09882014989852905,-1.5218145847320557,-0.03908554092049599,-1.321829915046692,1668050576.905792
404686864.0,75.26716613769531,59.8455696105957,75.15482330322266,59.90280532836914,-0.13325977325439453,-3.7265892028808594,-0.2231016457080841,-3.5982437133789062,-0.10922961682081223,-1.5740046501159668,-0.1626407653093338,-1.3032276630401611,1668050577.005885
404786866.0,75.23943328857422,59.47388458251953,75.12044525146484,59.53659439086914,-0.18833966553211212,-3.8243541717529297,-0.2697969973087311,-3.7090349197387695,-0.05684524402022362,-1.5848126411437988,-0.19471094012260437,-1.3784165382385254,1668050577.105887
404887086.0,75.20558166503906,59.09295654296875,75.08179473876953,59.16239929199219,-0.24388758838176727,-3.9226269721984863,-0.34703293442726135,-3.8040220737457275,0.0027216337621212006,-1.593412160873413,-0.16626569628715515,-1.4184638261795044,1668050577.206107
404986787.0,75.16583251953125,58.7032356262207,75.03777313232422,58.77748489379883,-0.2980814576148987,-4.017802715301514,-0.4191219210624695,-3.9126875400543213,0.03937316685914993,-1.5764166116714478,-0.14820370078086853,-1.4498995542526245,1668050577.305808
405086797.0,75.1202392578125,58.30405807495117,74.98657989501953,58.38639450073242,-0.3499774932861328,-4.115331172943115,-0.47223934531211853,-4.013066291809082,0.08437934517860413,-1.560489296913147,-0.0712396577000618,-1.4676316976547241,1668050577.405818
405186895.0,75.06890106201172,57.89558029174805,74.92959594726562,57.98490524291992,-0.4008006453514099,-4.210723400115967,-0.5397459864616394,-4.115633964538574,0.1065494492650032,-1.5591791868209839,-0.003753082361072302,-1.4354145526885986,1668050577.5059159
405286834.0,75.01213073730469,57.47953414916992,74.86354064941406,57.5758056640625,-0.44677045941352844,-4.30423641204834,-0.5793343782424927,-4.212380409240723,0.10451430827379227,-1.5513437986373901,0.04415154829621315,-1.4275883436203003,1668050577.605855
405386805.0,74.9498062133789,57.05461120605469,74.79212188720703,57.156272888183594,-0.49273452162742615,-4.394168853759766,-0.6232239007949829,-4.307126045227051,0.12682472169399261,-1.5603529214859009,0.10511509329080582,-1.4006447792053223,1668050577.705826
405486842.0,74.88186645507812,56.620765686035156,74.71292114257812,56.72811508178711,-0.5364356637001038,-4.48262882232666,-0.6753246784210205,-4.397215843200684,0.14588889479637146,-1.5700510740280151,0.14945052564144135,-1.405279517173767,1668050577.805863
405586878.0,74.80858612060547,56.17934799194336,74.62995147705078,56.28961944580078,-0.5810572504997253,-4.5668792724609375,-0.7416186332702637,-4.485463619232178,0.14456436038017273,-1.574242353439331,0.1860322505235672,-1.406118631362915,1668050577.905899
405686794.0,74.72986602783203,55.72959518432617,74.53897857666016,55.84317398071289,-0.6225712299346924,-4.650214672088623,-0.785092294216156,-4.578211307525635,0.152017280459404,-1.566282033920288,0.19734223186969757,-1.4250195026397705,1668050578.005815
405786789.0,74.64580535888672,55.27197265625,74.44447326660156,55.38642883300781,-0.6653226613998413,-4.72989559173584,-0.8163862228393555,-4.664997577667236,0.18353240191936493,-1.5464435815811157,0.19636008143424988,-1.4292184114456177,1668050578.10581
405887235.0,74.55636596679688,54.805999755859375,74.3443832397461,54.92154312133789,-0.7066706418991089,-4.8082804679870605,-0.8523852825164795,-4.760408401489258,0.19073356688022614,-1.5167112350463867,0.21522986888885498,-1.452576994895935,1668050578.206256
405986752.0,74.46198272705078,54.33325958251953,74.24197387695312,54.44637680053711,-0.7492783069610596,-4.882114887237549,-0.8842691779136658,-4.848586082458496,0.21474090218544006,-1.488966941833496,0.2193441092967987,-1.4320570230484009,1668050578.305773
406087075.0,74.3622055053711,53.85084915161133,74.13333129882812,53.96189498901367,-0.789347231388092,-4.955678462982178,-0.9320273995399475,-4.931530475616455,0.2200694978237152,-1.455770492553711,0.21650338172912598,-1.4168477058410645,1668050578.406096
406186895.0,74.25796508789062,53.362586975097656,74.02293395996094,53.46756362915039,-0.8301703333854675,-5.024128437042236,-0.9664650559425354,-5.01924467086792,0.21635520458221436,-1.428604245185852,0.21139059960842133,-1.3915700912475586,1668050578.5059159
406286874.0,74.1492919921875,52.86770248413086,73.9095230102539,52.967918395996094,-0.87068772315979,-5.092654228210449,-0.9977473020553589,-5.094226360321045,0.1917411834001541,-1.407671332359314,0.2392236441373825,-1.3789135217666626,1668050578.605895
406386796.0,74.03617858886719,52.36561965942383,73.79532623291016,52.45996856689453,-0.9138400554656982,-5.15924072265625,-1.0104260444641113,-5.173426628112793,0.18197710812091827,-1.4104827642440796,0.23861734569072723,-1.3352992534637451,1668050578.705817
406486814.0,73.91835021972656,51.8548583984375,73.6773910522461,51.94590377807617,-0.9568076729774475,-5.227449893951416,-1.0327332019805908,-5.236326217651367,0.13661357760429382,-1.4185575246810913,0.26174965500831604,-1.3144158124923706,1668050578.805835
406586882.0,73.79651641845703,51.33805465698242,73.55892181396484,51.4240608215332,-1.0020666122436523,-5.29286003112793,-1.0562162399291992,-5.311976432800293,0.09782455116510391,-1.4352854490280151,0.2848581075668335,-1.2869030237197876,1668050578.905903
406686789.0,73.67046356201172,50.81385040283203,73.4320297241211,50.89704895019531,-1.0419890880584717,-5.359279155731201,-1.0892254114151,-5.364845275878906,0.07522712647914886,-1.4500914812088013,0.27676570415496826,-1.294808268547058,1668050579.00581
406786827.0,73.54037475585938,50.28275680541992,73.30329895019531,50.3627815246582,-1.0834274291992188,-5.424419403076172,-1.1297191381454468,-5.436716079711914,0.08332019299268723,-1.468851089477539,0.2339002788066864,-1.3224738836288452,1668050579.105848
406886972.0,73.40623474121094,49.74461364746094,73.16861724853516,49.83281326293945,-1.1221603155136108,-5.499754428863525,-1.1626183986663818,-5.480719566345215,0.09639564156532288,-1.5224453210830688,0.17368552088737488,-1.3432886600494385,1668050579.205993
406986927.0,73.26792907714844,49.19871520996094,73.03284454345703,49.29744338989258,-1.1633219718933105,-5.576322555541992,-1.1839632987976074,-5.541660785675049,0.07641265541315079,-1.5557068586349487,0.14818218350410461,-1.3756823539733887,1668050579.305948
407086827.0,73.1263198852539,48.64847183227539,72.8926773071289,48.75476837158203,-1.2032772302627563,-5.64725923538208,-1.2229570150375366,-5.603342056274414,0.1435171514749527,-1.5187194347381592,0.1530793309211731,-1.4432103633880615,1668050579.405848
407186793.0,72.98094940185547,48.09205627441406,72.7510757446289,48.20295333862305,-1.243326187133789,-5.71169900894165,-1.2879834175109863,-5.670190334320068,0.14162802696228027,-1.555870771408081,0.15733970701694489,-1.4412986040115356,1668050579.505814
407286804.0,72.8318862915039,47.52899169921875,72.60426330566406,47.64506912231445,-1.279665231704712,-5.776123523712158,-1.2971142530441284,-5.742029190063477,0.14569881558418274,-1.512872338294983,0.1538499891757965,-1.4604963064193726,1668050579.605825
407386819.0,72.67932891845703,46.959373474121094,72.45641326904297,47.07859802246094,-1.3165833950042725,-5.837761878967285,-1.3292886018753052,-5.806377410888672,0.16171447932720184,-1.525016188621521,0.19144855439662933,-1.4334893226623535,1668050579.7058399
407486777.0,72.52399444580078,46.38518524169922,72.30199432373047,46.50209426879883,-1.3481173515319824,-5.893608093261719,-1.3742611408233643,-5.875057220458984,0.15267044305801392,-1.5046769380569458,0.21760161221027374,-1.4225692749023438,1668050579.805798
407586870.0,72.36514282226562,45.80338668823242,72.1464614868164,45.916526794433594,-1.3812029361724854,-5.9481635093688965,-1.417968511581421,-5.940101146697998,0.1527547389268875,-1.475325584411621,0.20752200484275818,-1.4001259803771973,1668050579.905891
407686819.0,72.20386505126953,45.21765899658203,71.98477935791016,45.324974060058594,-1.4101040363311768,-6.00014591217041,-1.4227449893951416,-6.002985000610352,0.1571839153766632,-1.4628167152404785,0.19325317442417145,-1.3969504833221436,1668050580.00584
407786781.0,72.03958129882812,44.62586212158203,71.8223648071289,44.72618103027344,-1.4407382011413574,-6.050182342529297,-1.4491561651229858,-6.0545830726623535,0.18018798530101776,-1.4339934587478638,0.22117473185062408,-1.3896100521087646,1668050580.105802
407887307.0,71.87174987792969,44.02586364746094,71.6589584350586,44.11979293823242,-1.4729453325271606,-6.09958553314209,-1.4863812923431396,-6.117893695831299,0.21057868003845215,-1.3874374628067017,0.2550171911716461,-1.3792840242385864,1668050580.206328
407986765.0,71.70232391357422,43.42414093017578,71.4964828491211,43.50623321533203,-1.5050469636917114,-6.1410417556762695,-1.507082223892212,-6.167444229125977,0.15740439295768738,-1.3338587284088135,0.2854951322078705,-1.37229585647583,1668050580.305786
408086782.0,71.5301513671875,42.81614685058594,71.32984924316406,42.88447570800781,-1.5347018241882324,-6.178426265716553,-1.5334159135818481,-6.22788667678833,0.12974005937576294,-1.2696696519851685,0.32476091384887695,-1.331331729888916,1668050580.405803
408186756.0,71.3554916381836,42.20280838012695,71.16317749023438,42.25627899169922,-1.565830945968628,-6.211964130401611,-1.547241449356079,-6.279704570770264,0.1557050347328186,-1.1766002178192139,0.3144073188304901,-1.2816474437713623,1668050580.505777
408286884.0,71.17799377441406,41.58258819580078,70.99122619628906,41.624725341796875,-1.5923020839691162,-6.245695114135742,-1.5598748922348022,-6.326316833496094,0.119013212621212,-1.1335692405700684,0.2880938947200775,-1.2166157960891724,1668050580.605905
408386772.0,70.9996566772461,40.961997985839844,70.81913757324219,40.9887580871582,-1.6170275211334229,-6.271637439727783,-1.5835213661193848,-6.365505695343018,0.18803603947162628,-1.0475983619689941,0.27520906925201416,-1.1569076776504517,1668050580.705793
408486857.0,70.8190689086914,40.33539581298828,70.64232635498047,40.35042190551758,-1.6358671188354492,-6.297610282897949,-1.598644733428955,-6.407500267028809,0.20546329021453857,-0.9584605693817139,0.25288403034210205,-1.0828330516815186,1668050580.805878
408586928.0,70.63701629638672,39.704978942871094,70.46504974365234,39.7089729309082,-1.653145670890808,-6.319417476654053,-1.6243796348571777,-6.425906181335449,0.26153281331062317,-0.9317103624343872,0.25507423281669617,-0.9972963333129883,1668050580.9059489
408686782.0,70.45399475097656,39.07211685180664,70.2862777709961,39.07297897338867,-1.6683224439620972,-6.345974445343018,-1.6599668264389038,-6.4524455070495605,0.30383002758026123,-0.9606982469558716,0.269408643245697,-0.9282979369163513,1668050581.0058029
408786991.0,70.26937103271484,38.434322357177734,70.10611724853516,38.42837142944336,-1.682117223739624,-6.367893695831299,-1.683962345123291,-6.464412212371826,0.34542199969291687,-0.9860392808914185,0.3216700255870819,-0.9148146510124207,1668050581.1060119
408887007.0,70.08479309082031,37.79669952392578,69.92097473144531,37.7822151184082,-1.68888258934021,-6.387489318847656,-1.7001011371612549,-6.489232063293457,0.3576997220516205,-1.0051459074020386,0.3593713641166687,-0.9144846200942993,1668050581.206028
408986791.0,69.89949035644531,37.156028747558594,69.73638153076172,37.134342193603516,-1.6953400373458862,-6.407570838928223,-1.7017285823822021,-6.492910385131836,0.37325993180274963,-1.0183463096618652,0.40578559041023254,-0.9344491958618164,1668050581.305812
409086812.0,69.71330261230469,36.51145553588867,69.54949951171875,36.48517608642578,-1.698836326599121,-6.428589344024658,-1.7072983980178833,-6.507826328277588,0.5054445266723633,-0.9995054602622986,0.42368438839912415,-0.9448787569999695,1668050581.405833
409186868.0,69.52700805664062,35.86467361450195,69.36441040039062,35.83457946777344,-1.6994966268539429,-6.448306083679199,-1.7202913761138916,-6.507913589477539,0.5369722843170166,-0.9970068335533142,0.45792582631111145,-0.9453277587890625,1668050581.505889
409286795.0,69.34113311767578,35.216064453125,69.17947387695312,35.1871337890625,-1.6954106092453003,-6.4710869789123535,-1.7242578268051147,-6.524460792541504,0.5180168151855469,-0.9514776468276978,0.5340734124183655,-0.9677765369415283,1668050581.605816
409386788.0,69.15581512451172,34.56516647338867,68.99700927734375,34.53921127319336,-1.690855622291565,-6.49228572845459,-1.7054808139801025,-6.538690567016602,0.5184673070907593,-0.9698947072029114,0.5888904333114624,-0.9727001786231995,1668050581.7058089
409486719.0,68.97126007080078,33.91256332397461,68.813720703125,33.89170455932617,-1.6837950944900513,-6.510467529296875,-1.7014005184173584,-6.522065162658691,0.5306645035743713,-0.8537535667419434,0.608771562576294,-0.9693434834480286,1668050581.8057399
409586801.0,68.78752899169922,33.25885009765625,68.63306427001953,33.2431526184082,-1.677939772605896,-6.52241325378418,-1.69221031665802,-6.539918899536133,0.5217025876045227,-0.8919793367385864,0.6372997760772705,-0.9165118932723999,1668050581.905822
409686937.0,68.60445404052734,32.603668212890625,68.45453643798828,32.595462799072266,-1.6733131408691406,-6.533879280090332,-1.6830697059631348,-6.552811145782471,0.4941409230232239,-0.8940816521644592,0.6349990963935852,-0.9085487127304077,1668050582.005958
409786768.0,68.42302703857422,31.950796127319336,68.2795181274414,31.946746826171875,-1.670105218887329,-6.541498184204102,-1.6824696063995361,-6.5450334548950195,0.4618673622608185,-0.947763979434967,0.6304089426994324,-0.8932902812957764,1668050582.105789
409886788.0,68.2420425415039,31.295433044433594,68.10832977294922,31.298725128173828,-1.6693857908248901,-6.553329944610596,-1.6503952741622925,-6.554226398468018,0.4583383798599243,-0.9536182284355164,0.6071083545684814,-0.9040653705596924,1668050582.2058089
409986802.0,68.06246185302734,30.64067840576172,67.94037628173828,30.649442672729492,-1.669527292251587,-6.563779354095459,-1.6178441047668457,-6.550601005554199,0.4156891107559204,-0.9808465242385864,0.5790689587593079,-0.917591392993927,1668050582.305823
410086838.0,67.88384246826172,29.984689712524414,67.77202606201172,30.00084686279297,-1.6679296493530273,-6.576426029205322,-1.6370805501937866,-6.549688339233398,0.43410030007362366,-1.002655029296875,0.5459769368171692,-0.9193655848503113,1668050582.405859
410186802.0,67.70658111572266,29.32854652404785,67.60523986816406,29.3503360748291,-1.665319800376892,-6.587486267089844,-1.6365914344787598,-6.5671844482421875,0.45670202374458313,-1.001941204071045,0.5171852111816406,-0.9550533294677734,1668050582.505823
410286753.0,67.53068542480469,28.671815872192383,67.44010162353516,28.70235252380371,-1.66130793094635,-6.60172176361084,-1.6283133029937744,-6.570967674255371,0.47103917598724365,-1.0104105472564697,0.4937954246997833,-0.9460543394088745,1668050582.605774
410386812.0,67.35594940185547,28.012962341308594,67.27639770507812,28.052919387817383,-1.655588150024414,-6.61616325378418,-1.6138454675674438,-6.5777153968811035,0.5064793825149536,-1.0262271165847778,0.4761061668395996,-0.9490968585014343,1668050582.705833
410486741.0,67.18378448486328,27.356712341308594,67.11077880859375,27.4068546295166,-1.6439437866210938,-6.630681037902832,-1.6179718971252441,-6.581614971160889,0.5355311632156372,-1.0323723554611206,0.47865304350852966,-0.9401227235794067,1668050582.805762
410586969.0,67.01246643066406,26.69612693786621,66.94571685791016,26.7595157623291,-1.6306188106536865,-6.646520137786865,-1.6219598054885864,-6.589613914489746,0.6193088293075562,-1.0052284002304077,0.5008846521377563,-0.9551302790641785,1668050582.90599
410686815.0,66.84434509277344,26.039772033691406,66.78433227539062,26.11275863647461,-1.6152888536453247,-6.655179500579834,-1.5914456844329834,-6.580410480499268,0.6711164712905884,-1.025757908821106,0.5583249926567078,-0.9356656670570374,1668050583.005836
410786776.0,66.6781005859375,25.381872177124023,66.62522888183594,25.463897705078125,-1.5977857112884521,-6.661238670349121,-1.5934295654296875,-6.5915141105651855,0.6999896168708801,-1.0241533517837524,0.6191787123680115,-0.9437456130981445,1668050583.105797
410886788.0,66.51446533203125,24.72441864013672,66.47050476074219,24.815143585205078,-1.5797345638275146,-6.665651798248291,-1.5731650590896606,-6.586355209350586,0.725938618183136,-0.9821589589118958,0.6841406226158142,-0.9631714224815369,1668050583.2058089
410986726.0,66.35353088378906,24.067060470581055,66.31856536865234,24.164499282836914,-1.5598523616790771,-6.666092395782471,-1.543565034866333,-6.602598190307617,0.7053160667419434,-0.9691175818443298,0.7216010093688965,-0.9284759163856506,1668050583.305747
411086832.0,66.19554138183594,23.410417556762695,66.1717529296875,23.51690101623535,-1.5406967401504517,-6.666539669036865,-1.5243324041366577,-6.59267520904541,0.6814495921134949,-0.8983784317970276,0.7435693740844727,-0.9175551533699036,1668050583.405853
411186769.0,66.04071044921875,22.75507354736328,66.02804565429688,22.868515014648438,-1.520641565322876,-6.661850452423096,-1.4921828508377075,-6.583071231842041,0.6429176330566406,-0.9236994981765747,0.745656430721283,-0.8774948716163635,1668050583.50579
411286849.0,65.8888931274414,22.100566864013672,65.88510131835938,22.22252655029297,-1.498047113418579,-6.657133102416992,-1.4527655839920044,-6.596065044403076,0.6403515338897705,-0.9313437938690186,0.7489128112792969,-0.8631848692893982,1668050583.60587
411386839.0,65.7403793334961,21.447845458984375,65.74369049072266,21.575361251831055,-1.4736579656600952,-6.649569034576416,-1.4370787143707275,-6.584974765777588,0.6487694382667542,-0.9536806344985962,0.7209767699241638,-0.8886774778366089,1668050583.70586
411486958.0,65.59471893310547,20.79519271850586,65.60692596435547,20.927942276000977,-1.4509421586990356,-6.642327308654785,-1.4191045761108398,-6.585762977600098,0.6476112008094788,-0.9429618120193481,0.7448989152908325,-0.9086251854896545,1668050583.805979
411586895.0,65.45268249511719,20.145877838134766,65.47252655029297,20.278656005859375,-1.427210807800293,-6.630381107330322,-1.3885421752929688,-6.574277877807617,0.6460282802581787,-0.9348065257072449,0.7471520304679871,-0.934682309627533,1668050583.905916
411686841.0,65.31356811523438,19.49673843383789,65.33908081054688,19.627777099609375,-1.4014627933502197,-6.617079257965088,-1.3577386140823364,-6.570003032684326,0.6566532850265503,-0.8802158832550049,0.7548896074295044,-0.9310224652290344,1668050584.005862
411786881.0,65.17753601074219,18.848461151123047,65.20753479003906,18.974687576293945,-1.3745166063308716,-6.6003899574279785,-1.3487766981124878,-6.58970308303833,0.6545884013175964,-0.8284772038459778,0.7423897981643677,-0.9084092378616333,1668050584.105902
411886845.0,65.0447769165039,18.202159881591797,65.07630157470703,18.320749282836914,-1.3446378707885742,-6.581043720245361,-1.3147106170654297,-6.595522880554199,0.6718618869781494,-0.8330886363983154,0.7177448272705078,-0.8491733074188232,1668050584.205866
411986788.0,64.91504669189453,17.556211471557617,64.94686126708984,17.66532325744629,-1.313448429107666,-6.562315464019775,-1.2823821306228638,-6.580489158630371,0.6989628672599792,-0.8326600193977356,0.7168357968330383,-0.8139234781265259,1668050584.305809
412086787.0,64.78839874267578,16.910640716552734,64.82112121582031,17.019140243530273,-1.2825595140457153,-6.556089401245117,-1.249408483505249,-6.580751895904541,0.715783417224884,-0.8689455986022949,0.7302675247192383,-0.7794510722160339,1668050584.405808
412186867.0,64.6651840209961,16.266742706298828,64.6982650756836,16.374242782592773,-1.2509362697601318,-6.5527777671813965,-1.2301379442214966,-6.562265872955322,0.7238912582397461,-0.9376736283302307,0.7317032217979431,-0.7721432447433472,1668050584.505888
412286783.0,64.54503631591797,15.622275352478027,64.5782241821289,15.728808403015137,-1.2191240787506104,-6.551445960998535,-1.1959648132324219,-6.569938659667969,0.7162455320358276,-0.9637024998664856,0.7556512951850891,-0.8074350357055664,1668050584.605804
412386879.0,64.42780303955078,14.97626781463623,64.46090698242188,15.081663131713867,-1.187290906906128,-6.55084228515625,-1.1587883234024048,-6.551583290100098,0.7359897494316101,-0.954621434211731,0.7637184858322144,-0.8407236337661743,1668050584.7059
412486914.0,64.31412506103516,14.332438468933105,64.34567260742188,14.43448257446289,-1.1541069746017456,-6.548162460327148,-1.1417840719223022,-6.5514397621154785,0.7436466813087463,-0.9602583050727844,0.755813717842102,-0.8758404850959778,1668050584.805935
412586820.0,64.20361328125,13.688483238220215,64.23297882080078,13.78553295135498,-1.1203079223632812,-6.5438971519470215,-1.118675708770752,-6.546688556671143,0.7570890784263611,-0.9364635348320007,0.7562981843948364,-0.8929018378257751,1668050584.9058409
412686787.0,64.09613037109375,13.043853759765625,64.12609100341797,13.136580467224121,-1.0896193981170654,-6.540304183959961,-1.099283218383789,-6.55826473236084,0.7544370293617249,-0.9528431296348572,0.7872239351272583,-0.9100039601325989,1668050585.0058079
412786799.0,63.99176788330078,12.398943901062012,64.02286529541016,12.486103057861328,-1.059598684310913,-6.536582946777344,-1.0470658540725708,-6.553425312042236,0.7411015629768372,-0.9617651700973511,0.8015488386154175,-0.9139010310173035,1668050585.10582
412886880.0,63.89045333862305,11.753483772277832,63.92094039916992,11.835780143737793,-1.0277835130691528,-6.535479545593262,-0.9982706904411316,-6.56174373626709,0.7540997862815857,-0.9558727741241455,0.8044504523277283,-0.9235427379608154,1668050585.205901
412986805.0,63.79233932495117,11.108220100402832,63.821224212646484,11.18408203125,-0.9952314496040344,-6.534278392791748,-0.9892299175262451,-6.563047885894775,0.76949143409729,-0.9417245388031006,0.7768436074256897,-0.9419066905975342,1668050585.305826
413086805.0,63.6972770690918,10.462054252624512,63.726112365722656,10.531770706176758,-0.964352548122406,-6.533382415771484,-0.9550556540489197,-6.562560081481934,0.7599957585334778,-0.8704311847686768,0.7959566116333008,-0.9312534928321838,1668050585.405826
413186789.0,63.60528564453125,9.815546035766602,63.6353874206543,9.884788513183594,-0.9355186820030212,-6.5348687171936035,-0.9151849150657654,-6.56742000579834,0.7338254451751709,-0.7825361490249634,0.8017812967300415,-0.8811864256858826,1668050585.50581
413286872.0,63.51605987548828,9.167642593383789,63.547607421875,9.230607032775879,-0.9076250791549683,-6.526069164276123,-0.9049111604690552,-6.566235065460205,0.711694061756134,-0.721868097782135,0.7872586846351624,-0.8252171874046326,1668050585.605893
413386778.0,63.43014144897461,8.523353576660156,63.46165466308594,8.56928539276123,-0.8789172768592834,-6.502164840698242,-0.866891086101532,-6.556979179382324,0.7125939726829529,-0.659679114818573,0.790445864200592,-0.7470230460166931,1668050585.705799
413486817.0,63.346805572509766,7.877959251403809,63.3798942565918,7.915635108947754,-0.8523508906364441,-6.483621597290039,-0.8387822508811951,-6.541982650756836,0.7185639142990112,-0.6393155455589294,0.7618467807769775,-0.6656460165977478,1668050585.8058379
413586860.0,63.26615905761719,7.232903480529785,63.301429748535156,7.269237041473389,-0.8268569707870483,-6.470280647277832,-0.8047819137573242,-6.516794204711914,0.7188305258750916,-0.6384017467498779,0.7295324802398682,-0.6146669983863831,1668050585.905881
413686744.0,63.18857955932617,6.5915093421936035,63.224456787109375,6.6192169189453125,-0.8001608848571777,-6.449367523193359,-0.7870990633964539,-6.5098557472229,0.7256171107292175,-0.6499569416046143,0.7246225476264954,-0.5910155177116394,1668050586.005765
413786854.0,63.11350631713867,5.949531555175781,63.14949417114258,5.971022129058838,-0.773209810256958,-6.430790901184082,-0.756115198135376,-6.483343124389648,0.7319962382316589,-0.6143753528594971,0.727871835231781,-0.5902716517448425,1668050586.105875
413886947.0,63.04104995727539,5.30833625793457,63.07619094848633,5.324742794036865,-0.7457458972930908,-6.411408424377441,-0.7239179015159607,-6.466804027557373,0.728015124797821,-0.5174353718757629,0.7247631549835205,-0.5796311497688293,1668050586.205968
413986726.0,62.97148895263672,4.6715545654296875,63.00399398803711,4.674129962921143,-0.7180212736129761,-6.376025199890137,-0.7163776159286499,-6.431726455688477,0.7092307209968567,-0.2975097596645355,0.7039790153503418,-0.5449422001838684,1668050586.305747
414086691.0,62.90401840209961,4.034886837005615,62.93588638305664,4.0280070304870605,-0.6946930289268494,-6.330651760101318,-0.6909869909286499,-6.386260986328125,0.6805166602134705,-0.10560901463031769,0.6956899762153625,-0.4192015826702118,1668050586.405712
414186833.0,62.83872604370117,3.4029762744903564,62.87166213989258,3.3869762420654297,-0.6755595207214355,-6.271066665649414,-0.6679427027702332,-6.350813388824463,0.6679003834724426,0.06532428413629532,0.6742796897888184,-0.24454787373542786,1668050586.505854
414286813.0,62.7755126953125,2.778306245803833,62.80796813964844,2.742692708969116,-0.6569051742553711,-6.190736770629883,-0.6438467502593994,-6.279354572296143,0.6642263531684875,0.1861100196838379,0.6661502718925476,-0.06875897943973541,1668050586.605834
414386819.0,62.71397399902344,2.1594045162200928,62.74539566040039,2.1026835441589355,-0.6389303803443909,-6.102072715759277,-0.6245802640914917,-6.217950820922852,0.6729635000228882,0.256976455450058,0.6399374604225159,0.10257133096456528,1668050586.7058399
414486763.0,62.654056549072266,1.5471700429916382,62.684505462646484,1.4693927764892578,-0.6219485998153687,-6.009519577026367,-0.6328108310699463,-6.158818244934082,0.6563593149185181,0.34616515040397644,0.6446088552474976,0.1799268126487732,1668050586.805784
414586879.0,62.59555435180664,0.9408696293830872,62.62535858154297,0.8434981107711792,-0.606191098690033,-5.914798259735107,-0.5881296396255493,-6.069526672363281,0.6259770393371582,0.48261648416519165,0.6630919575691223,0.2715614140033722,1668050586.9059
414686763.0,62.53872299194336,0.3448845148086548,62.56903839111328,0.22875243425369263,-0.5933146476745605,-5.814445495605469,-0.5728539228439331,-5.966500282287598,0.5984550714492798,0.6412501931190491,0.7007651329040527,0.3682011663913727,1668050587.005784
414786758.0,62.48302459716797,-0.243643119931221,62.516029357910156,-0.37454256415367126,-0.5843942761421204,-5.709475040435791,-0.5779291391372681,-5.879763126373291,0.5691783428192139,0.6506497263908386,0.6881237030029297,0.5056338906288147,1668050587.105779
414886807.0,62.428401947021484,-0.8231515288352966,62.466468811035156,-0.9676569104194641,-0.5788753628730774,-5.600620746612549,-0.5540639162063599,-5.775624752044678,0.5458662509918213,0.8183693289756775,0.6670358180999756,0.5961830615997314,1668050587.205828
414986789.0,62.37499237060547,-1.3908348083496094,62.42076873779297,-1.549391746520996,-0.5734446048736572,-5.45573616027832,-0.540647029876709,-5.642227649688721,0.5490864515304565,1.3502216339111328,0.5988932847976685,0.6910722851753235,1668050587.30581
415087073.0,62.3228874206543,-1.9454783201217651,62.376121520996094,-2.1148414611816406,-0.563593327999115,-5.265379428863525,-0.5319297313690186,-5.494894981384277,0.6092650294303894,1.9396171569824219,0.5280759334564209,0.9943614602088928,1668050587.406094
415186806.0,62.273075103759766,-2.4760444164276123,62.332855224609375,-2.663425922393799,-0.5488875508308411,-5.023403644561768,-0.5116825103759766,-5.328683376312256,0.6416548490524292,2.5481367111206055,0.49314776062965393,1.4236918687820435,1668050587.505827
415286760.0,62.22543716430664,-2.9835045337677,62.29023742675781,-3.1896684169769287,-0.5284091234207153,-4.734215259552002,-0.5179094076156616,-5.112576007843018,0.5932242274284363,2.559845209121704,0.47565165162086487,1.9672930240631104,1668050587.605781
415386788.0,62.18054962158203,-3.461790084838867,62.24720001220703,-3.693695545196533,-0.5007513761520386,-4.394662857055664,-0.5162463784217834,-4.889707088470459,0.5468798875808716,2.5701448917388916,0.46700382232666016,2.3389065265655518,1668050587.7058089
415486752.0,62.138694763183594,-3.9080867767333984,62.204071044921875,-4.1715826988220215,-0.46917879581451416,-4.04049015045166,-0.5410665273666382,-4.62252140045166,0.5689482688903809,2.56535005569458,0.4187723398208618,2.580606698989868,1668050587.805773
415586864.0,62.09986114501953,-4.322140216827393,62.15951156616211,-4.6219000816345215,-0.43362390995025635,-3.68647837638855,-0.5300998687744141,-4.35086727142334,0.5968508124351501,2.559002161026001,0.35064005851745605,2.6808865070343018,1668050587.905885
415686904.0,62.0639762878418,-4.704639434814453,62.11395263671875,-5.039355278015137,-0.3946281671524048,-3.3390567302703857,-0.5404762625694275,-4.042684555053711,0.6481296420097351,2.5464978218078613,0.26442763209342957,2.738563060760498,1668050588.005925
415786800.0,62.03097152709961,-5.056588172912598,62.0677375793457,-5.424135208129883,-0.3526119589805603,-2.999192953109741,-0.5712547898292542,-3.7480363845825195,0.7018541693687439,2.532217025756836,0.18814556300640106,2.7398648262023926,1668050588.105821
415886807.0,62.00088119506836,-5.377365589141846,62.0187873840332,-5.777906894683838,-0.3054610788822174,-2.664679765701294,-0.6092129945755005,-3.4666748046875,0.7839018702507019,2.5080313682556152,0.06412550061941147,2.7276418209075928,1668050588.205828
415986996.0,61.973426818847656,-5.669858455657959,61.967254638671875,-6.100419044494629,-0.25463035702705383,-2.3468434810638428,-0.6696091294288635,-3.1805052757263184,0.8836073875427246,2.4746639728546143,-0.04966426268219948,2.658402681350708,1668050588.306017
416086815.0,61.948490142822266,-5.934193134307861,61.91004180908203,-6.3939127922058105,-0.20317243039608002,-2.0831387042999268,-0.7248833179473877,-2.889740467071533,1.059770941734314,2.4044973850250244,-0.11107476055622101,2.5439505577087402,1668050588.405836
416186783.0,61.92491912841797,-6.178685665130615,61.84790802001953,-6.659596920013428,-0.1548166275024414,-1.879587173461914,-0.7540087699890137,-2.63297176361084,1.2944179773330688,2.286745548248291,-0.07100766152143478,2.394846200942993,1668050588.505804
416286892.0,61.90180587768555,-6.407691478729248,61.78212356567383,-6.8983988761901855,-0.11259818822145462,-1.7408937215805054,-0.7876083850860596,-2.3756601810455322,1.6177445650100708,2.0706582069396973,0.04582086578011513,2.2069385051727295,1668050588.605913
416386745.0,61.8780403137207,-6.626491069793701,61.71577835083008,-7.1110100746154785,-0.08224241435527802,-1.6707861423492432,-0.8059638738632202,-2.144814968109131,1.7495087385177612,1.3692421913146973,0.30517515540122986,1.9963500499725342,1668050588.705766
416486777.0,61.85239028930664,-6.840274333953857,61.650569915771484,-7.305685997009277,-0.06735312938690186,-1.6566004753112793,-0.7923876643180847,-1.9883248805999756,1.6481612920761108,0.7750421762466431,0.6620475053787231,1.6218435764312744,1668050588.805798
416586986.0,61.82392883300781,-7.051065921783447,61.589393615722656,-7.484107971191406,-0.06561078876256943,-1.662623405456543,-0.7784988880157471,-1.8243812322616577,1.5615060329437256,0.27373912930488586,0.919322669506073,1.0803909301757812,1668050588.906007
416686924.0,61.79214859008789,-7.260148525238037,61.531585693359375,-7.651525497436523,-0.07249431312084198,-1.686771035194397,-0.711189866065979,-1.7325501441955566,1.5035368204116821,-0.1990503966808319,0.9641705751419067,0.5351723432540894,1668050589.005945
416786802.0,61.757328033447266,-7.467151165008545,61.47941207885742,-7.814133644104004,-0.08651908487081528,-1.7300900220870972,-0.6476609706878662,-1.688825011253357,1.3434327840805054,-0.3239535391330719,0.9507514238357544,-0.04743316397070885,1668050589.105823
416886983.0,61.71918487548828,-7.6761040687561035,61.43234634399414,-7.975351810455322,-0.10773326456546783,-1.7900969982147217,-0.6095852255821228,-1.702573299407959,1.1859432458877563,-0.4327622056007385,0.8899775743484497,-0.40335506200790405,1668050589.206004
416986763.0,61.67832565307617,-7.885308265686035,61.390350341796875,-8.140110969543457,-0.13681067526340485,-1.8553053140640259,-0.5775383114814758,-1.7512943744659424,1.0600390434265137,-0.4152820408344269,0.7952391505241394,-0.6565399765968323,1668050589.305784
417086854.0,61.63423538208008,-8.097657203674316,61.34964370727539,-8.311384201049805,-0.171757772564888,-1.922538161277771,-0.5382885336875916,-1.7852102518081665,0.9618378281593323,-0.4039824306964874,0.7310866117477417,-0.730284571647644,1668050589.405875
417186802.0,61.586883544921875,-8.312896728515625,61.31072998046875,-8.489954948425293,-0.21325111389160156,-1.9882311820983887,-0.5314028859138489,-1.8501622676849365,0.8514964580535889,-0.3837299346923828,0.715064525604248,-0.6782483458518982,1668050589.505823
417286913.0,61.53614044189453,-8.531189918518066,61.27140426635742,-8.674956321716309,-0.25884905457496643,-2.05176043510437,-0.508371889591217,-1.8958039283752441,0.7521454691886902,-0.39548614621162415,0.7144269347190857,-0.5740724205970764,1668050589.605934
417386768.0,61.48207473754883,-8.75188159942627,61.23188781738281,-8.865960121154785,-0.30893614888191223,-2.111022710800171,-0.4856337606906891,-1.9339765310287476,0.5894633531570435,-0.4035220146179199,0.6874731779098511,-0.4647762179374695,1668050589.705789
417486816.0,61.42420196533203,-8.975849151611328,61.19085693359375,-9.061576843261719,-0.36479517817497253,-2.167173147201538,-0.4614887535572052,-1.9591355323791504,0.2832154929637909,-0.45532354712486267,0.6115977168083191,-0.379775732755661,1668050589.805837
417586799.0,61.3619384765625,-9.202682495117188,61.14778137207031,-9.261359214782715,-0.43296799063682556,-2.219344139099121,-0.494079053401947,-2.000014066696167,-0.004032897762954235,-0.5025522112846375,0.49065348505973816,-0.34350189566612244,1668050589.90582
417686796.0,61.29416275024414,-9.431371688842773,61.1022834777832,-9.46306037902832,-0.5187314748764038,-2.267906665802002,-0.5113773941993713,-2.006985664367676,-0.26942428946495056,-0.5526604652404785,0.2734437584877014,-0.3225942850112915,1668050590.005817
417786879.0,61.2191162109375,-9.662769317626953,61.05513000488281,-9.66528034210205,-0.6240128874778748,-2.316091775894165,-0.5425933003425598,-2.034615993499756,-0.5653058290481567,-0.6592726707458496,-0.01522266585379839,-0.3588431179523468,1668050590.1059
417886807.0,61.13583755493164,-9.895476341247559,61.002079010009766,-9.868906021118164,-0.7446780800819397,-2.364844799041748,-0.5860801935195923,-2.051316976547241,-0.8287050724029541,-0.7721951007843018,-0.2872669994831085,-0.42556971311569214,1668050590.205828
417986861.0,61.04301071166992,-10.130146026611328,60.939857482910156,-10.07104778289795,-0.8759044408798218,-2.4187850952148438,-0.6646750569343567,-2.0952236652374268,-0.9569471478462219,-0.7801060080528259,-0.583019495010376,-0.5292685627937317,1668050590.305882
418086932.0,60.939453125,-10.367535591125488,60.865234375,-10.274681091308594,-1.0123132467269897,-2.470614194869995,-0.7637102603912354,-2.114380359649658,-1.089327096939087,-0.8040886521339417,-0.8232372999191284,-0.6081566214561462,1668050590.405953
418186825.0,60.8253059387207,-10.60561466217041,60.77695083618164,-10.476895332336426,-1.1502851247787476,-2.520533800125122,-0.9068587422370911,-2.1592965126037598,-1.135977029800415,-0.8974784016609192,-0.9855488538742065,-0.6094730496406555,1668050590.505846
