TimeUS,RDes,R,ROut,PDes,P,POut,YDes,Y,YOut,ADes,A,AOut,timestamp
221061356.0,-2.404397964477539,0.0453682541847229,-0.005938320886343718,-0.8626328110694885,-0.06480658799409866,-0.0031353384256362915,0.008999159559607506,-0.17802681028842926,0.0031649209558963776,0.0,17.40713119506836,0.0,1668050393.380377
221161056.0,-2.3729910850524902,-0.031576644629240036,-0.005742648616433144,-0.9081825613975525,0.40477097034454346,-0.0051086219027638435,0.009399855509400368,0.04419718310236931,0.0015558662125840783,0.0,-28.558635711669922,0.0,1668050393.480077
221261160.0,-2.3585100173950195,0.05713716894388199,-0.005929134786128998,-0.87993323802948,-0.1880445033311844,-0.0018720397492870688,0.009087520651519299,0.22806565463542938,-9.072972170542926e-05,0.0,12.53194808959961,0.0,1668050393.580181
221360960.0,-2.335728406906128,0.055364154279232025,-0.005861776880919933,-0.8940111994743347,-0.10686516016721725,-0.002864862559363246,0.009061924181878567,-0.18925248086452484,0.0010794156696647406,0.0,-25.053787231445312,0.0,1668050393.679981
221460963.0,-2.300504684448242,-0.008879532106220722,-0.005614018999040127,-0.9984076619148254,0.09749308228492737,-0.0033912193030118942,0.009975184686481953,-0.20002926886081696,0.0013898625038564205,0.0,23.362064361572266,0.0,1668050393.779984
221560999.0,-2.270615816116333,0.1034829393029213,-0.005856045987457037,-1.0216286182403564,-0.20040464401245117,-0.0018543179612606764,0.010103053413331509,0.0001330151571892202,-0.00016910434351302683,0.0,-13.045787811279297,0.0,1668050393.88002
221660926.0,-2.256636142730713,0.11109033972024918,-0.005805790424346924,-1.0127853155136108,-0.22938191890716553,-0.0024189401883631945,0.009948335587978363,-0.08572065830230713,0.0005554489325731993,0.0,7.510471343994141,0.0,1668050393.979947
221760997.0,-2.2158620357513428,-0.2013777494430542,-0.004897108301520348,-1.0913140773773193,0.16360044479370117,-0.0042171054519712925,0.010521169751882553,-0.16199542582035065,0.0015458224806934595,0.0,-11.695384979248047,0.0,1668050394.080018
221860916.0,-2.236049175262451,0.23128417134284973,-0.006043590139597654,-1.0993647575378418,-0.1012260690331459,-0.0028274953365325928,0.010717309080064297,0.0626680925488472,-0.00032239206484518945,0.0,9.571170806884766,0.0,1668050394.179937
221961374.0,-2.212775945663452,0.05778070166707039,-0.0055902861058712006,-1.0706417560577393,-0.11865078657865524,-0.0032341445330530405,0.010296658612787724,-0.23480334877967834,0.0010806561913341284,0.0,-7.5504302978515625,0.0,1668050394.280395
222060964.0,-2.218174934387207,0.0005276120500639081,-0.005387966521084309,-1.1074204444885254,0.10003682971000671,-0.003857916686683893,0.010697640478610992,-0.061166513711214066,0.0007338635623455048,0.0,-1.3152122497558594,0.0,1668050394.379985
222160975.0,-2.214264154434204,0.10124461352825165,-0.005695398431271315,-1.0813349485397339,-0.20325608551502228,-0.002302423119544983,0.010454592294991016,0.061994001269340515,0.0003748339368030429,0.0,8.215808868408203,0.0,1668050394.479996
222260938.0,-2.22599458694458,0.042415227741003036,-0.005511790048331022,-1.0817933082580566,0.03164244443178177,-0.0037500490434467793,0.010464080609381199,-0.18865501880645752,0.0002372117742197588,0.0,-5.147361755371094,0.0,1668050394.579959
222361027.0,-2.2078397274017334,-0.06475387513637543,-0.005245927721261978,-1.0936561822891235,-0.017070254310965538,-0.003203760599717498,0.010503621771931648,-0.19479870796203613,0.0016402577748522162,0.0,10.125350952148438,0.0,1668050394.680048
222461040.0,-2.243133306503296,0.1886146366596222,-0.005928389728069305,-1.0640681982040405,-0.07885770499706268,-0.0030634498689323664,0.010462440550327301,0.32867202162742615,-0.0007639957475475967,0.0,-7.948017120361328,0.0,1668050394.780061
222560981.0,-2.2121620178222656,-0.1346123218536377,-0.005077878944575787,-1.0748894214630127,0.006026259157806635,-0.0035598345566540956,0.01030059065669775,-0.43386033177375793,0.000954234681557864,0.0,2.2141456604003906,0.0,1668050394.880002
222661025.0,-2.238023519515991,0.22828227281570435,-0.006048230454325676,-1.0527210235595703,-0.08520989120006561,-0.0028912536799907684,0.010260188952088356,-0.07908521592617035,0.0015473365783691406,0.0,-4.148674011230469,0.0,1668050394.980046
222760963.0,-2.238192319869995,-0.09322772175073624,-0.00519438274204731,-1.0449498891830444,-0.01626754365861416,-0.003267657244578004,0.01023904513567686,0.23949961364269257,-0.0006615816382691264,0.0,4.036140441894531,0.0,1668050395.079984
222861025.0,-2.228194236755371,0.09076768904924393,-0.005710250698029995,-1.0620695352554321,-0.020326361060142517,-0.003170939162373543,0.010273776017129421,-0.32164737582206726,0.0007446454837918282,0.0,-1.3997077941894531,0.0,1668050395.180046
222961104.0,-2.248579263687134,0.07632936537265778,-0.0056487200781702995,-1.048034429550171,-0.11236359924077988,-0.0026864283718168736,0.010249115526676178,-0.17887097597122192,0.0016920528141781688,0.0,2.225208282470703,0.0,1668050395.280125
223061374.0,-2.2365760803222656,-0.016175327822566032,-0.005437274929136038,-1.030887246131897,-0.030243635177612305,-0.003277594456449151,0.010099397972226143,0.2604304254055023,-0.0003850023786071688,0.0,-4.299736022949219,0.0,1668050395.380395
223161278.0,-2.249518394470215,0.10428304225206375,-0.005746140610426664,-1.0512605905532837,0.029363282024860382,-0.0034401463344693184,0.010265764780342579,-0.24474044144153595,0.0002449122257530689,0.0,-1.6253471374511719,0.0,1668050395.480299
223261153.0,-2.2376177310943604,-0.039338573813438416,-0.005369570106267929,-1.0294835567474365,-0.12831108272075653,-0.002594128716737032,0.010003560222685337,-0.23830117285251617,0.0017884729895740747,0.0,2.8230667114257812,0.0,1668050395.580174
223361135.0,-2.253481864929199,0.11051440984010696,-0.005775236524641514,-1.0144977569580078,-0.04410291090607643,-0.0030941502191126347,0.0100126713514328,0.2497657835483551,-0.00033504131715744734,0.0,3.5269737243652344,0.0,1668050395.680156
223460961.0,-2.2417471408843994,-0.037596140056848526,-0.005379034671932459,-1.036758303642273,-0.02210059016942978,-0.0030701584182679653,0.010099569335579872,-0.22442255914211273,0.00038438430055975914,0.0,-3.6330223083496094,0.0,1668050395.779982
223560989.0,-2.2482361793518066,0.12658283114433289,-0.005821851082146168,-1.0243743658065796,-0.09360389411449432,-0.002785526914522052,0.010012173093855381,-0.16420631110668182,0.0013953902525827289,0.0,-0.8832931518554688,0.0,1668050395.88001
223660962.0,-2.248832941055298,-0.012719644233584404,-0.005446333438158035,-1.0226280689239502,0.006349070928990841,-0.0033138447906821966,0.010045736096799374,0.1344180554151535,-8.75282275956124e-05,0.0,-3.0289649963378906,0.0,1668050395.979983
223761059.0,-2.2409002780914307,0.04555732011795044,-0.005605645477771759,-1.0327438116073608,-0.028090285137295723,-0.003028673119843006,0.010052184574306011,-0.18603791296482086,0.00047685366007499397,0.0,-0.3542900085449219,0.0,1668050396.08008
223861006.0,-2.2482526302337646,0.06676214933395386,-0.0056499275378882885,-1.0255318880081177,-0.08212428539991379,-0.00288735912181437,0.010017038322985172,-0.21391336619853973,0.0014322178903967142,0.0,3.1302452087402344,0.0,1668050396.180027
223961011.0,-2.244786262512207,0.02310214936733246,-0.005543308798223734,-1.0271211862564087,0.007410711608827114,-0.003347972175106406,0.010070736519992352,0.13602712750434875,0.00012667343253269792,0.0,-3.3234596252441406,0.0,1668050396.280032
224061402.0,-2.251941680908203,0.07313425838947296,-0.005676967557519674,-1.0389870405197144,-0.007291136309504509,-0.0032509786542505026,0.010171805508434772,-0.12773242592811584,0.00020427475101314485,0.0,0.9350776672363281,0.0,1668050396.380423
224160984.0,-2.2426772117614746,0.000777370878495276,-0.005481283646076918,-1.0406893491744995,-0.018015028908848763,-0.00323476642370224,0.010137820616364479,-0.22742317616939545,0.0013962845550850034,0.0,-1.367950439453125,0.0,1668050396.480005
224260997.0,-2.246290683746338,0.038951583206653595,-0.0055833375081419945,-1.0399171113967896,-0.04464223235845566,-0.0029750498943030834,0.010211066342890263,0.10251140594482422,0.00023055131896398962,0.0,4.732608795166016,0.0,1668050396.580018
227273158.0,-2.2918686866760254,0.04411441087722778,-0.005727787967771292,-0.8811672925949097,-0.037140339612960815,-0.002214742824435234,0.008868474513292313,0.4037640392780304,0.00044369755778461695,0.0,-2.1991729736328125,0.0,1668050399.592179
227372906.0,-2.301565408706665,0.1519213616847992,-0.005978136323392391,-0.928338348865509,-0.04539123922586441,-0.002961269812658429,0.009160867892205715,-0.8479697108268738,0.002672081347554922,0.0,-3.54156494140625,0.0,1668050399.691927
227472963.0,-2.282693386077881,0.011946947313845158,-0.0056008691899478436,-0.9214575886726379,0.0721711665391922,-0.003922136500477791,0.009164885617792606,-0.023934170603752136,0.002663172548636794,0.0,-10.53628921508789,0.0,1668050399.791984
227573021.0,-2.2773163318634033,0.1552589386701584,-0.00596240209415555,-1.001625657081604,0.054849278181791306,-0.0034523606300354004,0.010036290623247623,0.5148537755012512,-0.0018770992755889893,0.0,8.889102935791016,0.0,1668050399.892042
227672972.0,-2.2352726459503174,0.02467840351164341,-0.005546695552766323,-1.0075764656066895,-0.1508672535419464,-0.002437293529510498,0.009699503891170025,-0.682931661605835,0.0013938895426690578,0.0,-12.493705749511719,0.0,1668050399.991993
227772998.0,-2.2291719913482666,0.1275377720594406,-0.0057770623825490475,-1.0358134508132935,-0.15689563751220703,-0.002475145272910595,0.010050072334706783,-0.1244645044207573,0.0022861810866743326,0.0,-4.871845245361328,0.0,1668050400.092019
227872959.0,-2.2107603549957275,-0.018505848944187164,-0.005357646383345127,-1.0829815864562988,0.002540483372285962,-0.0033843552228063345,0.010507875122129917,0.4139195680618286,-0.001435624435544014,0.0,-5.602931976318359,0.0,1668050400.19198
227972932.0,-2.1979775428771973,0.09857580810785294,-0.005636605899780989,-1.1097898483276367,-0.02533276379108429,-0.0036232343409210443,0.010562431998550892,-0.4707033634185791,0.0009626455139368773,0.0,-2.6781082153320312,0.0,1668050400.291953
228072977.0,-2.202761173248291,0.10056430101394653,-0.005621153395622969,-1.1009912490844727,-0.015781627967953682,-0.0037153607700020075,0.010541632771492004,-0.14710259437561035,0.0020450048614293337,0.0,0.8302688598632812,0.0,1668050400.391998
228173061.0,-2.1907122135162354,-0.028239959850907326,-0.005288552958518267,-1.0989325046539307,-0.04281279444694519,-0.0031910815741866827,0.010545504279434681,0.34187421202659607,-0.0008973773801699281,0.0,1.2219429016113281,0.0,1668050400.4920819
228272874.0,-2.200563430786133,0.11956726759672165,-0.005674760788679123,-1.1148940324783325,-0.12689954042434692,-0.0027374611236155033,0.010629750788211823,-0.3866320550441742,0.0006304116104729474,0.0,1.9313812255859375,0.0,1668050400.591895
228373030.0,-2.204253673553467,0.042613327503204346,-0.00547714252024889,-1.0919548273086548,-0.11000988632440567,-0.002960510551929474,0.010456929914653301,-0.2209753841161728,0.0020423035603016615,0.0,-2.7578353881835938,0.0,1668050400.692051
228473082.0,-2.2124743461608887,0.06224865838885307,-0.005555966403335333,-1.0939240455627441,0.02437710389494896,-0.0035896955523639917,0.010599136352539062,0.34380677342414856,-0.0006722849793732166,0.0,-0.3673553466796875,0.0,1668050400.792103
228573041.0,-2.2050678730010986,-0.014539550989866257,-0.0053450134582817554,-1.1045596599578857,-0.0476391464471817,-0.0032602152787148952,0.010559114627540112,-0.36332565546035767,0.000542794878128916,0.0,0.4483222961425781,0.0,1668050400.892062
228673123.0,-2.214648485183716,0.06392919272184372,-0.0055617899633944035,-1.078722357749939,-0.030923737213015556,-0.003471056930720806,0.010382615029811859,-0.19540761411190033,0.0018679043278098106,0.0,1.8404960632324219,0.0,1668050400.9921439
228773029.0,-2.2164158821105957,0.006748253013938665,-0.005422831047326326,-1.0718611478805542,-0.000779198482632637,-0.0034089486580342054,0.010381833650171757,0.280595064163208,-0.0003974191495217383,0.0,0.714874267578125,0.0,1668050401.09205
228872985.0,-2.217418670654297,0.03732098266482353,-0.005508923437446356,-1.0766056776046753,-0.09364985674619675,-0.002895055804401636,0.01035839319229126,-0.2749483585357666,0.0005381631199270487,0.0,-3.5941123962402344,0.0,1668050401.1920059
228972971.0,-2.2239038944244385,0.07814832776784897,-0.0056207869201898575,-1.0651606321334839,-0.0278946440666914,-0.003414696082472801,0.01029537245631218,-0.2032383531332016,0.0016447965754196048,0.0,-0.06933212280273438,0.0,1668050401.291992
229073135.0,-2.217041015625,-0.029517902061343193,-0.00534443836659193,-1.0615015029907227,-0.014348692260682583,-0.0032556590158492327,0.010297032073140144,0.19824905693531036,-0.00010357304563513026,0.0,0.4778861999511719,0.0,1668050401.392156
229172923.0,-2.219217300415039,0.10287120938301086,-0.00569277023896575,-1.0572606325149536,-0.08351381123065948,-0.0028471515979617834,0.01019255816936493,-0.21297690272331238,0.0003419696295168251,0.0,1.3492584228515625,0.0,1668050401.491944
229272966.0,-2.2191998958587646,0.021092552691698074,-0.00546432426199317,-1.057053565979004,-0.05853157490491867,-0.0030246281530708075,0.010179134085774422,-0.24357742071151733,0.0016412687255069613,0.0,3.9409637451171875,0.0,1668050401.591987
229372943.0,-2.2206673622131348,0.045469194650650024,-0.005544446874409914,-1.0542056560516357,-0.023244043812155724,-0.003227163339033723,0.010240836068987846,0.18057112395763397,3.0301074730232358e-05,0.0,-2.120685577392578,0.0,1668050401.691964
229473006.0,-2.2193822860717773,0.04535284265875816,-0.005538558587431908,-1.0635231733322144,-0.015703050419688225,-0.0032983296550810337,0.010258802212774754,-0.1706533581018448,0.00023221790615934879,0.0,-1.2970924377441406,0.0,1668050401.792027
229572992.0,-2.219794511795044,0.043230537325143814,-0.00552987540140748,-1.0578374862670898,-0.018396900966763496,-0.0033407232258468866,0.010202828794717789,-0.21582187712192535,0.0014363437658175826,0.0,-1.2867927551269531,0.0,1668050401.892013
229673081.0,-2.222916841506958,0.047241635620594025,-0.005545872263610363,-1.0479263067245483,-0.04934420809149742,-0.0030286991968750954,0.010171378031373024,0.11810740828514099,0.00016661020345054567,0.0,1.4473915100097656,0.0,1668050401.992102
229772986.0,-2.2209935188293457,0.04980964958667755,-0.005556965246796608,-1.0460456609725952,-0.0915641263127327,-0.0028129625134170055,0.010108642280101776,-0.15523533523082733,0.00027713392046280205,0.0,-0.021266937255859375,0.0,1668050402.092007
229872877.0,-2.222980499267578,0.0480404831469059,-0.005542284809052944,-1.0460833311080933,-0.04268002510070801,-0.0031405980698764324,0.010108119808137417,-0.21585381031036377,0.0013680077390745282,0.0,-1.0240554809570312,0.0,1668050402.1918979
229973018.0,-2.223473310470581,0.012448172084987164,-0.005455167032778263,-1.0434695482254028,-0.0029993534553796053,-0.003380406415089965,0.010133100673556328,0.1075323298573494,0.000208304263651371,0.0,-3.1213760375976562,0.0,1668050402.292039
230072997.0,-2.2123873233795166,0.01473207026720047,-0.005453260149806738,-1.0399776697158813,-0.035449545830488205,-0.0031618692446500063,0.01001553051173687,-0.14512450993061066,0.00034397898707538843,0.0,-0.1373291015625,0.0,1668050402.392018
233086684.0,-2.3325345516204834,0.02330002561211586,-0.005730144213885069,-0.674129843711853,-0.1655655950307846,-0.0009770289761945605,0.006875295657664537,0.18221507966518402,0.003908762242645025,0.0,-6.634044647216797,0.0,1668050405.405705
233186474.0,-2.31445050239563,-0.03050418384373188,-0.005576299037784338,-0.7482377290725708,-0.1295957863330841,-0.0013979064533486962,0.0074913520365953445,-0.2394874095916748,0.0008639217703603208,0.0,1.9033432006835938,0.0,1668050405.505495
233286368.0,-2.2986514568328857,0.07350616157054901,-0.005821228958666325,-0.8065730333328247,0.03686269745230675,-0.003156998660415411,0.007961765863001347,-0.6287009716033936,0.0018994155107066035,0.0,-3.1660079956054688,0.0,1668050405.6053889
233386735.0,-2.283001184463501,0.08058267086744308,-0.005782558117061853,-0.8481062650680542,0.18459175527095795,-0.003932265564799309,0.00840570218861103,-0.22144265472888947,0.0010971991578117013,0.0,-24.477863311767578,0.0,1668050405.705756
233486597.0,-2.245393753051758,-0.019021054729819298,-0.005462766624987125,-0.904116153717041,0.02354864589869976,-0.0027054890524595976,0.008818588219583035,-0.17496967315673828,-0.0003793535870499909,0.0,-23.49100112915039,0.0,1668050405.805618
233586509.0,-2.224393606185913,0.0022639173548668623,-0.005439828149974346,-0.9441549181938171,-0.0956140086054802,-0.0025678458623588085,0.009102560579776764,-0.34623369574546814,0.00030716389301232994,0.0,-6.812858581542969,0.0,1668050405.90553
233686426.0,-2.2200379371643066,0.040810372680425644,-0.005501880310475826,-0.9619631767272949,-0.16890974342823029,-0.0020641256123781204,0.009358730167150497,0.2819400429725647,-0.00019563523528631777,0.0,-0.8375167846679688,0.0,1668050406.005447
233786435.0,-2.2374136447906494,0.4470311403274536,-0.006627158727496862,-0.9961614608764648,-0.18323524296283722,-0.0021766654681414366,0.009837513789534569,0.6922944188117981,-0.0008631844539195299,0.0,2.083110809326172,0.0,1668050406.1054559
233886362.0,-2.2251174449920654,0.4126723110675812,-0.006556278560310602,-1.010008692741394,-0.33051085472106934,-0.0013098984491080046,0.00976192019879818,-0.21914614737033844,0.0011563297593966126,0.0,12.935256958007812,0.0,1668050406.205383
233986398.0,-2.194382667541504,-0.094420425593853,-0.0051384600810706615,-1.0432484149932861,-0.033065441995859146,-0.0028245127759873867,0.009964602999389172,-0.09098600596189499,0.0006177147733978927,0.0,1.1755943298339844,0.0,1668050406.305419
234086426.0,-2.2143332958221436,0.07171452790498734,-0.005553082562983036,-1.052169919013977,0.18584468960762024,-0.004524150397628546,0.010242660529911518,0.49619826674461365,-0.00022082909708842635,0.0,0.5290985107421875,0.0,1668050406.405447
234186385.0,-2.19911527633667,0.08421574532985687,-0.005626410245895386,-1.0327019691467285,-0.141757532954216,-0.002637290395796299,0.009826991707086563,-0.445122629404068,0.0011352740693837404,0.0,-0.7120132446289062,0.0,1668050406.505406
234286409.0,-2.2075817584991455,-0.12804387509822845,-0.0050081224180758,-1.0343047380447388,0.049355052411556244,-0.0035702972672879696,0.009995112195611,0.22620461881160736,0.00017011613817885518,0.0,-6.106758117675781,0.0,1668050406.60543
234386879.0,-2.2185115814208984,0.18943142890930176,-0.005921983625739813,-1.0184653997421265,-0.15748156607151031,-0.0024110903032124043,0.00981845986098051,-0.19299089908599854,0.00071890460094437,0.0,-1.59759521484375,0.0,1668050406.7059
234486407.0,-2.2229015827178955,-0.08612725883722305,-0.005163072142750025,-1.0369045734405518,0.09540222585201263,-0.0037207314744591713,0.01008182018995285,0.19558177888393402,-6.266552372835577e-05,0.0,1.4658927917480469,0.0,1668050406.805428
234586622.0,-2.225661516189575,0.16885070502758026,-0.005896848626434803,-1.028243064880371,-0.1423296332359314,-0.0024979347363114357,0.009905626066029072,-0.380063533782959,0.0011768225813284516,0.0,2.7556419372558594,0.0,1668050406.905643
234686423.0,-2.2513885498046875,0.10912017524242401,-0.005726401694118977,-1.0273690223693848,0.0222212802618742,-0.003422185778617859,0.01011208351701498,0.15024515986442566,0.0006541669717989862,0.0,4.272365570068359,0.0,1668050407.005444
234786402.0,-2.214479446411133,-0.08761386573314667,-0.005243257153779268,-1.0304787158966064,-0.1193590983748436,-0.0023385491222143173,0.00996140856295824,0.08920690417289734,-0.0007707891054451466,0.0,-4.684734344482422,0.0,1668050407.105423
234886516.0,-2.260568857192993,0.3365520238876343,-0.006346046458929777,-1.0082420110702515,-0.12340652942657471,-0.0028248389717191458,0.009852777235209942,-0.49848756194114685,0.0020358015317469835,0.0,-2.37579345703125,0.0,1668050407.205537
234986379.0,-2.225125312805176,-0.2670990824699402,-0.004753762390464544,-1.0359549522399902,0.18305954337120056,-0.004156175069510937,0.01009864266961813,0.32486116886138916,0.0002973188238684088,0.0,-2.325153350830078,0.0,1668050407.3054
235086416.0,-2.2383065223693848,0.21671907603740692,-0.00604988681152463,-1.0344197750091553,-0.11159143596887589,-0.0023853140883147717,0.01010365691035986,0.08947564661502838,-0.0013563449028879404,0.0,-0.053882598876953125,0.0,1668050407.405437
235186481.0,-2.244891405105591,-0.03352301940321922,-0.005346608813852072,-1.0109840631484985,-0.1372513473033905,-0.0028907624073326588,0.009761421009898186,-0.7822189331054688,0.0029466182459145784,0.0,1.6214370727539062,0.0,1668050407.505502
235286706.0,-2.2388429641723633,0.03586924821138382,-0.005583298858255148,-1.0251741409301758,0.11814657598733902,-0.003867525141686201,0.010084559209644794,0.45751139521598816,0.0005505578592419624,0.0,-1.7243385314941406,0.0,1668050407.605727
235386780.0,-2.2500545978546143,0.0467069111764431,-0.005590901244431734,-1.0358500480651855,-0.07431996613740921,-0.0026341909542679787,0.010197360999882221,0.17168721556663513,-0.0020208132918924093,0.0,-2.9435157775878906,0.0,1668050407.705801
235486582.0,-2.239839553833008,0.05323243886232376,-0.005621296353638172,-1.0253740549087524,-0.09467940032482147,-0.0030376336071640253,0.009882403537631035,-0.7989354133605957,0.0028283260762691498,0.0,1.4819145202636719,0.0,1668050407.805603
235586384.0,-2.2606041431427,0.10612203180789948,-0.005766521207988262,-1.0261329412460327,0.06203017383813858,-0.0035205367021262646,0.010165284387767315,0.2886466681957245,0.0010521685471758246,0.0,2.7871131896972656,0.0,1668050407.905405
235686421.0,-2.2467586994171143,-0.026574667543172836,-0.005431420169770718,-1.0247224569320679,-0.10370447486639023,-0.0025558562483638525,0.010068925097584724,0.18055644631385803,-0.0014211132656782866,0.0,-0.6593704223632812,0.0,1668050408.005442
238398649.0,-2.4162988662719727,0.09812270849943161,-0.006155627779662609,-0.6975895762443542,0.15231512486934662,-0.0030255040619522333,0.007375854998826981,0.15817467868328094,0.002142516663298011,0.0,-23.764991760253906,0.0,1668050410.71767
238499025.0,-2.3952693939208984,0.10894575715065002,-0.006161928176879883,-0.7248769998550415,-0.12307833135128021,-0.0015064205508679152,0.007577482610940933,0.0250473041087389,0.0010528110433369875,0.0,1.3707160949707031,0.0,1668050410.818046
238598492.0,-2.3809726238250732,0.20301948487758636,-0.006372734438627958,-0.7553269863128662,0.0011651208624243736,-0.0026757074519991875,0.007851549424231052,0.0714716762304306,0.0009264841210097075,0.0,10.637187957763672,0.0,1668050410.917513
238698661.0,-2.3349103927612305,0.038938749581575394,-0.00585568742826581,-0.82235187292099,0.029007522389292717,-0.00264488672837615,0.0083542475476861,-0.06236927583813667,0.0006880801520310342,0.0,-4.866218566894531,0.0,1668050411.017682
238798666.0,-2.3058626651763916,-0.012606397271156311,-0.005619680974632502,-0.8586103320121765,-0.07486148178577423,-0.0026280584279447794,0.00862788874655962,-0.004861953668296337,0.00017053005285561085,0.0,12.835407257080078,0.0,1668050411.117687
238898620.0,-2.285200357437134,0.04143744707107544,-0.005691962316632271,-0.9006909132003784,-0.026498377323150635,-0.002924280008301139,0.00898147001862526,0.08760415017604828,0.0006323622656054795,0.0,-2.94189453125,0.0,1668050411.2176409
238998648.0,-2.2684638500213623,0.15804211795330048,-0.005981490481644869,-0.958017885684967,-0.16825318336486816,-0.0016146476846188307,0.009440505877137184,-0.17862655222415924,0.0009325011051259935,0.0,18.09062957763672,0.0,1668050411.317669
239098575.0,-2.2380058765411377,-0.1344488263130188,-0.005129639059305191,-0.9634234309196472,-0.0707164779305458,-0.0028001992031931877,0.009403201751410961,0.07711395621299744,-0.00025069667026400566,0.0,-17.414283752441406,0.0,1668050411.417596
239198607.0,-2.2523202896118164,0.02030489407479763,-0.005499463062733412,-0.9851723313331604,-0.009132962673902512,-0.0031579870264977217,0.009642343968153,-0.10088898241519928,0.0012287218123674393,0.0,13.977813720703125,0.0,1668050411.517628
239298584.0,-2.237957715988159,0.16330869495868683,-0.0059408643282949924,-1.0264437198638916,0.0755515843629837,-0.0033781875390559435,0.010014922358095646,-0.02635282278060913,0.000225111871259287,0.0,-11.085891723632812,0.0,1668050411.617605
239398647.0,-2.2481417655944824,-0.035687703639268875,-0.005344274453818798,-0.9616557955741882,-0.4035240709781647,-0.0010181994875892997,0.009419260546565056,-0.10104890167713165,0.0008391483570449054,0.0,14.942550659179688,0.0,1668050411.717668
239498702.0,-2.2367773056030273,0.13269604742527008,-0.005854005925357342,-1.0059829950332642,0.21476367115974426,-0.004429979249835014,0.009805391542613506,-0.056820087134838104,0.00020585286256391555,0.0,-26.77288055419922,0.0,1668050411.817723
239598602.0,-2.253652572631836,0.008669046685099602,-0.005473013501614332,-1.0158555507659912,-0.12784922122955322,-0.0020506028085947037,0.009944253601133823,-0.23225435614585876,0.0015201362548395991,0.0,-0.02307891845703125,0.0,1668050411.917623
239698676.0,-2.2335667610168457,-0.007334171794354916,-0.005478051956743002,-0.9700282216072083,0.0030662112403661013,-0.003620614530518651,0.009488462470471859,0.2532351016998291,-0.0006374606164172292,0.0,-22.902488708496094,0.0,1668050412.017697
239798502.0,-2.271068572998047,0.21975292265415192,-0.006063369568437338,-1.0247948169708252,0.22914212942123413,-0.00445961020886898,0.010064112022519112,-0.5047554969787598,0.001230764901265502,0.0,14.157867431640625,0.0,1668050412.117523
239898451.0,-2.2295303344726562,-0.21611298620700836,-0.004928041249513626,-0.9825243949890137,-0.10870440304279327,-0.0027065125759691,0.00957171618938446,0.14661535620689392,0.0013039670884609222,0.0,-3.8107872009277344,0.0,1668050412.217472
239998664.0,-2.270217180252075,0.31103581190109253,-0.006329388823360205,-0.9685842990875244,-0.036074187606573105,-0.003163744695484638,0.00963926874101162,0.34435394406318665,-0.0018486365443095565,0.0,14.923572540283203,0.0,1668050412.317685
240098494.0,-2.2436466217041016,-0.15784986317157745,-0.0050646052695810795,-1.0114414691925049,-0.09093759953975677,-0.0023611746728420258,0.009749096818268299,-0.8393245339393616,0.002714472124353051,0.0,-1.3669013977050781,0.0,1668050412.417515
240198450.0,-2.2609503269195557,0.20074236392974854,-0.006051529198884964,-0.953463077545166,-0.218296617269516,-0.0018516173586249352,0.009450510144233704,0.3443795442581177,0.001160934567451477,0.0,7.264518737792969,0.0,1668050412.517471
240298453.0,-2.2601094245910645,-0.09023155272006989,-0.005257194861769676,-0.9705060124397278,0.10220291465520859,-0.0036877465900033712,0.009620947763323784,0.31652507185935974,-0.002198688453063369,0.0,-7.304573059082031,0.0,1668050412.617474
240398684.0,-2.241692543029785,0.08942530304193497,-0.005753495264798403,-1.016955852508545,0.05158865079283714,-0.0032200601417571306,0.009815418161451817,-0.7253112196922302,0.002109421882778406,0.0,-4.57000732421875,0.0,1668050412.717705
240498649.0,-2.2721147537231445,0.11574018001556396,-0.0057957591488957405,-0.9706584215164185,-0.0780206173658371,-0.002957588527351618,0.009638662450015545,0.09901901334524155,0.0015964105259627104,0.0,-3.5345077514648438,0.0,1668050412.8176699
240598807.0,-2.250521659851074,-0.08059659600257874,-0.005308507010340691,-0.9679322242736816,0.05167544260621071,-0.0035789557732641697,0.009556299075484276,0.31686192750930786,-0.0013989824801683426,0.0,-1.4072418212890625,0.0,1668050412.917828
240698663.0,-2.2634594440460205,0.15648263692855835,-0.005926004145294428,-0.9934160709381104,-0.062414638698101044,-0.0026533270720392466,0.009706377983093262,-0.5196362733840942,0.001256861025467515,0.0,1.004791259765625,0.0,1668050413.017684
240798757.0,-2.2619824409484863,-0.022883420810103416,-0.005449228920042515,-0.9423050284385681,-0.22757820785045624,-0.001908950274810195,0.00928777176886797,-0.030181948095560074,0.0016193542396649718,0.0,2.8990745544433594,0.0,1668050413.117778
240898636.0,-2.2605366706848145,0.0362212099134922,-0.005622942000627518,-0.9592511653900146,0.05308133363723755,-0.0033330521546304226,0.009504386223852634,0.3327159881591797,-0.001159807201474905,0.0,2.715587615966797,0.0,1668050413.217657
240998709.0,-2.25457501411438,0.037751492112874985,-0.005603466648608446,-0.9931139349937439,-0.02576494961977005,-0.0027706900145858526,0.009677227586507797,-0.4808492958545685,0.0010618462692946196,0.0,-6.719398498535156,0.0,1668050413.31773
241098509.0,-2.254530191421509,0.015442603267729282,-0.005541517399251461,-0.9559250473976135,-0.10052463412284851,-0.0027609809767454863,0.009380470961332321,-0.05678104609251022,0.0016130444128066301,0.0,3.0277252197265625,0.0,1668050413.41753
241198513.0,-2.257200002670288,0.045182615518569946,-0.005624254234135151,-0.965217113494873,0.07778825610876083,-0.003573179244995117,0.009539776481688023,0.2656792402267456,-0.000851778662763536,0.0,-7.5138092041015625,0.0,1668050413.517534
241298585.0,-2.245682716369629,-0.002437693765386939,-0.0054887146688997746,-0.9738491773605347,-0.08844789117574692,-0.0025028004311025143,0.00947816576808691,-0.35509270429611206,0.0007763237226754427,0.0,7.504081726074219,0.0,1668050413.617606
241398737.0,-2.2571632862091064,0.10973761230707169,-0.005785180255770683,-0.9508447647094727,-0.11509876698255539,-0.0025726270396262407,0.009345537051558495,-0.08883485943078995,0.0014457183424383402,0.0,-1.9628524780273438,0.0,1668050413.717758
241498861.0,-2.246805429458618,-0.05732144042849541,-0.005338173359632492,-0.9660581946372986,0.03341585770249367,-0.0032283482141792774,0.009490890428423882,0.19186043739318848,-0.00042878251406364143,0.0,4.2354583740234375,0.0,1668050413.817882
241598510.0,-2.2476727962493896,0.10909939557313919,-0.005780335050076246,-0.9769945740699768,-0.08575814962387085,-0.002518830820918083,0.009528370574116707,-0.26964154839515686,0.000639641541056335,0.0,-7.141876220703125,0.0,1668050413.917531
241698431.0,-2.2512800693511963,0.0132168959826231,-0.00550965266302228,-0.9609816074371338,-0.042552199214696884,-0.0030519573483616114,0.009402780793607235,-0.16895900666713715,0.0014830322470515966,0.0,3.3308029174804688,0.0,1668050414.017452
241798454.0,-2.2484540939331055,0.03473741188645363,-0.005589681211858988,-0.9682600498199463,0.033350735902786255,-0.003229436930269003,0.009522258304059505,0.17948897182941437,-0.0001502827217336744,0.0,-2.4405479431152344,0.0,1668050414.117475
241898444.0,-2.249711751937866,0.06305917352437973,-0.005649861879646778,-0.9741889834403992,-0.08488333225250244,-0.0025931773707270622,0.009524837136268616,-0.21377846598625183,0.0004791836254298687,0.0,8.655357360839844,0.0,1668050414.217465
241998730.0,-2.245074510574341,0.01930059678852558,-0.005533345974981785,-0.9716699123382568,-0.07323144376277924,-0.0027817245572805405,0.009483122266829014,-0.156443253159523,0.0013787623029202223,0.0,-3.112506866455078,0.0,1668050414.317751
242098707.0,-2.246340036392212,0.047683849930763245,-0.005604720674455166,-0.9753411412239075,-0.001926500117406249,-0.0031021202448755503,0.009583719074726105,0.14989949762821198,-7.674307562410831e-05,0.0,1.5149116516113281,0.0,1668050414.417728
242198627.0,-2.241569995880127,0.04670727625489235,-0.005601571872830391,-0.9802382588386536,-0.07365477830171585,-0.0027076739352196455,0.009545658715069294,-0.2091832011938095,0.0005083343712612987,0.0,-6.867122650146484,0.0,1668050414.517648
242298600.0,-2.2481722831726074,0.09775524586439133,-0.005732445977628231,-0.9699953198432922,-0.0504550039768219,-0.0029189393389970064,0.00947623047977686,-0.1647379994392395,0.0012568178353831172,0.0,4.000091552734375,0.0,1668050414.617621
242398721.0,-2.2458267211914062,0.002673631999641657,-0.005486156791448593,-0.9720155596733093,-0.0026662349700927734,-0.0031096884049475193,0.009529252536594868,0.09342221170663834,0.00014818733325228095,0.0,-2.303314208984375,0.0,1668050414.717742
242498729.0,-2.2470784187316895,0.10653085261583328,-0.005768192000687122,-0.9830000400543213,-0.05261078476905823,-0.0027759275399148464,0.009615485556423664,-0.1494857519865036,0.00035028241109102964,0.0,5.608654022216797,0.0,1668050414.81775
242598416.0,-2.2519912719726562,0.04650547727942467,-0.00560093903914094,-0.9825031161308289,-0.05464906245470047,-0.002928932895883918,0.009609651751816273,-0.18185967206954956,0.0012563782511278987,0.0,-3.64837646484375,0.0,1668050414.917437
242698688.0,-2.252455472946167,0.04436579719185829,-0.005611487664282322,-0.9845028519630432,-0.025741910561919212,-0.0030138876754790545,0.009671161882579327,0.08420713245868683,0.00018073679530061781,0.0,1.2457847595214844,0.0,1668050415.017709
242798701.0,-2.2479939460754395,0.01839386485517025,-0.005535439122468233,-0.9940369725227356,-0.038647934794425964,-0.0029092347249388695,0.00971787329763174,-0.1814614236354828,0.0005882886471226811,0.0,-4.4689178466796875,0.0,1668050415.117722
242898738.0,-2.2480595111846924,0.057725127786397934,-0.0056397696025669575,-0.9902262687683105,-0.04690302163362503,-0.002945676678791642,0.009680663235485554,-0.17437703907489777,0.0011990127386525273,0.0,1.0884284973144531,0.0,1668050415.217759
242998798.0,-2.2501471042633057,0.0451437346637249,-0.0056069958955049515,-0.9927282333374023,-0.00330544775351882,-0.003127495991066098,0.009741188958287239,0.08045503497123718,0.0002542749571148306,0.0,-0.68206787109375,0.0,1668050415.3178189
243098621.0,-2.2521049976348877,0.07796476781368256,-0.0057006157003343105,-0.9949997067451477,-0.0768967866897583,-0.0027380601968616247,0.00974189955741167,-0.11781471222639084,0.00039579530130140483,0.0,1.8034934997558594,0.0,1668050415.4176419
243198579.0,-2.252145290374756,0.0373125784099102,-0.005589181091636419,-0.9907896518707275,-0.0463726781308651,-0.0030561559833586216,0.009701843373477459,-0.165509894490242,0.0010866489028558135,0.0,0.17328262329101562,0.0,1668050415.5176
243298725.0,-2.252952814102173,0.041787367314100266,-0.005610138177871704,-0.9923141598701477,-0.01515883021056652,-0.003085382515564561,0.009747058153152466,0.04972275346517563,0.00030937284464016557,0.0,-2.3820877075195312,0.0,1668050415.6177459
243398481.0,-2.2517056465148926,0.05234159529209137,-0.005632776767015457,-0.9937818050384521,-0.05237157642841339,-0.0028510824777185917,0.00973647553473711,-0.08790136128664017,0.00031088688410818577,0.0,-0.213623046875,0.0,1668050415.7175019
246510716.0,-2.4585251808166504,-0.01178524550050497,-0.005982744507491589,-0.6168373823165894,0.021768543869256973,-0.002452949294820428,0.0065367696806788445,-0.2946431636810303,0.002520747249945998,0.0,-2.373218536376953,0.0,1668050418.829737
246610525.0,-2.441649913787842,-0.033089905977249146,-0.005880480166524649,-0.6714336276054382,-0.10875759273767471,-0.0014529264299198985,0.0070288414135575294,-0.48461058735847473,0.0020140260457992554,0.0,15.394783020019531,0.0,1668050418.9295459
246710681.0,-2.4122133255004883,0.04329017177224159,-0.0060389600694179535,-0.6828117966651917,-0.284993052482605,-0.0005625816993415356,0.007195075508207083,0.07133219391107559,0.0002882927656173706,0.0,-11.571025848388672,0.0,1668050419.029702
246810378.0,-2.3840208053588867,-0.022059351205825806,-0.005772776436060667,-0.7689461708068848,-0.003708238946273923,-0.0021910578943789005,0.008008654229342937,0.10398775339126587,-4.7703411837574095e-05,0.0,19.938278198242188,0.0,1668050419.129399
246910459.0,-2.3428854942321777,-0.05019988492131233,-0.00561819551512599,-0.8700709342956543,0.15969868004322052,-0.0034011476673185825,0.008823845535516739,-0.3191770315170288,0.0016718801343813539,0.0,-19.324302673339844,0.0,1668050419.22948
247010368.0,-2.3380143642425537,0.1495126336812973,-0.006097805220633745,-0.8612479567527771,-0.08814802765846252,-0.002805161289870739,0.00876131746917963,-0.09377586096525192,0.0003766557201743126,0.0,8.23211669921875,0.0,1668050419.329389
247110428.0,-2.2929868698120117,-0.11379420012235641,-0.005339713301509619,-0.919775128364563,0.0641263797879219,-0.0034542838111519814,0.00916821788996458,0.009363003075122833,0.0004544634139165282,0.0,-3.174591064453125,0.0,1668050419.429449
247210651.0,-2.296264171600342,0.13917896151542664,-0.005962878931313753,-0.9481766223907471,-0.12334763258695602,-0.002195613691583276,0.009446870535612106,-0.24452894926071167,0.001011453801766038,0.0,6.420993804931641,0.0,1668050419.529672
247310433.0,-2.2765939235687256,-0.02918393909931183,-0.00549939414486289,-0.9182348847389221,-0.22949759662151337,-0.0018690128345042467,0.009131251834332943,0.08678826689720154,0.00037695554783567786,0.0,1.6382217407226562,0.0,1668050419.629454
247410274.0,-2.2814133167266846,0.11385001242160797,-0.005861636716872454,-0.9761753678321838,0.11469236016273499,-0.0036214590072631836,0.009663188830018044,-0.25634634494781494,0.0007019572658464313,0.0,1.287078857421875,0.0,1668050419.729295
247510331.0,-2.2632076740264893,-0.049440253525972366,-0.005419020541012287,-0.9768792986869812,-0.10540023446083069,-0.0022109062410891056,0.009648161940276623,0.03683996573090553,0.0007457251776941121,0.0,4.001331329345703,0.0,1668050419.829352
247610262.0,-2.28301739692688,0.14756393432617188,-0.005935428664088249,-0.9378302693367004,-0.059572868049144745,-0.003181076841428876,0.009320149198174477,-0.10334303975105286,0.00035707891220226884,0.0,-5.664920806884766,0.0,1668050419.929283
247710606.0,-2.2664175033569336,-0.11292397975921631,-0.005244719795882702,-0.9867359399795532,0.15737581253051758,-0.003820976708084345,0.009717331267893314,-0.18785753846168518,0.0013382883043959737,0.0,4.864215850830078,0.0,1668050420.029627
247810391.0,-2.2855589389801025,0.1917780041694641,-0.006078391335904598,-0.954405665397644,-0.19848032295703888,-0.0018251282162964344,0.009530415758490562,0.1403585821390152,-0.00013398219016380608,0.0,-9.353828430175781,0.0,1668050420.129412
247910516.0,-2.284907341003418,-0.0863250121474266,-0.005322721786797047,-0.9509087800979614,0.01002243347465992,-0.0034711547195911407,0.009401852265000343,-0.3842507600784302,0.0012558532180264592,0.0,7.405281066894531,0.0,1668050420.229537
248010336.0,-2.281446695327759,0.06619927287101746,-0.005762144923210144,-0.9843275547027588,0.10634669661521912,-0.0033284046221524477,0.009797665290534496,0.04221935197710991,0.0010441605700179935,0.0,-3.989124298095703,0.0,1668050420.329357
248110569.0,-2.293804168701172,0.047020431607961655,-0.005698732566088438,-0.9394577741622925,-0.26072171330451965,-0.0015328796580433846,0.009424852207303047,0.1533237248659134,-0.0007849434623494744,0.0,3.4942626953125,0.0,1668050420.42959
248210714.0,-2.284482002258301,0.024378107860684395,-0.005655843298882246,-0.9468635320663452,0.0447453074157238,-0.0035996141377836466,0.009344590827822685,-0.46693694591522217,0.0014955551596358418,0.0,-4.162883758544922,0.0,1668050420.529735
248310349.0,-2.296175003051758,0.06696615368127823,-0.00576237915083766,-0.9714064002037048,0.04384274035692215,-0.0030198560561984777,0.009725240990519524,0.01564345881342888,0.0011956673115491867,0.0,0.3193855285644531,0.0,1668050420.62937
248410579.0,-2.286348819732666,-0.018796443939208984,-0.005544737447053194,-0.9219347238540649,-0.2133832573890686,-0.001961976755410433,0.009220280684530735,0.1487237960100174,-0.0005342219956219196,0.0,-5.358695983886719,0.0,1668050420.7296
248510315.0,-2.296452522277832,0.1086806058883667,-0.0058752987533807755,-0.938700258731842,0.06623155623674393,-0.0035933624021708965,0.00933961570262909,-0.34741148352622986,0.0010599005036056042,0.0,2.9144287109375,0.0,1668050420.829336
248610478.0,-2.290111780166626,-0.0240805484354496,-0.005529188085347414,-0.9502341151237488,-0.018712982535362244,-0.002679974539205432,0.009470243006944656,-0.03714250400662422,0.0012399526312947273,0.0,-0.8791923522949219,0.0,1668050420.929499
248710656.0,-2.298628091812134,0.10492678731679916,-0.005884293466806412,-0.9123283624649048,-0.16830193996429443,-0.0021721026860177517,0.009169208817183971,0.13555337488651276,-0.00047750803059898317,0.0,3.0040740966796875,0.0,1668050421.029677
248810383.0,-2.2939131259918213,-0.000981045886874199,-0.0055901710875332355,-0.9357090592384338,0.030435027554631233,-0.003224513027817011,0.009286838583648205,-0.35465121269226074,0.0011253105476498604,0.0,1.6673088073730469,0.0,1668050421.129404
248910330.0,-2.291285991668701,0.03787943348288536,-0.00570099800825119,-0.9458813667297363,-0.04702261462807655,-0.0025068761315196753,0.00944091472774744,-0.020256226882338524,0.001195313292555511,0.0,-0.5213737487792969,0.0,1668050421.229351
249010557.0,-2.2987027168273926,0.04124944657087326,-0.00570208253338933,-0.9136501550674438,-0.14062540233135223,-0.002340476494282484,0.009180326946079731,0.1168268471956253,-0.00037703526322729886,0.0,-2.38800048828125,0.0,1668050421.329578
249110485.0,-2.2911951541900635,0.033957935869693756,-0.005689718760550022,-0.9415687322616577,0.09049484133720398,-0.0035751275718212128,0.009348111227154732,-0.31981247663497925,0.0011423707474023104,0.0,-6.776618957519531,0.0,1668050421.429506
249210433.0,-2.299326181411743,0.05600754916667938,-0.00574395852163434,-0.9558451175689697,0.01442801859229803,-0.0029464217368513346,0.009576629847288132,-0.0339033417403698,0.0011116311652585864,0.0,1.9884109497070312,0.0,1668050421.529454
249310483.0,-2.2958528995513916,0.023273618891835213,-0.005667224992066622,-0.9258337020874023,-0.13484449684619904,-0.0023638491984456778,0.00928878877311945,0.11601655930280685,-0.00023728296218905598,0.0,-1.6872406005859375,0.0,1668050421.629504
249410459.0,-2.299368381500244,0.04988120123744011,-0.005732130259275436,-0.9477956295013428,0.042214442044496536,-0.0034207887947559357,0.009451384656131268,-0.26384061574935913,0.00088831118773669,0.0,5.747699737548828,0.0,1668050421.72948
249510335.0,-2.2948896884918213,0.029286205768585205,-0.005682685412466526,-0.9558790326118469,-0.04781252518296242,-0.0026293552946299314,0.00955945998430252,-0.031125826761126518,0.0010740229627117515,0.0,2.159881591796875,0.0,1668050421.829356
249610487.0,-2.296335458755493,0.037800706923007965,-0.00570145295932889,-0.9286088943481445,-0.13281825184822083,-0.0024045538157224655,0.009302403777837753,0.09199465811252594,-9.667414997238666e-05,0.0,-2.1816253662109375,0.0,1668050421.929508
249710433.0,-2.291440725326538,0.011618130840361118,-0.005621404852718115,-0.9520441293716431,0.04478044435381889,-0.0033180611208081245,0.009471478872001171,-0.25041308999061584,0.0008874956401996315,0.0,0.8429527282714844,0.0,1668050422.029454
249810570.0,-2.2887778282165527,0.03133219853043556,-0.005673652980476618,-0.9592561721801758,-0.06207727640867233,-0.0024958576541393995,0.00955150369554758,-0.038799744099378586,0.0009698562789708376,0.0,2.1216392517089844,0.0,1668050422.129591
252822529.0,-2.539591073989868,0.0029081529937684536,-0.006208762992173433,-0.6012633442878723,-0.13247165083885193,-0.0014582270523533225,0.006525146774947643,-0.5265452861785889,0.005014677997678518,0.0,-8.774471282958984,0.0,1668050425.14155
252922362.0,-2.518251419067383,-0.01389168482273817,-0.006125655025243759,-0.7092312574386597,0.10099323093891144,-0.002783896867185831,0.007743828929960728,-0.15023821592330933,0.0029656742699444294,0.0,0.24509429931640625,0.0,1668050425.241383
253022362.0,-2.474855422973633,0.02461000345647335,-0.006158445030450821,-0.6841291189193726,-0.1398085057735443,-0.0018692095763981342,0.007443749345839024,0.2706671357154846,9.423165465705097e-05,0.0,-14.371681213378906,0.0,1668050425.341383
253122366.0,-2.4376721382141113,0.057683177292346954,-0.006143065169453621,-0.7651643753051758,0.11458540707826614,-0.003509250469505787,0.008084223605692387,-0.24189713597297668,0.0007858653552830219,0.0,-6.393909454345703,0.0,1668050425.441387
253222538.0,-2.399719715118408,0.04749128967523575,-0.0060213422402739525,-0.8466722965240479,0.008519545197486877,-0.0025846301577985287,0.008804578334093094,-0.19832347333431244,0.0017490389291197062,0.0,-4.6600341796875,0.0,1668050425.541559
253322260.0,-2.373868942260742,0.13344700634479523,-0.006179649382829666,-0.8390591144561768,-0.2923586666584015,-0.0012076983693987131,0.008698402903974056,0.12779924273490906,-9.31580871110782e-05,0.0,0.7868766784667969,0.0,1668050425.641281
253422369.0,-2.340137481689453,0.015656953677535057,-0.0057858796790242195,-0.9032376408576965,-0.05617143213748932,-0.0025884134229272604,0.00916511844843626,-0.21467134356498718,0.0004905654350295663,0.0,10.491466522216797,0.0,1668050425.74139
253522272.0,-2.317655086517334,0.023094765841960907,-0.0057439343072474,-0.9495929479598999,-0.03846985101699829,-0.0024880128912627697,0.009592019021511078,-0.10427471995353699,0.0014211044181138277,0.0,-3.8773536682128906,0.0,1668050425.841293
253622343.0,-2.3135359287261963,0.011431828141212463,-0.0056734574027359486,-0.929496169090271,-0.09468202292919159,-0.0027851166669279337,0.009378583170473576,0.10262557119131088,-7.037055911496282e-05,0.0,-6.170463562011719,0.0,1668050425.941364
253722624.0,-2.3032326698303223,0.06187373399734497,-0.005800976417958736,-0.9680448174476624,0.1415507197380066,-0.003952173516154289,0.009689473547041416,-0.1923515945672989,0.0005777732003480196,0.0,-4.725456237792969,0.0,1668050426.041645
253822402.0,-2.3027491569519043,0.04402157664299011,-0.0057348813861608505,-0.987394392490387,-0.015168415382504463,-0.002857424784451723,0.009888885542750359,-0.13233929872512817,0.0013096373295411468,0.0,-3.9670944213867188,0.0,1668050426.141423
253922369.0,-2.308619976043701,0.03903430327773094,-0.00572142843157053,-0.9329068660736084,-0.1779675930738449,-0.0023210900835692883,0.009431245736777782,0.15887045860290527,-0.00023765317746438086,0.0,2.3906707763671875,0.0,1668050426.24139
254022427.0,-2.304562568664551,0.028306400403380394,-0.005706900265067816,-0.9657413363456726,0.06431936472654343,-0.003371578874066472,0.009653947316110134,-0.2583889961242676,0.00083816988626495,0.0,4.625511169433594,0.0,1668050426.341448
254122577.0,-2.309520959854126,0.04292365908622742,-0.005742572247982025,-0.948655903339386,-0.13410401344299316,-0.002144520403817296,0.009546710178256035,-0.01649571768939495,0.0008246609941124916,0.0,-1.4338493347167969,0.0,1668050426.441598
254222262.0,-2.3122332096099854,0.06932057440280914,-0.005827381741255522,-0.924141526222229,-0.055449482053518295,-0.0029606183525174856,0.009317574091255665,-0.021329840645194054,0.0002766102261375636,0.0,1.1156082153320312,0.0,1668050426.541283
254322331.0,-2.3220982551574707,0.10066744685173035,-0.0059221480041742325,-0.9544806480407715,0.09516408294439316,-0.0034596070181578398,0.0096356850117445,-0.14167729020118713,0.000732314249034971,0.0,-3.9999961853027344,0.0,1668050426.641352
254422384.0,-2.3205533027648926,0.006492051295936108,-0.005679518450051546,-0.9264219403266907,-0.17390628159046173,-0.0019556288607418537,0.009362312965095043,-0.060043249279260635,0.0006818625843152404,0.0,-0.9626388549804688,0.0,1668050426.741405
254522361.0,-2.3317148685455322,0.09460435062646866,-0.005928173661231995,-0.9242689609527588,-0.0003907781792804599,-0.003090348793193698,0.009397685527801514,-0.05971069261431694,0.00047363931662403047,0.0,-0.24824142456054688,0.0,1668050426.841382
254622365.0,-2.320901870727539,-0.05431072786450386,-0.005528056062757969,-0.9540079832077026,0.03283688426017761,-0.002985153114423156,0.009617381729185581,-0.1048542782664299,0.0007209482719190419,0.0,2.6586532592773438,0.0,1668050426.941386
254722356.0,-2.3316502571105957,0.10316981375217438,-0.0059548853896558285,-0.9291476011276245,-0.15434561669826508,-0.002166974125429988,0.009457139298319817,0.01041210163384676,0.0003149396798107773,0.0,-2.1737098693847656,0.0,1668050427.041377
254822265.0,-2.3326776027679443,0.01577148213982582,-0.005720012355595827,-0.9387237429618835,0.06574703752994537,-0.0035465469118207693,0.009520207531750202,-0.1505594551563263,0.0006147480453364551,0.0,-0.48732757568359375,0.0,1668050427.141286
254922445.0,-2.330625295639038,0.0430673249065876,-0.0058091930113732815,-0.9636921286582947,0.037961073219776154,-0.003046469297260046,0.009773625992238522,-0.08003230392932892,0.0008249884704127908,0.0,-0.888824462890625,0.0,1668050427.241466
255022448.0,-2.3410751819610596,0.08687055855989456,-0.00592349749058485,-0.9248695969581604,-0.17985399067401886,-0.002117970958352089,0.009435703046619892,-0.01734287478029728,0.00030797356157563627,0.0,-4.183769226074219,0.0,1668050427.341469
255122361.0,-2.3355839252471924,0.0005832274327985942,-0.005703574046492577,-0.9467624425888062,0.0550086572766304,-0.003376508830115199,0.009621319361031055,-0.15756745636463165,0.0007877956959418952,0.0,5.954933166503906,0.0,1668050427.441382
255222277.0,-2.3386268615722656,0.09078086912631989,-0.005946082063019276,-0.9642646312713623,-0.03416658565402031,-0.002623802749440074,0.00981476902961731,-0.052364762872457504,0.0007438879692927003,0.0,-5.5999755859375,0.0,1668050427.541298
255322366.0,-2.3413727283477783,0.017767105251550674,-0.00574957299977541,-0.934480607509613,-0.16012080013751984,-0.0023334771394729614,0.009540636092424393,-0.02497880905866623,0.00025034084683284163,0.0,4.265022277832031,0.0,1668050427.641387
255422350.0,-2.3412866592407227,0.07192287594079971,-0.005906292703002691,-0.9639543890953064,0.1000581607222557,-0.0036481122951954603,0.009824627079069614,-0.09322131425142288,0.0006100753671489656,0.0,-2.9664039611816406,0.0,1668050427.741371
255522284.0,-2.339323043823242,0.023015068843960762,-0.005767190828919411,-0.9656198620796204,-0.10264256596565247,-0.0023263441398739815,0.00982624851167202,-0.08411959558725357,0.0007153057376854122,0.0,-1.6452789306640625,0.0,1668050427.841305
258434533.0,-2.5452709197998047,-0.026848413050174713,-0.00614570640027523,-0.6777723431587219,-0.053895253688097,-0.00203685718588531,0.0074817221611738205,-0.1725980043411255,0.004072170238941908,0.0,-2.5320053100585938,0.0,1668050430.753554
258534543.0,-2.5420310497283936,0.1336328089237213,-0.006544939242303371,-0.7269178628921509,0.021763402968645096,-0.0024038481060415506,0.008065310306847095,0.07253452390432358,0.0011394602479413152,0.0,-10.508155822753906,0.0,1668050430.853564
258634505.0,-2.494140625,-0.057792894542217255,-0.005970647558569908,-0.7667244672775269,-0.1185828149318695,-0.00204558321274817,0.008332946337759495,0.06092464551329613,0.00046094198478385806,0.0,2.0926475524902344,0.0,1668050430.953526
258734583.0,-2.4646451473236084,0.09087994694709778,-0.006272262427955866,-0.8099845051765442,-0.06020620837807655,-0.002533367369323969,0.008673368021845818,-0.14251160621643066,0.0011594317620620131,0.0,-1.9781112670898438,0.0,1668050431.053604
258834502.0,-2.4304912090301514,0.052329715341329575,-0.006088556256145239,-0.8895668387413025,-0.04812877997756004,-0.0024598287418484688,0.009381274692714214,-0.19188274443149567,0.0006876645493321121,0.0,-3.394031524658203,0.0,1668050431.153523
258934533.0,-2.403743267059326,0.2250598669052124,-0.0065116118639707565,-0.9224092960357666,-0.1182720810174942,-0.0024232296273112297,0.009683082811534405,0.06460119038820267,-5.9736616094596684e-05,0.0,-0.6846427917480469,0.0,1668050431.253554
259034383.0,-2.358461618423462,-0.1690424531698227,-0.0053300089202821255,-0.9528328776359558,-0.07677073031663895,-0.0026602859143167734,0.009771292097866535,-0.19227160513401031,0.0011609637876972556,0.0,-0.753021240234375,0.0,1668050431.353404
259134434.0,-2.358635187149048,0.10401427000761032,-0.006022920832037926,-0.9920348525047302,-0.013015935197472572,-0.0030786891002207994,0.010196385905146599,0.015749717131257057,0.0004200004623271525,0.0,-1.0230064392089844,0.0,1668050431.453455
259234591.0,-2.3415544033050537,0.09912417829036713,-0.006005778908729553,-0.9950111508369446,-0.15610657632350922,-0.002351431641727686,0.010135993361473083,-0.08002276718616486,0.0005942165735177696,0.0,-1.5751838684082031,0.0,1668050431.553612
259334406.0,-2.3400752544403076,-0.06336686760187149,-0.005516993813216686,-1.0099420547485352,0.008528158068656921,-0.0033822343684732914,0.010295874439179897,-0.06586208194494247,0.0003466933558229357,0.0,-4.488849639892578,0.0,1668050431.653427
259434629.0,-2.3262383937835693,0.043135885149240494,-0.005818486679345369,-1.0152616500854492,-0.029944472014904022,-0.0030542740132659674,0.0102643221616745,-0.09055015444755554,0.0010779964504763484,0.0,-0.15935897827148438,0.0,1668050431.75365
259534435.0,-2.3530538082122803,0.11369860172271729,-0.005997156258672476,-1.0064523220062256,-0.035899173468351364,-0.003114348975941539,0.010345510207116604,0.08254537731409073,-0.00033109233481809497,0.0,-0.966644287109375,0.0,1668050431.853456
259634673.0,-2.32361102104187,-0.1025269404053688,-0.005436695646494627,-1.0208141803741455,-0.016746556386351585,-0.0030981407035142183,0.010278912261128426,-0.36608225107192993,0.001375146210193634,0.0,-0.7123947143554688,0.0,1668050431.953694
259734425.0,-2.3711373805999756,0.29742908477783203,-0.006515224929898977,-0.9939160346984863,-0.10172738879919052,-0.0027064390014857054,0.010307768359780312,0.15026719868183136,0.0004902795772068202,0.0,-0.23908615112304688,0.0,1668050432.053446
259834416.0,-2.3423826694488525,-0.17934001982212067,-0.005261560901999474,-0.9980965852737427,0.0008770088898018003,-0.003224196843802929,0.01018219068646431,-0.04119841009378433,-0.00013758540444541723,0.0,-0.86517333984375,0.0,1668050432.153437
259934401.0,-2.356595039367676,0.20968326926231384,-0.006309946067631245,-1.0099678039550781,-0.04056474566459656,-0.0027775955386459827,0.010322812013328075,-0.3207041919231415,0.001450614188797772,0.0,-1.8461227416992188,0.0,1668050432.253422
260034423.0,-2.365436553955078,-0.01998724602162838,-0.005687577184289694,-0.9772757887840271,-0.11051696538925171,-0.0026583061553537846,0.010087216272950172,0.0608711913228035,0.0006989915855228901,0.0,-0.4955291748046875,0.0,1668050432.353444
260134421.0,-2.355771064758301,0.02318592369556427,-0.005837203469127417,-0.98685622215271,0.04866499453783035,-0.0034591995645314455,0.010161234065890312,0.09865839034318924,-0.0004536661726888269,0.0,3.814220428466797,0.0,1668050432.453442
260234387.0,-2.3737244606018066,0.11272624880075455,-0.006059535313397646,-1.0014886856079102,-0.07608174532651901,-0.0025845300406217575,0.010318727232515812,-0.34485894441604614,0.0011753931175917387,0.0,-2.9816627502441406,0.0,1668050432.553408
260334376.0,-2.362016201019287,-0.007504186127334833,-0.0057589528150856495,-0.9716727137565613,-0.08558390289545059,-0.002876183483749628,0.010010050609707832,-0.011954855173826218,0.0011714311549440026,0.0,1.9262313842773438,0.0,1668050432.653397
260434518.0,-2.3784003257751465,0.13561934232711792,-0.006145274732261896,-0.9863038063049316,0.05793476104736328,-0.003452054690569639,0.010265467688441277,0.10630728304386139,-0.00033524734317325056,0.0,-5.581855773925781,0.0,1668050432.753539
260534601.0,-2.3644490242004395,-0.03347993642091751,-0.005690571386367083,-0.9873234033584595,-0.0882478803396225,-0.0025912029668688774,0.010127387009561062,-0.35755351185798645,0.0012108837254345417,0.0,1.4495849609375,0.0,1668050432.853622
260634398.0,-2.3771250247955322,0.12456738203763962,-0.006120565813034773,-0.9671691656112671,-0.06825094670057297,-0.002848045900464058,0.01001372467726469,0.02529248408973217,0.0010163102997466922,0.0,-1.3680458068847656,0.0,1668050432.953419
260734518.0,-2.3738300800323486,0.00015575364523101598,-0.005788489710539579,-0.9798901677131653,0.0015379930846393108,-0.0030575208365917206,0.01015264168381691,0.03163517266511917,-9.310716995969415e-05,0.0,3.041553497314453,0.0,1668050433.053539
260834401.0,-2.3751466274261475,0.10555336624383926,-0.0060803755186498165,-0.9699064493179321,-0.1344800442457199,-0.002368935151025653,0.009998401626944542,-0.23968683183193207,0.0008339746855199337,0.0,-4.067897796630859,0.0,1668050433.1534219
260934392.0,-2.3840646743774414,0.06853821128606796,-0.005976949352771044,-0.9642344117164612,-0.00906107947230339,-0.0032425064127892256,0.010010316036641598,-0.06707199662923813,0.0009588372195139527,0.0,1.8717765808105469,0.0,1668050433.253413
261034444.0,-2.3740482330322266,0.008268914185464382,-0.0058313459157943726,-0.978573739528656,0.007216521538794041,-0.003035430796444416,0.010131173767149448,0.019560690969228745,0.00020484355627559125,0.0,-3.597736358642578,0.0,1668050433.353465
261134596.0,-2.3824288845062256,0.11933408677577972,-0.006119171157479286,-0.9684354066848755,-0.10458342730998993,-0.002561591099947691,0.010014038532972336,-0.18580959737300873,0.0006537146982736886,0.0,0.397491455078125,0.0,1668050433.453617
261234412.0,-2.373530626296997,-0.02644936554133892,-0.0057244617491960526,-0.9654331207275391,-0.0230966005474329,-0.003086158772930503,0.009959718212485313,-0.1246892437338829,0.001103256014175713,0.0,0.2919197082519531,0.0,1668050433.553433
261334591.0,-2.3792195320129395,0.09189523756504059,-0.006046544760465622,-0.9704910516738892,-0.06284494698047638,-0.0026077022776007652,0.010079852305352688,0.05701456218957901,0.00012777915981132537,0.0,0.5228996276855469,0.0,1668050433.653612
261434578.0,-2.3744349479675293,-0.0065608397126197815,-0.005771838594228029,-0.9596492052078247,-0.11519021540880203,-0.002544999588280916,0.009895269758999348,-0.20110303163528442,0.0007547300192527473,0.0,-1.3041496276855469,0.0,1668050433.753599
261534583.0,-2.3768091201782227,0.09781423956155777,-0.006062088534235954,-0.9640691876411438,-0.0014301007613539696,-0.0031746267341077328,0.009960448369383812,-0.09085499495267868,0.0010256569366902113,0.0,-3.0719757080078125,0.0,1668050433.853604
261634388.0,-2.3752379417419434,-0.0017697259318083525,-0.00578265218064189,-0.9650475978851318,-0.04450201615691185,-0.002757972339168191,0.010022813454270363,0.045637767761945724,0.00017341432976536453,0.0,-1.2738227844238281,0.0,1668050433.953409
261734416.0,-2.3778231143951416,0.084577277302742,-0.006024700589478016,-0.9558285474777222,-0.08493034541606903,-0.002705735620111227,0.009869217872619629,-0.16544517874717712,0.0005715587758459151,0.0,-1.4387130737304688,0.0,1668050434.053437
261834519.0,-2.379110813140869,0.0433746762573719,-0.005911164451390505,-0.9638231992721558,-0.011171320453286171,-0.003026572521775961,0.009975799359381199,-0.11723669618368149,0.0009494643891230226,0.0,4.648876190185547,0.0,1668050434.15354
261934401.0,-2.3772876262664795,0.06645043194293976,-0.005983289796859026,-0.9627521634101868,-0.07767803966999054,-0.0026060352101922035,0.009980312548577785,0.039216481149196625,0.0002635692071635276,0.0,-2.486896514892578,0.0,1668050434.253422
262034518.0,-2.3818955421447754,0.08824262768030167,-0.006033353041857481,-0.9572186470031738,-0.07527868449687958,-0.002766956575214863,0.00990931037813425,-0.14252610504627228,0.0005210461677052081,0.0,1.6535758972167969,0.0,1668050434.353539
262134476.0,-2.376858949661255,0.028890391811728477,-0.005880972370505333,-0.9724709391593933,0.01926567032933235,-0.0032145590521395206,0.010057198815047741,-0.13091188669204712,0.001024397904984653,0.0,-4.559230804443359,0.0,1668050434.453497
262234397.0,-2.376462459564209,0.04707390442490578,-0.005924060940742493,-0.9638091325759888,-0.055805936455726624,-0.0027833934873342514,0.010009118355810642,0.05188893899321556,0.00024638610193505883,0.0,2.557849884033203,0.0,1668050434.553418
262334627.0,-2.3713290691375732,0.01195540837943554,-0.005821952596306801,-0.9608309268951416,-0.06287535279989243,-0.0028156861662864685,0.00990987103432417,-0.15801459550857544,0.0005746557144448161,0.0,-0.7246971130371094,0.0,1668050434.653648
262434518.0,-2.371588945388794,0.07612811028957367,-0.0059891389682888985,-0.9706434607505798,-0.012278771959245205,-0.0030008619651198387,0.010014901868999004,-0.12695714831352234,0.0010154187912121415,0.0,3.0358314514160156,0.0,1668050434.753539
