TimeUS,Active,NumPts,MaxPts,Action,N,E,D,timestamp
371130829.0,0.0,1.0,300.0,0.0,-13.491738319396973,-26.734403610229492,-10.053191184997559,1668050543.44985
371796269.0,1.0,2.0,300.0,0.0,-15.687074661254883,-30.03362274169922,-10.366227149963379,1668050544.11529
372128644.0,1.0,3.0,300.0,0.0,-16.6112003326416,-31.945606231689453,-10.502907752990723,1668050544.447665
372460833.0,1.0,4.0,300.0,0.0,-17.25614356994629,-33.914939880371094,-10.63443374633789,1668050544.779854
373126134.0,1.0,5.0,300.0,0.0,-17.127973556518555,-37.43965148925781,-10.761180877685547,1668050545.445155
373790823.0,1.0,6.0,300.0,0.0,-15.356032371520996,-39.840641021728516,-10.742547988891602,1668050546.109844
374456077.0,1.0,7.0,300.0,0.0,-12.475327491760254,-40.89944076538086,-10.863152503967285,1668050546.775098
375120852.0,1.0,8.0,300.0,0.0,-9.96812915802002,-41.766841888427734,-11.44632339477539,1668050547.439873
375785999.0,1.0,9.0,300.0,0.0,-6.326779365539551,-40.98322677612305,-11.831003189086914,1668050548.10502
376118662.0,1.0,10.0,300.0,0.0,-3.776106595993042,-39.3679084777832,-11.85502815246582,1668050548.437683
376450835.0,1.0,11.0,300.0,0.0,-0.5623934268951416,-36.125038146972656,-11.474230766296387,1668050548.769856
376783866.0,1.0,12.0,300.0,0.0,2.3228728771209717,-32.53690719604492,-11.020635604858398,1668050549.102887
377116101.0,1.0,13.0,300.0,0.0,4.85853385925293,-29.29649543762207,-10.834378242492676,1668050549.435122
377448633.0,1.0,14.0,300.0,0.0,7.265076637268066,-26.524089813232422,-10.979073524475098,1668050549.767654
377780743.0,1.0,15.0,300.0,0.0,9.372175216674805,-24.070877075195312,-11.317913055419922,1668050550.0997639
378113400.0,1.0,16.0,300.0,0.0,11.715986251831055,-21.446012496948242,-11.642746925354004,1668050550.432421
378446079.0,1.0,17.0,300.0,0.0,14.40499496459961,-18.38739013671875,-11.809290885925293,1668050550.7651
378778795.0,1.0,18.0,300.0,0.0,17.124526977539062,-15.116230010986328,-11.882065773010254,1668050551.097816
379110872.0,1.0,19.0,300.0,0.0,19.810636520385742,-11.802654266357422,-11.960509300231934,1668050551.429893
379443348.0,1.0,20.0,300.0,0.0,22.3834171295166,-8.637004852294922,-12.125162124633789,1668050551.762369
379776182.0,1.0,21.0,300.0,0.0,25.53731346130371,-4.749142646789551,-12.199112892150879,1668050552.095203
387423571.0,1.0,22.0,300.0,0.0,89.61494445800781,105.37625885009766,-22.9302978515625,1668050559.742592
387756031.0,1.0,23.0,300.0,0.0,90.8514633178711,108.31381225585938,-23.915157318115234,1668050560.075052
388088789.0,1.0,24.0,300.0,0.0,92.27922821044922,111.0392074584961,-24.56575584411621,1668050560.40781
388420848.0,1.0,25.0,300.0,0.0,93.74185180664062,113.48758697509766,-25.154808044433594,1668050560.7398689
388753372.0,1.0,26.0,300.0,0.0,95.12528991699219,115.58907318115234,-25.527978897094727,1668050561.072393
389086232.0,1.0,27.0,300.0,0.0,96.48416900634766,117.41795349121094,-25.709625244140625,1668050561.405253
389418628.0,1.0,28.0,300.0,0.0,61.47727966308594,60.183265686035156,-25.893234252929688,1668050561.737649
389750814.0,1.0,29.0,300.0,0.0,63.66273498535156,63.08929443359375,-25.646711349487305,1668050562.069835
390083787.0,1.0,30.0,300.0,0.0,65.46660614013672,64.92564392089844,-25.446352005004883,1668050562.402808
390416055.0,1.0,31.0,300.0,0.0,67.10946655273438,66.36438751220703,-25.338035583496094,1668050562.735076
390748627.0,1.0,32.0,300.0,0.0,68.69780731201172,67.61908721923828,-25.28335189819336,1668050563.067648
391413385.0,1.0,33.0,300.0,0.0,71.80256652832031,69.74657440185547,-25.274221420288086,1668050563.732406
392079523.0,1.0,34.0,300.0,0.0,74.76127624511719,71.26828002929688,-25.219038009643555,1668050564.398544
392743506.0,1.0,35.0,300.0,0.0,77.51470184326172,72.25114440917969,-25.35123062133789,1668050565.062527
393408710.0,1.0,36.0,300.0,0.0,80.07817840576172,73.01180267333984,-25.337894439697266,1668050565.727731
394073461.0,1.0,37.0,300.0,0.0,81.99122619628906,73.96397399902344,-25.170639038085938,1668050566.392482
397066359.0,1.0,38.0,300.0,0.0,80.29100799560547,73.53047180175781,-23.987659454345703,1668050569.38538
397730853.0,1.0,39.0,300.0,0.0,78.85931396484375,71.57662963867188,-23.856908798217773,1668050570.049874
398396761.0,1.0,40.0,300.0,0.0,77.28009033203125,69.09171295166016,-23.8953857421875,1668050570.715782
398728925.0,1.0,40.0,300.0,3.0,76.7032699584961,68.06825256347656,-24.084476470947266,1668050571.047946
399060841.0,1.0,41.0,300.0,0.0,76.2926025390625,67.3572998046875,-24.482280731201172,1668050571.379862
400058713.0,1.0,42.0,300.0,0.0,75.83795166015625,65.87124633789062,-26.887723922729492,1668050572.377734
401056062.0,1.0,43.0,300.0,0.0,75.73005676269531,65.10526275634766,-29.45106315612793,1668050573.375083
402053503.0,1.0,44.0,300.0,0.0,75.58980560302734,65.03472137451172,-31.870853424072266,1668050574.372524
403050834.0,1.0,45.0,300.0,0.0,75.44306182861328,64.20623016357422,-34.34865951538086,1668050575.369855
403716158.0,1.0,46.0,300.0,0.0,75.36669158935547,62.86177444458008,-36.03470230102539,1668050576.035179
404380840.0,1.0,47.0,300.0,0.0,75.23857879638672,60.95003128051758,-37.71200180053711,1668050576.699861
405046177.0,1.0,48.0,300.0,0.0,75.0079345703125,58.54337692260742,-39.338523864746094,1668050577.365198
405710930.0,1.0,49.0,300.0,0.0,74.51466369628906,55.73039627075195,-40.96220016479492,1668050578.029951
406377055.0,1.0,50.0,300.0,0.0,73.80677032470703,52.511173248291016,-42.44856262207031,1668050578.696076
406391102.0,1.0,50.0,300.0,2.0,-15.687074661254883,-30.03362274169922,-10.366227149963379,1668050578.710123
406391171.0,1.0,50.0,300.0,2.0,-17.25614356994629,-33.914939880371094,-10.63443374633789,1668050578.710192
406391220.0,1.0,50.0,300.0,2.0,-15.356032371520996,-39.840641021728516,-10.742547988891602,1668050578.710241
406391227.0,1.0,50.0,300.0,2.0,-9.96812915802002,-41.766841888427734,-11.44632339477539,1668050578.710248
406391234.0,1.0,50.0,300.0,2.0,-3.776106595993042,-39.3679084777832,-11.85502815246582,1668050578.710255
406391241.0,1.0,50.0,300.0,2.0,-0.5623934268951416,-36.125038146972656,-11.474230766296387,1668050578.710262
406391248.0,1.0,50.0,300.0,2.0,2.3228728771209717,-32.53690719604492,-11.020635604858398,1668050578.710269
406391255.0,1.0,50.0,300.0,2.0,7.265076637268066,-26.524089813232422,-10.979073524475098,1668050578.710276
406391261.0,1.0,50.0,300.0,2.0,9.372175216674805,-24.070877075195312,-11.317913055419922,1668050578.710282
406391268.0,1.0,50.0,300.0,2.0,11.715986251831055,-21.446012496948242,-11.642746925354004,1668050578.710289
406391275.0,1.0,50.0,300.0,2.0,14.40499496459961,-18.38739013671875,-11.809290885925293,1668050578.710296
406391282.0,1.0,50.0,300.0,2.0,17.124526977539062,-15.116230010986328,-11.882065773010254,1668050578.710303
406391289.0,1.0,50.0,300.0,2.0,19.810636520385742,-11.802654266357422,-11.960509300231934,1668050578.71031
406391296.0,1.0,50.0,300.0,2.0,22.3834171295166,-8.637004852294922,-12.125162124633789,1668050578.710317
406391303.0,1.0,50.0,300.0,2.0,90.8514633178711,108.31381225585938,-23.915157318115234,1668050578.710324
406391310.0,1.0,50.0,300.0,2.0,92.27922821044922,111.0392074584961,-24.56575584411621,1668050578.710331
406391393.0,1.0,50.0,300.0,2.0,93.74185180664062,113.48758697509766,-25.154808044433594,1668050578.710414
406391400.0,1.0,50.0,300.0,2.0,95.12528991699219,115.58907318115234,-25.527978897094727,1668050578.710421
406391444.0,1.0,50.0,300.0,2.0,63.66273498535156,63.08929443359375,-25.646711349487305,1668050578.710465
406391452.0,1.0,50.0,300.0,2.0,65.46660614013672,64.92564392089844,-25.446352005004883,1668050578.710473
406391459.0,1.0,50.0,300.0,2.0,67.10946655273438,66.36438751220703,-25.338035583496094,1668050578.71048
406391466.0,1.0,50.0,300.0,2.0,68.69780731201172,67.61908721923828,-25.28335189819336,1668050578.710487
406391473.0,1.0,50.0,300.0,2.0,74.76127624511719,71.26828002929688,-25.219038009643555,1668050578.710494
406391479.0,1.0,50.0,300.0,2.0,77.51470184326172,72.25114440917969,-25.35123062133789,1668050578.7105
406391486.0,1.0,50.0,300.0,2.0,80.07817840576172,73.01180267333984,-25.337894439697266,1668050578.710507
406391493.0,1.0,50.0,300.0,2.0,78.85931396484375,71.57662963867188,-23.856908798217773,1668050578.710514
406391500.0,1.0,50.0,300.0,2.0,77.28009033203125,69.09171295166016,-23.8953857421875,1668050578.710521
406391507.0,1.0,50.0,300.0,2.0,75.83795166015625,65.87124633789062,-26.887723922729492,1668050578.710528
406391518.0,1.0,50.0,300.0,2.0,75.73005676269531,65.10526275634766,-29.45106315612793,1668050578.710539
406391525.0,1.0,50.0,300.0,2.0,75.58980560302734,65.03472137451172,-31.870853424072266,1668050578.710546
406391532.0,1.0,50.0,300.0,2.0,75.44306182861328,64.20623016357422,-34.34865951538086,1668050578.710553
406391539.0,1.0,50.0,300.0,2.0,75.23857879638672,60.95003128051758,-37.71200180053711,1668050578.71056
406391588.0,1.0,50.0,300.0,2.0,75.0079345703125,58.54337692260742,-39.338523864746094,1668050578.710609
406391595.0,1.0,50.0,300.0,2.0,74.51466369628906,55.73039627075195,-40.96220016479492,1668050578.7106159
407040903.0,1.0,17.0,300.0,0.0,72.95560455322266,49.00042724609375,-43.89122772216797,1668050579.359924
407373416.0,1.0,18.0,300.0,0.0,72.47380828857422,47.14726638793945,-44.63197708129883,1668050579.692437
407706380.0,1.0,19.0,300.0,0.0,71.95216369628906,45.20590591430664,-45.37107467651367,1668050580.0254009
408038726.0,1.0,20.0,300.0,0.0,71.40779113769531,43.17762756347656,-46.09273147583008,1668050580.357747
408370847.0,1.0,21.0,300.0,0.0,70.84418487548828,41.084407806396484,-46.806488037109375,1668050580.689868
408703592.0,1.0,22.0,300.0,0.0,70.25337219238281,38.957183837890625,-47.53153991699219,1668050581.022613
409036092.0,1.0,23.0,300.0,0.0,69.6436538696289,36.80984878540039,-48.2149543762207,1668050581.355113
409368712.0,1.0,24.0,300.0,0.0,69.02704620361328,34.6497917175293,-48.836456298828125,1668050581.687733
409700856.0,1.0,25.0,300.0,0.0,68.42760467529297,32.498634338378906,-49.30965805053711,1668050582.019877
410033702.0,1.0,26.0,300.0,0.0,67.85985565185547,30.33802032470703,-49.690277099609375,1668050582.352723
410366140.0,1.0,27.0,300.0,0.0,67.3090591430664,28.18309783935547,-50.02936935424805,1668050582.6851609
410698815.0,1.0,28.0,300.0,0.0,66.7635726928711,26.029356002807617,-50.34764099121094,1668050583.017836
411030854.0,1.0,29.0,300.0,0.0,66.25196075439453,23.872798919677734,-50.63944625854492,1668050583.349875
411363506.0,1.0,30.0,300.0,0.0,65.77471923828125,21.718246459960938,-50.91630935668945,1668050583.682527
411696162.0,1.0,31.0,300.0,0.0,65.32583618164062,19.56257438659668,-51.111671447753906,1668050584.015183
412028751.0,1.0,32.0,300.0,0.0,64.89225006103516,17.386367797851562,-51.240909576416016,1668050584.347772
412360820.0,1.0,33.0,300.0,0.0,64.49004364013672,15.244120597839355,-51.35201644897461,1668050584.679841
412693417.0,1.0,34.0,300.0,0.0,64.11772155761719,13.084723472595215,-51.441707611083984,1668050585.012438
413026179.0,1.0,35.0,300.0,0.0,63.78238296508789,10.923038482666016,-51.49646759033203,1668050585.3452
413358682.0,1.0,36.0,300.0,0.0,63.484527587890625,8.746145248413086,-51.49647903442383,1668050585.677703
413691047.0,1.0,37.0,300.0,0.0,63.220802307128906,6.586896896362305,-51.49309539794922,1668050586.010068
414023760.0,1.0,38.0,300.0,0.0,62.978118896484375,4.43646764755249,-51.4947624206543,1668050586.342781
414356193.0,1.0,39.0,300.0,0.0,62.764095306396484,2.293588399887085,-51.50126266479492,1668050586.675214
414688870.0,1.0,40.0,300.0,0.0,62.56785202026367,0.2095867395401001,-51.42340850830078,1668050587.007891
415353449.0,1.0,41.0,300.0,0.0,62.26137924194336,-3.5350558757781982,-50.864479064941406,1668050587.67247
416018734.0,1.0,42.0,300.0,0.0,61.949302673339844,-6.200366497039795,-50.040863037109375,1668050588.337755
417016227.0,1.0,43.0,300.0,0.0,61.377655029296875,-8.190701484680176,-48.96364974975586,1668050589.335248
418013487.0,1.0,44.0,300.0,0.0,60.92153549194336,-10.126276969909668,-48.22937774658203,1668050590.332508
419010854.0,1.0,45.0,300.0,0.0,59.51408767700195,-12.368122100830078,-47.08857727050781,1668050591.329875
419677274.0,1.0,46.0,300.0,0.0,57.9415397644043,-14.013869285583496,-46.13788604736328,1668050591.996295
420340889.0,1.0,47.0,300.0,0.0,56.04245376586914,-15.862918853759766,-45.432029724121094,1668050592.65991
421006131.0,1.0,48.0,300.0,0.0,54.249977111816406,-17.595762252807617,-45.15018844604492,1668050593.325152
421670877.0,1.0,49.0,300.0,0.0,52.47127914428711,-19.39222526550293,-44.858177185058594,1668050593.989898
422336121.0,1.0,50.0,300.0,0.0,51.11772155761719,-20.773887634277344,-44.32095718383789,1668050594.655142
424330890.0,1.0,51.0,300.0,0.0,50.27537536621094,-21.897457122802734,-42.664306640625,1668050596.649911
425661048.0,1.0,52.0,300.0,0.0,50.27701187133789,-24.014389038085938,-41.711307525634766,1668050597.980069
426658756.0,1.0,53.0,300.0,0.0,50.151981353759766,-26.488082885742188,-40.7144775390625,1668050598.977777
427656108.0,1.0,54.0,300.0,0.0,50.051353454589844,-28.51443099975586,-39.408199310302734,1668050599.975129
429650850.0,1.0,55.0,300.0,0.0,50.012664794921875,-29.348159790039062,-37.3256950378418,1668050601.969871
431646993.0,1.0,56.0,300.0,0.0,49.30982971191406,-29.00235366821289,-35.20956039428711,1668050603.966014
432977055.0,1.0,57.0,300.0,0.0,48.29924774169922,-28.61324119567871,-33.44917678833008,1668050605.296076
434306070.0,1.0,58.0,300.0,0.0,47.35623550415039,-28.36058807373047,-31.275718688964844,1668050606.625091
435968733.0,1.0,59.0,300.0,0.0,46.39564895629883,-28.076379776000977,-29.0174503326416,1668050608.287754
437631068.0,1.0,60.0,300.0,0.0,45.50298309326172,-27.898635864257812,-26.916290283203125,1668050609.950089
439293361.0,1.0,61.0,300.0,0.0,44.0863037109375,-26.856292724609375,-25.091567993164062,1668050611.612382
440623697.0,1.0,62.0,300.0,0.0,42.73280715942383,-25.967357635498047,-23.49837875366211,1668050612.942718
442286299.0,1.0,63.0,300.0,0.0,41.34036636352539,-25.115663528442383,-21.879629135131836,1668050614.60532
443616442.0,1.0,64.0,300.0,0.0,40.095985412597656,-24.058391571044922,-20.71918296813965,1668050615.935463
444946136.0,1.0,65.0,300.0,0.0,38.53217315673828,-22.37430191040039,-19.666688919067383,1668050617.265157
445943505.0,1.0,66.0,300.0,0.0,37.27554702758789,-20.938674926757812,-18.748098373413086,1668050618.262526
445956664.0,1.0,66.0,300.0,2.0,72.95560455322266,49.00042724609375,-43.89122772216797,1668050618.275685
445956673.0,1.0,66.0,300.0,2.0,72.47380828857422,47.14726638793945,-44.63197708129883,1668050618.275694
445956680.0,1.0,66.0,300.0,2.0,71.95216369628906,45.20590591430664,-45.37107467651367,1668050618.275701
445956687.0,1.0,66.0,300.0,2.0,71.40779113769531,43.17762756347656,-46.09273147583008,1668050618.275708
445956738.0,1.0,66.0,300.0,2.0,70.84418487548828,41.084407806396484,-46.806488037109375,1668050618.275759
445956746.0,1.0,66.0,300.0,2.0,70.25337219238281,38.957183837890625,-47.53153991699219,1668050618.275767
445956753.0,1.0,66.0,300.0,2.0,69.6436538696289,36.80984878540039,-48.2149543762207,1668050618.275774
445956760.0,1.0,66.0,300.0,2.0,68.42760467529297,32.498634338378906,-49.30965805053711,1668050618.275781
445956766.0,1.0,66.0,300.0,2.0,67.85985565185547,30.33802032470703,-49.690277099609375,1668050618.2757869
445956773.0,1.0,66.0,300.0,2.0,67.3090591430664,28.18309783935547,-50.02936935424805,1668050618.275794
445956780.0,1.0,66.0,300.0,2.0,66.7635726928711,26.029356002807617,-50.34764099121094,1668050618.275801
445956787.0,1.0,66.0,300.0,2.0,66.25196075439453,23.872798919677734,-50.63944625854492,1668050618.275808
445956794.0,1.0,66.0,300.0,2.0,65.32583618164062,19.56257438659668,-51.111671447753906,1668050618.275815
445956801.0,1.0,66.0,300.0,2.0,64.89225006103516,17.386367797851562,-51.240909576416016,1668050618.275822
445956808.0,1.0,66.0,300.0,2.0,64.49004364013672,15.244120597839355,-51.35201644897461,1668050618.275829
445956815.0,1.0,66.0,300.0,2.0,64.11772155761719,13.084723472595215,-51.441707611083984,1668050618.275836
445956822.0,1.0,66.0,300.0,2.0,63.78238296508789,10.923038482666016,-51.49646759033203,1668050618.275843
445956828.0,1.0,66.0,300.0,2.0,63.484527587890625,8.746145248413086,-51.49647903442383,1668050618.275849
445956835.0,1.0,66.0,300.0,2.0,63.220802307128906,6.586896896362305,-51.49309539794922,1668050618.275856
445956846.0,1.0,66.0,300.0,2.0,62.978118896484375,4.43646764755249,-51.4947624206543,1668050618.275867
445956907.0,1.0,66.0,300.0,2.0,62.56785202026367,0.2095867395401001,-51.42340850830078,1668050618.275928
445956914.0,1.0,66.0,300.0,2.0,62.26137924194336,-3.5350558757781982,-50.864479064941406,1668050618.275935
445956921.0,1.0,66.0,300.0,2.0,61.377655029296875,-8.190701484680176,-48.96364974975586,1668050618.275942
445956928.0,1.0,66.0,300.0,2.0,60.92153549194336,-10.126276969909668,-48.22937774658203,1668050618.275949
445956935.0,1.0,66.0,300.0,2.0,57.9415397644043,-14.013869285583496,-46.13788604736328,1668050618.275956
445956942.0,1.0,66.0,300.0,2.0,56.04245376586914,-15.862918853759766,-45.432029724121094,1668050618.275963
445956949.0,1.0,66.0,300.0,2.0,54.249977111816406,-17.595762252807617,-45.15018844604492,1668050618.27597
445956956.0,1.0,66.0,300.0,2.0,52.47127914428711,-19.39222526550293,-44.858177185058594,1668050618.275977
445956963.0,1.0,66.0,300.0,2.0,50.27701187133789,-24.014389038085938,-41.711307525634766,1668050618.275984
445956970.0,1.0,66.0,300.0,2.0,50.151981353759766,-26.488082885742188,-40.7144775390625,1668050618.275991
445956977.0,1.0,66.0,300.0,2.0,49.30982971191406,-29.00235366821289,-35.20956039428711,1668050618.2759979
445956984.0,1.0,66.0,300.0,2.0,48.29924774169922,-28.61324119567871,-33.44917678833008,1668050618.276005
445956991.0,1.0,66.0,300.0,2.0,47.35623550415039,-28.36058807373047,-31.275718688964844,1668050618.276012
445956997.0,1.0,66.0,300.0,2.0,46.39564895629883,-28.076379776000977,-29.0174503326416,1668050618.276018
445957040.0,1.0,66.0,300.0,2.0,44.0863037109375,-26.856292724609375,-25.091567993164062,1668050618.276061
445957094.0,1.0,66.0,300.0,2.0,42.73280715942383,-25.967357635498047,-23.49837875366211,1668050618.276115
445957124.0,1.0,66.0,300.0,2.0,40.095985412597656,-24.058391571044922,-20.71918296813965,1668050618.276145
445957131.0,1.0,66.0,300.0,2.0,38.53217315673828,-22.37430191040039,-19.666688919067383,1668050618.276152
447606162.0,1.0,28.0,300.0,3.0,36.17626190185547,-19.816259384155273,-17.42201805114746,1668050619.925183
447938727.0,1.0,29.0,300.0,0.0,35.85543441772461,-19.682125091552734,-17.168142318725586,1668050620.257748
449601051.0,1.0,30.0,300.0,0.0,33.681175231933594,-19.375690460205078,-15.928021430969238,1668050621.920072
450598691.0,1.0,31.0,300.0,0.0,31.606719970703125,-19.292055130004883,-15.207676887512207,1668050622.917712
451596216.0,1.0,32.0,300.0,0.0,28.98404884338379,-19.342456817626953,-14.419889450073242,1668050623.915237
452593534.0,1.0,33.0,300.0,0.0,26.419687271118164,-19.312414169311523,-13.802438735961914,1668050624.912555
453591016.0,1.0,34.0,300.0,0.0,24.309919357299805,-19.263029098510742,-12.968684196472168,1668050625.910037
455586719.0,1.0,35.0,300.0,0.0,22.448312759399414,-19.208114624023438,-11.593703269958496,1668050627.90574
456916191.0,1.0,36.0,300.0,0.0,20.687013626098633,-18.7670955657959,-10.723682403564453,1668050629.235212
458246202.0,1.0,37.0,300.0,0.0,18.625879287719727,-18.257549285888672,-10.132526397705078,1668050630.565223
459908740.0,1.0,38.0,300.0,0.0,16.591054916381836,-17.829265594482422,-10.109919548034668,1668050632.227761
466226137.0,1.0,39.0,300.0,0.0,14.65825366973877,-18.904787063598633,-9.988317489624023,1668050638.545158
469883957.0,1.0,40.0,300.0,0.0,13.243245124816895,-20.43695640563965,-9.850228309631348,1668050642.202978
471879706.0,1.0,41.0,300.0,0.0,10.870583534240723,-20.222618103027344,-9.341474533081055,1668050644.198727
473208749.0,1.0,42.0,300.0,0.0,8.931641578674316,-19.409992218017578,-9.016117095947266,1668050645.52777
474870893.0,1.0,43.0,300.0,0.0,6.938209056854248,-18.513607025146484,-8.473448753356934,1668050647.189914
478196135.0,1.0,44.0,300.0,0.0,5.394022464752197,-17.28264808654785,-7.491724014282227,1668050650.515156
479526448.0,1.0,45.0,300.0,0.0,3.8162713050842285,-15.522275924682617,-7.032248020172119,1668050651.845469
480856208.0,1.0,46.0,300.0,0.0,2.2840588092803955,-13.879498481750488,-6.76820707321167,1668050653.175229
483848785.0,1.0,47.0,300.0,0.0,0.7305582165718079,-12.416370391845703,-6.542361259460449,1668050656.167806
485843593.0,1.0,48.0,300.0,0.0,-0.44461026787757874,-10.831586837768555,-6.165739059448242,1668050658.1626139
490166235.0,1.0,49.0,300.0,0.0,-1.3909456729888916,-8.965056419372559,-5.645834445953369,1668050662.485256
492160857.0,1.0,50.0,300.0,0.0,-2.3178696632385254,-7.084976673126221,-5.294376373291016,1668050664.479878
495153436.0,1.0,51.0,300.0,0.0,-3.0058236122131348,-5.196738243103027,-5.10312557220459,1668050667.472457
499808703.0,1.0,52.0,300.0,0.0,-2.88102650642395,-3.1777138710021973,-4.5645318031311035,1668050672.127724
507706060.0,1.0,53.0,300.0,0.0,-2.666395425796509,-1.2655088901519775,-3.846982717514038,1668050680.025081
513358707.0,1.0,54.0,300.0,0.0,-1.9229265451431274,-0.11178659647703171,-2.2526321411132812,1668050685.677728
738880184.0,1.0,1.0,300.0,0.0,-1.150344729423523,0.6262309551239014,0.1873396784067154,1668050911.199205
738880252.0,1.0,1.0,300.0,0.0,-1.150344729423523,0.6262309551239014,0.1873396784067154,1668050911.1992729
752026886.0,1.0,2.0,300.0,0.0,-2.0445001125335693,-0.30572575330734253,-1.867130994796753,1668050924.345907
753357022.0,1.0,3.0,300.0,0.0,-2.433354616165161,-2.1361794471740723,-3.272815227508545,1668050925.676043
754354698.0,1.0,4.0,300.0,0.0,-2.7974164485931396,-3.913576126098633,-4.2448954582214355,1668050926.673719
755352258.0,1.0,5.0,300.0,0.0,-2.989701747894287,-6.146158218383789,-5.212649822235107,1668050927.671279
756349644.0,1.0,6.0,300.0,0.0,-3.1667025089263916,-8.905444145202637,-5.958189964294434,1668050928.668665
757014821.0,1.0,7.0,300.0,0.0,-3.215064287185669,-10.921061515808105,-6.363104343414307,1668050929.333842
757680120.0,1.0,8.0,300.0,0.0,-3.3345296382904053,-12.900396347045898,-6.794066905975342,1668050929.999141
758344772.0,1.0,9.0,300.0,0.0,-3.3669509887695312,-14.857369422912598,-7.222501277923584,1668050930.663793
759342051.0,1.0,10.0,300.0,0.0,-3.4268693923950195,-17.765840530395508,-7.815543174743652,1668050931.661072
760339646.0,1.0,11.0,300.0,0.0,-3.467625617980957,-20.596948623657227,-8.35782527923584,1668050932.658667
761336859.0,1.0,12.0,300.0,0.0,-3.4715898036956787,-23.26492691040039,-8.853232383728027,1668050933.65588
762334738.0,1.0,13.0,300.0,0.0,-3.482060670852661,-25.778772354125977,-9.34896469116211,1668050934.653759
763332113.0,1.0,14.0,300.0,0.0,-3.761259078979492,-27.981792449951172,-9.525736808776855,1668050935.651134
766656998.0,1.0,15.0,300.0,0.0,-4.836849689483643,-29.748291015625,-9.569704055786133,1668050938.976019
768984825.0,1.0,16.0,300.0,0.0,-6.7008137702941895,-30.908451080322266,-9.529685020446777,1668050941.303846
770646950.0,1.0,17.0,300.0,0.0,-7.891112804412842,-32.672889709472656,-9.517556190490723,1668050942.965971
775302082.0,1.0,18.0,300.0,0.0,-9.615497589111328,-33.81650924682617,-9.464027404785156,1668050947.621103
778295078.0,1.0,19.0,300.0,0.0,-9.143452644348145,-36.00771713256836,-9.421510696411133,1668050950.614099
779624769.0,1.0,20.0,300.0,0.0,-7.594320774078369,-37.890357971191406,-9.417055130004883,1668050951.94379
780954810.0,1.0,21.0,300.0,0.0,-6.068396091461182,-39.94563293457031,-9.416650772094727,1668050953.273831
782284798.0,1.0,22.0,300.0,0.0,-5.296478271484375,-42.11974334716797,-9.40234088897705,1668050954.603819
783614776.0,1.0,23.0,300.0,0.0,-5.086328029632568,-44.23014831542969,-9.405477523803711,1668050955.933797
788934739.0,1.0,24.0,300.0,0.0,-4.4688615798950195,-46.2419319152832,-9.348002433776855,1668050961.25376
790264814.0,1.0,25.0,300.0,0.0,-2.228581428527832,-46.42100524902344,-9.436779022216797,1668050962.583835
791262254.0,1.0,26.0,300.0,0.0,-0.1489734649658203,-46.59306716918945,-9.446667671203613,1668050963.581275
792259676.0,1.0,27.0,300.0,0.0,2.147773027420044,-46.79278564453125,-9.412230491638184,1668050964.578697
793922366.0,1.0,28.0,300.0,0.0,4.24153470993042,-47.53938293457031,-9.258062362670898,1668050966.241387
796582298.0,1.0,29.0,300.0,0.0,2.3511292934417725,-49.02088165283203,-9.218396186828613,1668050968.901319
797580290.0,1.0,30.0,300.0,0.0,0.15956448018550873,-49.54911804199219,-9.205032348632812,1668050969.899311
798576941.0,1.0,31.0,300.0,0.0,-2.0584163665771484,-50.10329055786133,-9.200311660766602,1668050970.895962
800239704.0,1.0,32.0,300.0,0.0,-3.8532676696777344,-51.60861587524414,-9.185609817504883,1668050972.5587249
801902399.0,1.0,33.0,300.0,0.0,-3.914759397506714,-53.88517379760742,-9.18899917602539,1668050974.22142
809216985.0,1.0,34.0,300.0,0.0,-2.9616026878356934,-55.65446853637695,-9.148231506347656,1668050981.536006
810546891.0,1.0,35.0,300.0,0.0,-3.7696573734283447,-57.99355697631836,-9.143716812133789,1668050982.865912
811544782.0,1.0,36.0,300.0,0.0,-4.8892974853515625,-59.760536193847656,-9.149545669555664,1668050983.863803
812874798.0,1.0,37.0,300.0,0.0,-6.294546127319336,-61.48506546020508,-9.16867446899414,1668050985.193819
814536965.0,1.0,38.0,300.0,0.0,-6.008524417877197,-63.807273864746094,-9.195733070373535,1668050986.8559859
817196934.0,1.0,38.0,300.0,3.0,-4.663111209869385,-63.105628967285156,-9.202311515808105,1668050989.515955
817862114.0,1.0,39.0,300.0,0.0,-4.368497371673584,-61.899173736572266,-9.232714653015137,1668050990.181135
819192183.0,1.0,40.0,300.0,0.0,-3.8842337131500244,-59.824649810791016,-9.148787498474121,1668050991.511204
821186993.0,1.0,41.0,300.0,0.0,-1.9298263788223267,-58.71095657348633,-9.196426391601562,1668050993.5060139
824512072.0,1.0,42.0,300.0,0.0,0.1443735510110855,-59.17853546142578,-9.201044082641602,1668050996.831093
827172594.0,1.0,43.0,300.0,0.0,0.7585861682891846,-61.135257720947266,-9.120049476623535,1668050999.491615
830082252.0,1.0,44.0,300.0,0.0,-1.1060532331466675,-62.45260238647461,-9.636824607849121,1668051002.401273
833075141.0,1.0,45.0,300.0,0.0,0.1092120036482811,-64.21833038330078,-9.665521621704102,1668051005.394162
834736899.0,1.0,46.0,300.0,0.0,2.077547073364258,-65.59412384033203,-9.698383331298828,1668051007.05592
838727035.0,1.0,47.0,300.0,0.0,0.2715401351451874,-67.09820556640625,-9.642312049865723,1668051011.046056
839724870.0,1.0,48.0,300.0,0.0,-1.7513492107391357,-66.67802429199219,-9.616063117980957,1668051012.043891
840722143.0,1.0,49.0,300.0,0.0,-4.332557678222656,-65.92678833007812,-9.605653762817383,1668051013.041164
841387105.0,1.0,50.0,300.0,0.0,-6.348979473114014,-65.29141235351562,-9.607072830200195,1668051013.706126
841398462.0,1.0,50.0,300.0,2.0,-2.433354616165161,-2.1361794471740723,-3.272815227508545,1668051013.717483
841398471.0,1.0,50.0,300.0,2.0,-2.7974164485931396,-3.913576126098633,-4.2448954582214355,1668051013.717492
841398478.0,1.0,50.0,300.0,2.0,-3.1667025089263916,-8.905444145202637,-5.958189964294434,1668051013.717499
841398485.0,1.0,50.0,300.0,2.0,-3.215064287185669,-10.921061515808105,-6.363104343414307,1668051013.717506
841398492.0,1.0,50.0,300.0,2.0,-3.3345296382904053,-12.900396347045898,-6.794066905975342,1668051013.717513
841398499.0,1.0,50.0,300.0,2.0,-3.3669509887695312,-14.857369422912598,-7.222501277923584,1668051013.71752
841398506.0,1.0,50.0,300.0,2.0,-3.4268693923950195,-17.765840530395508,-7.815543174743652,1668051013.717527
841398513.0,1.0,50.0,300.0,2.0,-3.467625617980957,-20.596948623657227,-8.35782527923584,1668051013.717534
841398603.0,1.0,50.0,300.0,2.0,-3.4715898036956787,-23.26492691040039,-8.853232383728027,1668051013.717624
841398621.0,1.0,50.0,300.0,2.0,-3.482060670852661,-25.778772354125977,-9.34896469116211,1668051013.717642
841398628.0,1.0,50.0,300.0,2.0,-4.836849689483643,-29.748291015625,-9.569704055786133,1668051013.717649
841398656.0,1.0,50.0,300.0,2.0,-6.7008137702941895,-30.908451080322266,-9.529685020446777,1668051013.7176769
841398663.0,1.0,50.0,300.0,2.0,-7.891112804412842,-32.672889709472656,-9.517556190490723,1668051013.717684
841398670.0,1.0,50.0,300.0,2.0,-9.143452644348145,-36.00771713256836,-9.421510696411133,1668051013.717691
841398677.0,1.0,50.0,300.0,2.0,-7.594320774078369,-37.890357971191406,-9.417055130004883,1668051013.717698
841398684.0,1.0,50.0,300.0,2.0,-6.068396091461182,-39.94563293457031,-9.416650772094727,1668051013.717705
841398690.0,1.0,50.0,300.0,2.0,-5.296478271484375,-42.11974334716797,-9.40234088897705,1668051013.717711
841398697.0,1.0,50.0,300.0,2.0,-5.086328029632568,-44.23014831542969,-9.405477523803711,1668051013.717718
841398704.0,1.0,50.0,300.0,2.0,-2.228581428527832,-46.42100524902344,-9.436779022216797,1668051013.717725
841398711.0,1.0,50.0,300.0,2.0,-0.1489734649658203,-46.59306716918945,-9.446667671203613,1668051013.717732
841398718.0,1.0,50.0,300.0,2.0,2.147773027420044,-46.79278564453125,-9.412230491638184,1668051013.717739
841400052.0,1.0,50.0,300.0,2.0,2.3511292934417725,-49.02088165283203,-9.218396186828613,1668051013.719073
841400060.0,1.0,50.0,300.0,2.0,0.15956448018550873,-49.54911804199219,-9.205032348632812,1668051013.719081
841400067.0,1.0,50.0,300.0,2.0,-2.0584163665771484,-50.10329055786133,-9.200311660766602,1668051013.719088
841400074.0,1.0,50.0,300.0,2.0,-3.914759397506714,-53.88517379760742,-9.18899917602539,1668051013.719095
841400081.0,1.0,50.0,300.0,2.0,-3.7696573734283447,-57.99355697631836,-9.143716812133789,1668051013.719102
841400088.0,1.0,50.0,300.0,2.0,-4.8892974853515625,-59.760536193847656,-9.149545669555664,1668051013.719109
841400095.0,1.0,50.0,300.0,2.0,-4.368497371673584,-61.899173736572266,-9.232714653015137,1668051013.719116
841400102.0,1.0,50.0,300.0,2.0,-1.9298263788223267,-58.71095657348633,-9.196426391601562,1668051013.719123
841400153.0,1.0,50.0,300.0,2.0,0.1092120036482811,-64.21833038330078,-9.665521621704102,1668051013.719174
841400224.0,1.0,50.0,300.0,2.0,-1.7513492107391357,-66.67802429199219,-9.616063117980957,1668051013.719245
841400273.0,1.0,50.0,300.0,2.0,-4.332557678222656,-65.92678833007812,-9.605653762817383,1668051013.719294
842052223.0,1.0,19.0,300.0,0.0,-8.552440643310547,-64.61634063720703,-9.578304290771484,1668051014.371244
842716960.0,1.0,20.0,300.0,0.0,-10.950587272644043,-63.96851348876953,-9.573719024658203,1668051015.035981
843382121.0,1.0,21.0,300.0,0.0,-13.316816329956055,-63.39259338378906,-9.586358070373535,1668051015.701142
844379711.0,1.0,22.0,300.0,0.0,-16.093339920043945,-62.824581146240234,-9.602313995361328,1668051016.698732
845376978.0,1.0,23.0,300.0,0.0,-18.107038497924805,-62.059326171875,-9.61579418182373,1668051017.695999
846374763.0,1.0,24.0,300.0,0.0,-19.892494201660156,-60.65135955810547,-9.627238273620605,1668051018.693784
847372249.0,1.0,25.0,300.0,0.0,-21.996702194213867,-58.65333938598633,-9.63537311553955,1668051019.6912699
848037018.0,1.0,26.0,300.0,0.0,-23.654682159423828,-57.49303436279297,-9.64881706237793,1668051020.356039
849366882.0,1.0,27.0,300.0,0.0,-25.677684783935547,-57.133724212646484,-9.674867630004883,1668051021.685903
851694863.0,1.0,28.0,300.0,0.0,-24.3238525390625,-58.68098449707031,-9.768362045288086,1668051024.013884
852692224.0,1.0,29.0,300.0,0.0,-21.67254066467285,-58.43650817871094,-9.835907936096191,1668051025.011245
853356887.0,1.0,30.0,300.0,0.0,-19.31015396118164,-58.09114456176758,-9.860840797424316,1668051025.675908
854022193.0,1.0,31.0,300.0,0.0,-16.516923904418945,-57.67605209350586,-9.856734275817871,1668051026.341214
854686873.0,1.0,32.0,300.0,0.0,-13.333226203918457,-57.31696701049805,-9.872400283813477,1668051027.005894
855352190.0,1.0,33.0,300.0,0.0,-10.054289817810059,-57.31415939331055,-9.89194393157959,1668051027.671211
856016887.0,1.0,34.0,300.0,0.0,-6.805315017700195,-57.676544189453125,-9.843221664428711,1668051028.335908
856682634.0,1.0,35.0,300.0,0.0,-3.8537633419036865,-58.17765808105469,-9.820076942443848,1668051029.001655
857346924.0,1.0,36.0,300.0,0.0,-1.255074143409729,-58.596012115478516,-9.740045547485352,1668051029.665945
858012293.0,1.0,37.0,300.0,0.0,0.9251953959465027,-58.9314079284668,-9.693512916564941,1668051030.331314
859009706.0,1.0,38.0,300.0,0.0,3.152167797088623,-59.4780387878418,-9.62741756439209,1668051031.328727
860339679.0,1.0,39.0,300.0,0.0,5.455591201782227,-60.220428466796875,-9.640461921691895,1668051032.6587
863332373.0,1.0,40.0,300.0,0.0,5.939877986907959,-62.391258239746094,-9.667540550231934,1668051035.651394
865326961.0,1.0,41.0,300.0,0.0,6.083174705505371,-64.42288970947266,-10.416916847229004,1668051037.645982
867322215.0,1.0,42.0,300.0,0.0,6.114083766937256,-66.69898986816406,-10.79412841796875,1668051039.641236
871644781.0,1.0,43.0,300.0,0.0,4.653011322021484,-65.31327819824219,-10.81620979309082,1668051043.963802
874304956.0,1.0,44.0,300.0,0.0,3.3150930404663086,-67.22528839111328,-10.80755615234375,1668051046.623977
875302262.0,1.0,45.0,300.0,0.0,2.672680377960205,-69.63272094726562,-10.849308967590332,1668051047.621283
876299784.0,1.0,46.0,300.0,0.0,1.3904222249984741,-71.83097839355469,-10.876788139343262,1668051048.618805
877962187.0,1.0,47.0,300.0,0.0,0.4144047498703003,-73.7464828491211,-10.806580543518066,1668051050.281208
879292207.0,1.0,48.0,300.0,0.0,1.0391120910644531,-76.52080535888672,-10.87913703918457,1668051051.611228
880289655.0,1.0,49.0,300.0,0.0,0.8791102170944214,-79.08892822265625,-10.872248649597168,1668051052.608676
883282898.0,1.0,50.0,300.0,0.0,-1.1402735710144043,-77.96516418457031,-10.882244110107422,1668051055.601919
884279692.0,1.0,51.0,300.0,0.0,-1.1336342096328735,-74.92516326904297,-10.94918155670166,1668051056.598713
884944722.0,1.0,52.0,300.0,0.0,-0.9868980050086975,-72.88018798828125,-10.9658784866333,1668051057.263743
885609672.0,1.0,53.0,300.0,0.0,-0.9140315651893616,-70.7891845703125,-10.912053108215332,1668051057.928693
886275660.0,1.0,54.0,300.0,0.0,-0.9626133441925049,-68.53752136230469,-10.88797664642334,1668051058.594681
886939617.0,1.0,55.0,300.0,0.0,-1.0751358270645142,-66.17254638671875,-10.90876293182373,1668051059.258638
887604809.0,1.0,56.0,300.0,0.0,-1.2340331077575684,-63.81357955932617,-10.90911865234375,1668051059.92383
888269834.0,1.0,57.0,300.0,0.0,-1.4600253105163574,-61.63376998901367,-10.918243408203125,1668051060.588855
888934769.0,1.0,58.0,300.0,0.0,-1.7530468702316284,-59.61827087402344,-10.902180671691895,1668051061.25379
889932267.0,1.0,59.0,300.0,0.0,-1.478186011314392,-56.78369903564453,-10.956123352050781,1668051062.251288
890929547.0,1.0,60.0,300.0,0.0,-0.5646499395370483,-54.45347213745117,-10.953690528869629,1668051063.248568
892259792.0,1.0,61.0,300.0,0.0,0.5541667938232422,-52.427345275878906,-10.904942512512207,1668051064.578813
894254770.0,1.0,62.0,300.0,0.0,1.178267002105713,-50.4312858581543,-10.869633674621582,1668051066.573791
895584757.0,1.0,63.0,300.0,0.0,1.3216712474822998,-48.383445739746094,-10.849411964416504,1668051067.903778
896582366.0,1.0,64.0,300.0,0.0,1.4472144842147827,-45.741790771484375,-10.856122970581055,1668051068.901387
897246906.0,1.0,65.0,300.0,0.0,1.5377986431121826,-43.42301940917969,-10.879018783569336,1668051069.565927
897913163.0,1.0,66.0,300.0,0.0,1.3891979455947876,-41.127803802490234,-10.873627662658691,1668051070.232184
898909556.0,1.0,67.0,300.0,0.0,0.8412038087844849,-38.328407287597656,-10.83957290649414,1668051071.228577
899906871.0,1.0,68.0,300.0,0.0,0.2922348976135254,-35.869136810302734,-10.82577133178711,1668051072.225892
899920856.0,1.0,68.0,300.0,2.0,-8.552440643310547,-64.61634063720703,-9.578304290771484,1668051072.239877
899920863.0,1.0,68.0,300.0,2.0,-10.950587272644043,-63.96851348876953,-9.573719024658203,1668051072.239884
899920870.0,1.0,68.0,300.0,2.0,-13.316816329956055,-63.39259338378906,-9.586358070373535,1668051072.239891
899920877.0,1.0,68.0,300.0,2.0,-16.093339920043945,-62.824581146240234,-9.602313995361328,1668051072.239898
899920884.0,1.0,68.0,300.0,2.0,-19.892494201660156,-60.65135955810547,-9.627238273620605,1668051072.2399049
899920950.0,1.0,68.0,300.0,2.0,-21.996702194213867,-58.65333938598633,-9.63537311553955,1668051072.239971
899920958.0,1.0,68.0,300.0,2.0,-23.654682159423828,-57.49303436279297,-9.64881706237793,1668051072.239979
899920965.0,1.0,68.0,300.0,2.0,-21.67254066467285,-58.43650817871094,-9.835907936096191,1668051072.239986
899920972.0,1.0,68.0,300.0,2.0,-19.31015396118164,-58.09114456176758,-9.860840797424316,1668051072.239993
899920979.0,1.0,68.0,300.0,2.0,-16.516923904418945,-57.67605209350586,-9.856734275817871,1668051072.24
899920989.0,1.0,68.0,300.0,2.0,-13.333226203918457,-57.31696701049805,-9.872400283813477,1668051072.24001
899920996.0,1.0,68.0,300.0,2.0,-6.805315017700195,-57.676544189453125,-9.843221664428711,1668051072.240017
899921003.0,1.0,68.0,300.0,2.0,-3.8537633419036865,-58.17765808105469,-9.820076942443848,1668051072.240024
899921009.0,1.0,68.0,300.0,2.0,-1.255074143409729,-58.596012115478516,-9.740045547485352,1668051072.24003
899921016.0,1.0,68.0,300.0,2.0,0.9251953959465027,-58.9314079284668,-9.693512916564941,1668051072.240037
899921023.0,1.0,68.0,300.0,2.0,3.152167797088623,-59.4780387878418,-9.62741756439209,1668051072.2400439
899921030.0,1.0,68.0,300.0,2.0,5.939877986907959,-62.391258239746094,-9.667540550231934,1668051072.240051
899921037.0,1.0,68.0,300.0,2.0,6.083174705505371,-64.42288970947266,-10.416916847229004,1668051072.240058
899921044.0,1.0,68.0,300.0,2.0,3.3150930404663086,-67.22528839111328,-10.80755615234375,1668051072.240065
899921087.0,1.0,68.0,300.0,2.0,2.672680377960205,-69.63272094726562,-10.849308967590332,1668051072.240108
899921142.0,1.0,68.0,300.0,2.0,1.3904222249984741,-71.83097839355469,-10.876788139343262,1668051072.240163
899921175.0,1.0,68.0,300.0,2.0,1.0391120910644531,-76.52080535888672,-10.87913703918457,1668051072.240196
899921182.0,1.0,68.0,300.0,2.0,-1.1336342096328735,-74.92516326904297,-10.94918155670166,1668051072.240203
899921189.0,1.0,68.0,300.0,2.0,-0.9868980050086975,-72.88018798828125,-10.9658784866333,1668051072.24021
899921196.0,1.0,68.0,300.0,2.0,-0.9140315651893616,-70.7891845703125,-10.912053108215332,1668051072.240217
899921203.0,1.0,68.0,300.0,2.0,-0.9626133441925049,-68.53752136230469,-10.88797664642334,1668051072.240224
899921210.0,1.0,68.0,300.0,2.0,-1.0751358270645142,-66.17254638671875,-10.90876293182373,1668051072.240231
899921217.0,1.0,68.0,300.0,2.0,-1.2340331077575684,-63.81357955932617,-10.90911865234375,1668051072.240238
899922835.0,1.0,68.0,300.0,2.0,-1.4600253105163574,-61.63376998901367,-10.918243408203125,1668051072.241856
899922843.0,1.0,68.0,300.0,2.0,-1.478186011314392,-56.78369903564453,-10.956123352050781,1668051072.241864
899922850.0,1.0,68.0,300.0,2.0,-0.5646499395370483,-54.45347213745117,-10.953690528869629,1668051072.2418709
899922915.0,1.0,68.0,300.0,2.0,0.5541667938232422,-52.427345275878906,-10.904942512512207,1668051072.241936
899922923.0,1.0,68.0,300.0,2.0,1.3216712474822998,-48.383445739746094,-10.849411964416504,1668051072.241944
899922930.0,1.0,68.0,300.0,2.0,1.4472144842147827,-45.741790771484375,-10.856122970581055,1668051072.241951
899922937.0,1.0,68.0,300.0,2.0,1.5377986431121826,-43.42301940917969,-10.879018783569336,1668051072.241958
899922943.0,1.0,68.0,300.0,2.0,1.3891979455947876,-41.127803802490234,-10.873627662658691,1668051072.241964
899922950.0,1.0,68.0,300.0,2.0,0.8412038087844849,-38.328407287597656,-10.83957290649414,1668051072.241971
900904728.0,1.0,32.0,300.0,0.0,-0.509746253490448,-33.65780258178711,-10.843759536743164,1668051073.223749
901902264.0,1.0,33.0,300.0,0.0,-0.8556369543075562,-31.642803192138672,-10.863868713378906,1668051074.221285
903232273.0,1.0,34.0,300.0,0.0,-0.8944287896156311,-29.327184677124023,-10.93038272857666,1668051075.551294
904895336.0,1.0,35.0,300.0,0.0,-0.6786014437675476,-26.966442108154297,-10.93542766571045,1668051077.214357
906889663.0,1.0,36.0,300.0,0.0,-1.57105553150177,-25.149879455566406,-10.878072738647461,1668051079.208684
909216970.0,1.0,37.0,300.0,0.0,-1.6083505153656006,-22.94459342956543,-10.890499114990234,1668051081.535991
910879637.0,1.0,38.0,300.0,0.0,-1.9097974300384521,-20.88987159729004,-10.919596672058105,1668051083.198658
912542251.0,1.0,39.0,300.0,0.0,-1.9345602989196777,-18.792266845703125,-10.617362976074219,1668051084.861272
914536940.0,1.0,40.0,300.0,0.0,-2.4857919216156006,-16.52007484436035,-10.597611427307129,1668051086.855961
916199735.0,1.0,41.0,300.0,0.0,-2.415921449661255,-14.65346908569336,-9.793074607849121,1668051088.518756
917862352.0,1.0,42.0,300.0,0.0,-2.7855303287506104,-12.703890800476074,-9.192919731140137,1668051090.181373
919524779.0,1.0,43.0,300.0,0.0,-2.983318328857422,-10.649008750915527,-8.381871223449707,1668051091.8438
921520042.0,1.0,44.0,300.0,0.0,-2.875164747238159,-8.527222633361816,-7.5818281173706055,1668051093.839063
924179866.0,1.0,45.0,300.0,0.0,-2.2862956523895264,-6.7046356201171875,-6.576578617095947,1668051096.498887
926506996.0,1.0,46.0,300.0,0.0,-1.9100923538208008,-4.690004348754883,-5.839719295501709,1668051098.826017
928502202.0,1.0,47.0,300.0,0.0,-1.7572400569915771,-2.7767515182495117,-4.985300064086914,1668051100.821223
931826916.0,1.0,48.0,300.0,0.0,-1.7185728549957275,-1.170745849609375,-3.7245707511901855,1668051104.145937
939142119.0,1.0,49.0,300.0,0.0,-1.128129005432129,-0.13138622045516968,-2.105351209640503,1668051111.46114
969332014.0,1.0,1.0,300.0,0.0,-0.5232170224189758,0.6116529107093811,-0.043449971824884415,1668051141.651035
969332031.0,1.0,1.0,300.0,0.0,-0.5232170224189758,0.6116529107093811,-0.043449971824884415,1668051141.651052
980051458.0,1.0,2.0,300.0,0.0,-0.2666105329990387,-0.07371002435684204,-2.1533000469207764,1668051152.3704789
981381624.0,1.0,3.0,300.0,0.0,-0.13908344507217407,-2.309582233428955,-3.2898764610290527,1668051153.700645
982378884.0,1.0,4.0,300.0,0.0,-0.42917776107788086,-4.918186664581299,-4.073523998260498,1668051154.697905
983044141.0,1.0,5.0,300.0,0.0,-0.7502627968788147,-7.030301570892334,-4.580994129180908,1668051155.363162
983708918.0,1.0,6.0,300.0,0.0,-0.954058051109314,-9.220587730407715,-5.082136631011963,1668051156.027939
984374352.0,1.0,7.0,300.0,0.0,-0.9424461126327515,-11.286774635314941,-5.6212263107299805,1668051156.693373
985038992.0,1.0,8.0,300.0,0.0,-0.553105354309082,-13.354145050048828,-6.204560279846191,1668051157.358013
985704169.0,1.0,9.0,300.0,0.0,0.1585724800825119,-15.232312202453613,-6.629696846008301,1668051158.02319
986701519.0,1.0,10.0,300.0,0.0,1.413334846496582,-17.650110244750977,-7.117679119110107,1668051159.02054
987698860.0,1.0,11.0,300.0,0.0,2.615877866744995,-19.734251022338867,-7.191797256469727,1668051160.017881
989361296.0,1.0,12.0,300.0,0.0,4.1139349937438965,-21.417604446411133,-7.093757629394531,1668051161.680317
1005572237.0,1.0,13.0,300.0,0.0,4.625604629516602,-23.692752838134766,-6.9534077644348145,1668051177.891258
1006568859.0,1.0,14.0,300.0,0.0,4.711446285247803,-26.545085906982422,-7.002060890197754,1668051178.88788
1007234093.0,1.0,15.0,300.0,0.0,4.725350856781006,-29.115114212036133,-7.014415740966797,1668051179.553114
1007898844.0,1.0,16.0,300.0,0.0,4.695387363433838,-32.18215560913086,-7.023796558380127,1668051180.217865
1008565051.0,1.0,17.0,300.0,0.0,4.660618782043457,-35.56431198120117,-7.025473117828369,1668051180.884072
1009228886.0,1.0,18.0,300.0,0.0,4.636553764343262,-38.503814697265625,-7.037703990936279,1668051181.5479069
1010226667.0,1.0,19.0,300.0,0.0,4.2031145095825195,-40.584651947021484,-6.898660659790039,1668051182.545688
1015546684.0,1.0,20.0,300.0,0.0,4.627502918243408,-37.75968933105469,-6.981091022491455,1668051187.865705
1016211500.0,1.0,21.0,300.0,0.0,4.573826313018799,-35.484619140625,-7.000147342681885,1668051188.530521
1016876682.0,1.0,22.0,300.0,0.0,4.491339683532715,-32.84581756591797,-6.990412712097168,1668051189.195703
1017541393.0,1.0,23.0,300.0,0.0,4.381702423095703,-29.91202163696289,-6.963937282562256,1668051189.860414
1018206651.0,1.0,24.0,300.0,0.0,4.302014350891113,-27.096790313720703,-6.952617168426514,1668051190.525672
1019204233.0,1.0,25.0,300.0,0.0,4.225876808166504,-24.835512161254883,-6.931176662445068,1668051191.523254
1026518805.0,1.0,26.0,300.0,0.0,4.572906970977783,-26.9780216217041,-6.908161163330078,1668051198.837826
1027848894.0,1.0,27.0,300.0,0.0,7.14865779876709,-27.465078353881836,-6.988369941711426,1668051200.1679149
1028514007.0,1.0,28.0,300.0,0.0,9.213294982910156,-27.643295288085938,-7.016018390655518,1668051200.833028
1029178820.0,1.0,29.0,300.0,0.0,11.720293045043945,-27.815677642822266,-7.043889999389648,1668051201.497841
1029844193.0,1.0,30.0,300.0,0.0,14.188069343566895,-27.98554229736328,-7.143345355987549,1668051202.163214
1036161347.0,1.0,31.0,300.0,0.0,12.251648902893066,-28.31201171875,-7.804495811462402,1668051208.480368
1056444005.0,1.0,32.0,300.0,0.0,11.928028106689453,-28.50912857055664,-5.77663516998291,1668051228.763026
1062428877.0,1.0,33.0,300.0,0.0,9.924854278564453,-29.141956329345703,-5.31212854385376,1668051234.747898
1063426581.0,1.0,34.0,300.0,0.0,7.9520182609558105,-29.762348175048828,-5.26568078994751,1668051235.745602
1067748915.0,1.0,35.0,300.0,0.0,10.533464431762695,-28.935367584228516,-5.444952011108398,1668051240.067936
1068414156.0,1.0,36.0,300.0,0.0,12.634483337402344,-28.24773597717285,-5.459479808807373,1668051240.733177
1069411364.0,1.0,37.0,300.0,0.0,14.830625534057617,-27.545021057128906,-5.41947603225708,1668051241.730385
1074067542.0,1.0,38.0,300.0,0.0,17.083187103271484,-26.893178939819336,-5.2765655517578125,1668051246.386563
1083044093.0,1.0,39.0,300.0,0.0,15.022157669067383,-26.31401252746582,-5.197559833526611,1668051255.3631139
1091688920.0,1.0,40.0,300.0,0.0,17.411052703857422,-26.91666603088379,-5.295468330383301,1668051264.007941
1092687191.0,1.0,41.0,300.0,0.0,19.57035255432129,-26.45063591003418,-5.348607540130615,1668051265.006212
1108646591.0,1.0,42.0,300.0,0.0,22.045461654663086,-25.478500366210938,-5.25108003616333,1668051280.965612
1109311313.0,1.0,43.0,300.0,0.0,24.071252822875977,-24.6092586517334,-5.268872261047363,1668051281.630334
1109976757.0,1.0,44.0,300.0,0.0,26.093107223510742,-23.790664672851562,-5.308901786804199,1668051282.295778
1112636606.0,1.0,45.0,300.0,0.0,28.037033081054688,-23.253002166748047,-5.167286396026611,1668051284.955627
1116294012.0,1.0,46.0,300.0,0.0,26.071945190429688,-23.935028076171875,-5.057030200958252,1668051288.613033
1116958902.0,1.0,46.0,300.0,3.0,24.766674041748047,-24.470352172851562,-5.045013904571533,1668051289.2779229
1117291358.0,1.0,47.0,300.0,0.0,24.040346145629883,-24.76903533935547,-5.054707050323486,1668051289.610379
1118288848.0,1.0,48.0,300.0,0.0,21.704090118408203,-25.74482536315918,-5.041821479797363,1668051290.607869
1119287059.0,1.0,49.0,300.0,0.0,18.93247413635254,-26.845539093017578,-5.043222904205322,1668051291.60608
1119619108.0,1.0,49.0,300.0,3.0,17.79622459411621,-27.288938522338867,-5.038509368896484,1668051291.938129
1119951472.0,1.0,50.0,300.0,0.0,16.57036590576172,-27.771371841430664,-5.029806613922119,1668051292.270493
1119972519.0,1.0,50.0,300.0,2.0,-0.2666105329990387,-0.07371002435684204,-2.1533000469207764,1668051292.29154
1119972528.0,1.0,50.0,300.0,2.0,-0.42917776107788086,-4.918186664581299,-4.073523998260498,1668051292.291549
1119972535.0,1.0,50.0,300.0,2.0,-0.7502627968788147,-7.030301570892334,-4.580994129180908,1668051292.291556
1119972546.0,1.0,50.0,300.0,2.0,-0.954058051109314,-9.220587730407715,-5.082136631011963,1668051292.291567
1119972552.0,1.0,50.0,300.0,2.0,-0.9424461126327515,-11.286774635314941,-5.6212263107299805,1668051292.291573
1119972559.0,1.0,50.0,300.0,2.0,0.1585724800825119,-15.232312202453613,-6.629696846008301,1668051292.29158
1119972566.0,1.0,50.0,300.0,2.0,1.413334846496582,-17.650110244750977,-7.117679119110107,1668051292.2915869
1119972621.0,1.0,50.0,300.0,2.0,2.615877866744995,-19.734251022338867,-7.191797256469727,1668051292.291642
1119972631.0,1.0,50.0,300.0,2.0,4.1139349937438965,-21.417604446411133,-7.093757629394531,1668051292.291652
1119972638.0,1.0,50.0,300.0,2.0,4.711446285247803,-26.545085906982422,-7.002060890197754,1668051292.2916589
1119972645.0,1.0,50.0,300.0,2.0,4.725350856781006,-29.115114212036133,-7.014415740966797,1668051292.291666
1119972652.0,1.0,50.0,300.0,2.0,4.695387363433838,-32.18215560913086,-7.023796558380127,1668051292.291673
1119972659.0,1.0,50.0,300.0,2.0,4.660618782043457,-35.56431198120117,-7.025473117828369,1668051292.29168
1119972666.0,1.0,50.0,300.0,2.0,4.636553764343262,-38.503814697265625,-7.037703990936279,1668051292.291687
1119972673.0,1.0,50.0,300.0,2.0,4.627502918243408,-37.75968933105469,-6.981091022491455,1668051292.291694
1119972680.0,1.0,50.0,300.0,2.0,4.573826313018799,-35.484619140625,-7.000147342681885,1668051292.291701
1119972687.0,1.0,50.0,300.0,2.0,4.491339683532715,-32.84581756591797,-6.990412712097168,1668051292.291708
1119972693.0,1.0,50.0,300.0,2.0,4.381702423095703,-29.91202163696289,-6.963937282562256,1668051292.291714
1119972700.0,1.0,50.0,300.0,2.0,4.302014350891113,-27.096790313720703,-6.952617168426514,1668051292.291721
1119972707.0,1.0,50.0,300.0,2.0,7.14865779876709,-27.465078353881836,-6.988369941711426,1668051292.291728
1119972717.0,1.0,50.0,300.0,2.0,9.213294982910156,-27.643295288085938,-7.016018390655518,1668051292.291738
1119972724.0,1.0,50.0,300.0,2.0,11.720293045043945,-27.815677642822266,-7.043889999389648,1668051292.291745
1119972731.0,1.0,50.0,300.0,2.0,9.924854278564453,-29.141956329345703,-5.31212854385376,1668051292.291752
1119972792.0,1.0,50.0,300.0,2.0,10.533464431762695,-28.935367584228516,-5.444952011108398,1668051292.291813
1119972801.0,1.0,50.0,300.0,2.0,12.634483337402344,-28.24773597717285,-5.459479808807373,1668051292.291822
1119972808.0,1.0,50.0,300.0,2.0,14.830625534057617,-27.545021057128906,-5.41947603225708,1668051292.2918289
1119972815.0,1.0,50.0,300.0,2.0,17.411052703857422,-26.91666603088379,-5.295468330383301,1668051292.291836
1119972822.0,1.0,50.0,300.0,2.0,22.045461654663086,-25.478500366210938,-5.25108003616333,1668051292.291843
1119972829.0,1.0,50.0,300.0,2.0,24.071252822875977,-24.6092586517334,-5.268872261047363,1668051292.29185
1119972836.0,1.0,50.0,300.0,2.0,26.093107223510742,-23.790664672851562,-5.308901786804199,1668051292.291857
1119972843.0,1.0,50.0,300.0,2.0,26.071945190429688,-23.935028076171875,-5.057030200958252,1668051292.291864
1119972850.0,1.0,50.0,300.0,2.0,24.040346145629883,-24.76903533935547,-5.054707050323486,1668051292.291871
1119972857.0,1.0,50.0,300.0,2.0,21.704090118408203,-25.74482536315918,-5.041821479797363,1668051292.291878
1119972864.0,1.0,50.0,300.0,2.0,18.93247413635254,-26.845539093017578,-5.043222904205322,1668051292.291885
1120616590.0,1.0,17.0,300.0,0.0,14.253419876098633,-28.697723388671875,-5.044821739196777,1668051292.935611
1121946612.0,1.0,18.0,300.0,0.0,12.354722023010254,-29.426177978515625,-5.700262069702148,1668051294.2656329
1131921475.0,1.0,19.0,300.0,0.0,10.732233047485352,-28.234663009643555,-6.005095481872559,1668051304.240496
1133916609.0,1.0,20.0,300.0,0.0,8.755327224731445,-27.875703811645508,-5.886054992675781,1668051306.23563
1135578845.0,1.0,21.0,300.0,0.0,7.141670227050781,-26.708465576171875,-5.496734619140625,1668051307.897866
1137241403.0,1.0,22.0,300.0,0.0,6.008306503295898,-24.513469696044922,-5.205948829650879,1668051309.560424
1138903997.0,1.0,23.0,300.0,0.0,5.100229740142822,-22.260169982910156,-5.236473083496094,1668051311.223018
1140567759.0,1.0,24.0,300.0,0.0,3.909855365753174,-20.324420928955078,-5.187694549560547,1668051312.88678
1142228857.0,1.0,25.0,300.0,0.0,2.7542905807495117,-18.56890106201172,-5.1589741706848145,1668051314.547878
1145554190.0,1.0,26.0,300.0,0.0,1.6083083152770996,-16.857397079467773,-5.117934703826904,1668051317.873211
1146218847.0,1.0,26.0,300.0,3.0,1.0877271890640259,-16.198280334472656,-5.087062835693359,1668051318.537868
1147216652.0,1.0,27.0,300.0,0.0,0.2616150379180908,-15.069302558898926,-5.1017985343933105,1668051319.535673
1150208849.0,1.0,28.0,300.0,0.0,-0.5844659805297852,-13.204249382019043,-5.081227779388428,1668051322.52787
1151872159.0,1.0,29.0,300.0,0.0,-1.1944317817687988,-11.032781600952148,-4.8909406661987305,1668051324.19118
1153534053.0,1.0,30.0,300.0,0.0,-1.700934648513794,-8.780354499816895,-4.943959712982178,1668051325.853074
1153867594.0,1.0,30.0,300.0,3.0,-1.7092326879501343,-8.385265350341797,-4.952216625213623,1668051326.186615
1155529013.0,1.0,31.0,300.0,0.0,-1.6614553928375244,-6.507800102233887,-4.866888999938965,1668051327.848034
1157774050.0,1.0,32.0,300.0,0.0,-1.3628965616226196,-4.323655605316162,-4.506330966949463,1668051330.093071
1160101471.0,1.0,33.0,300.0,0.0,-1.4637610912322998,-2.1200170516967773,-4.0923380851745605,1668051332.420492
1165088774.0,1.0,34.0,300.0,0.0,-1.2682135105133057,-0.5628140568733215,-2.7386701107025146,1668051337.407795
1171738864.0,1.0,34.0,300.0,3.0,-1.3507511615753174,0.3284868896007538,-1.4377374649047852,1668051344.057885
