TimeUS,Instance,noisePerMS,jamInd,aPower,agcCnt,config,timestamp
221298446.0,0.0,95.0,14.0,1.0,858.0,0.0,1668050393.617467
241295955.0,0.0,95.0,14.0,1.0,858.0,0.0,1668050413.614976
261311643.0,0.0,95.0,13.0,1.0,858.0,0.0,1668050433.6306639
266311759.0,0.0,95.0,13.0,1.0,858.0,0.0,1668050438.63078
271311763.0,0.0,94.0,14.0,1.0,858.0,0.0,1668050443.630784
276311716.0,0.0,94.0,13.0,1.0,858.0,0.0,1668050448.630737
281311761.0,0.0,94.0,14.0,1.0,858.0,0.0,1668050453.630782
286311812.0,0.0,94.0,14.0,1.0,858.0,0.0,1668050458.630833
291303540.0,0.0,94.0,13.0,1.0,858.0,0.0,1668050463.622561
296303637.0,0.0,94.0,14.0,1.0,858.0,0.0,1668050468.622658
301303486.0,0.0,94.0,15.0,1.0,858.0,0.0,1668050473.622507
306303622.0,0.0,94.0,14.0,1.0,858.0,0.0,1668050478.622643
311303606.0,0.0,94.0,14.0,1.0,858.0,0.0,1668050483.622627
316303583.0,0.0,94.0,14.0,1.0,858.0,0.0,1668050488.622604
321303521.0,0.0,94.0,14.0,1.0,858.0,0.0,1668050493.622542
326303630.0,0.0,94.0,14.0,1.0,858.0,0.0,1668050498.622651
331303729.0,0.0,94.0,14.0,1.0,858.0,0.0,1668050503.62275
336303458.0,0.0,94.0,14.0,1.0,858.0,0.0,1668050508.622479
341303496.0,0.0,94.0,15.0,1.0,858.0,0.0,1668050513.6225169
346303674.0,0.0,93.0,14.0,1.0,858.0,0.0,1668050518.622695
351303522.0,0.0,93.0,14.0,1.0,858.0,0.0,1668050523.622543
356303628.0,0.0,93.0,15.0,1.0,858.0,0.0,1668050528.622649
361303445.0,0.0,93.0,16.0,1.0,858.0,0.0,1668050533.622466
366303469.0,0.0,93.0,14.0,1.0,858.0,0.0,1668050538.62249
371303553.0,0.0,112.0,5.0,1.0,858.0,0.0,1668050543.622574
376303629.0,0.0,104.0,6.0,1.0,1014.0,0.0,1668050548.62265
381303555.0,0.0,86.0,16.0,1.0,936.0,0.0,1668050553.622576
386303597.0,0.0,86.0,16.0,1.0,936.0,0.0,1668050558.622618
391303565.0,0.0,92.0,18.0,1.0,936.0,0.0,1668050563.622586
396303665.0,0.0,92.0,16.0,1.0,936.0,0.0,1668050568.622686
401303707.0,0.0,92.0,16.0,1.0,936.0,0.0,1668050573.6227279
406303558.0,0.0,99.0,14.0,1.0,936.0,0.0,1668050578.622579
411303670.0,0.0,99.0,14.0,1.0,936.0,0.0,1668050583.622691
416303685.0,0.0,99.0,14.0,1.0,936.0,0.0,1668050588.622706
421303667.0,0.0,99.0,15.0,1.0,936.0,0.0,1668050593.622688
426303601.0,0.0,99.0,15.0,1.0,936.0,0.0,1668050598.622622
431303606.0,0.0,99.0,15.0,1.0,936.0,0.0,1668050603.622627
436303871.0,0.0,99.0,17.0,1.0,936.0,0.0,1668050608.622892
441303579.0,0.0,99.0,16.0,1.0,936.0,0.0,1668050613.6226
446303601.0,0.0,99.0,16.0,1.0,936.0,0.0,1668050618.622622
451303618.0,0.0,99.0,16.0,1.0,936.0,0.0,1668050623.622639
456303616.0,0.0,99.0,17.0,1.0,936.0,0.0,1668050628.622637
461303668.0,0.0,99.0,16.0,1.0,936.0,0.0,1668050633.622689
466303692.0,0.0,99.0,16.0,1.0,936.0,0.0,1668050638.622713
471303617.0,0.0,99.0,17.0,1.0,936.0,0.0,1668050643.622638
476303604.0,0.0,99.0,16.0,1.0,936.0,0.0,1668050648.6226249
481303751.0,0.0,99.0,17.0,1.0,936.0,0.0,1668050653.622772
486303633.0,0.0,99.0,17.0,1.0,936.0,0.0,1668050658.622654
491303653.0,0.0,99.0,16.0,1.0,936.0,0.0,1668050663.622674
496303580.0,0.0,99.0,15.0,1.0,936.0,0.0,1668050668.622601
501303598.0,0.0,99.0,16.0,1.0,936.0,0.0,1668050673.622619
506303676.0,0.0,99.0,16.0,1.0,936.0,0.0,1668050678.6226969
511303711.0,0.0,99.0,15.0,1.0,936.0,0.0,1668050683.622732
516303587.0,0.0,99.0,16.0,1.0,936.0,0.0,1668050688.622608
521303550.0,0.0,99.0,15.0,1.0,936.0,0.0,1668050693.622571
526299645.0,0.0,99.0,16.0,1.0,936.0,0.0,1668050698.618666
531299696.0,0.0,99.0,16.0,1.0,936.0,0.0,1668050703.618717
536299764.0,0.0,99.0,16.0,1.0,936.0,0.0,1668050708.618785
741299666.0,0.0,97.0,16.0,1.0,936.0,0.0,1668050913.618687
746299636.0,0.0,97.0,16.0,1.0,936.0,0.0,1668050918.6186569
751299813.0,0.0,97.0,15.0,1.0,936.0,0.0,1668050923.618834
756299697.0,0.0,97.0,15.0,1.0,936.0,0.0,1668050928.618718
761299687.0,0.0,97.0,15.0,1.0,936.0,0.0,1668050933.618708
766299561.0,0.0,97.0,15.0,1.0,936.0,0.0,1668050938.618582
771299811.0,0.0,97.0,15.0,1.0,936.0,0.0,1668050943.6188319
776299709.0,0.0,97.0,16.0,1.0,936.0,0.0,1668050948.61873
781299677.0,0.0,97.0,16.0,1.0,936.0,0.0,1668050953.618698
786299659.0,0.0,97.0,15.0,1.0,936.0,0.0,1668050958.61868
791299656.0,0.0,96.0,15.0,1.0,936.0,0.0,1668050963.618677
796299721.0,0.0,97.0,15.0,1.0,936.0,0.0,1668050968.618742
801299687.0,0.0,97.0,16.0,1.0,936.0,0.0,1668050973.618708
806299735.0,0.0,96.0,16.0,1.0,936.0,0.0,1668050978.618756
811299566.0,0.0,96.0,16.0,1.0,936.0,0.0,1668050983.618587
816299637.0,0.0,96.0,16.0,1.0,936.0,0.0,1668050988.618658
821299670.0,0.0,96.0,15.0,1.0,936.0,0.0,1668050993.618691
826299687.0,0.0,96.0,15.0,1.0,936.0,0.0,1668050998.618708
831299735.0,0.0,96.0,16.0,1.0,936.0,0.0,1668051003.618756
836299525.0,0.0,96.0,15.0,1.0,936.0,0.0,1668051008.618546
841299728.0,0.0,118.0,6.0,1.0,936.0,0.0,1668051013.618749
846299713.0,0.0,118.0,8.0,1.0,936.0,0.0,1668051018.618734
851299715.0,0.0,97.0,15.0,1.0,936.0,0.0,1668051023.618736
856299673.0,0.0,97.0,16.0,1.0,936.0,0.0,1668051028.618694
861299697.0,0.0,97.0,16.0,1.0,936.0,0.0,1668051033.618718
866299667.0,0.0,97.0,15.0,1.0,936.0,0.0,1668051038.6186879
871299651.0,0.0,97.0,15.0,1.0,936.0,0.0,1668051043.618672
876299644.0,0.0,111.0,8.0,1.0,936.0,0.0,1668051048.618665
881299679.0,0.0,110.0,10.0,1.0,936.0,0.0,1668051053.6187
886299686.0,0.0,85.0,4.0,1.0,936.0,0.0,1668051058.618707
891299673.0,0.0,85.0,15.0,1.0,936.0,0.0,1668051063.618694
896299710.0,0.0,91.0,15.0,1.0,936.0,0.0,1668051068.618731
901299567.0,0.0,91.0,15.0,1.0,936.0,0.0,1668051073.618588
906299738.0,0.0,91.0,17.0,1.0,936.0,0.0,1668051078.618759
911299654.0,0.0,92.0,15.0,1.0,936.0,0.0,1668051083.618675
916299671.0,0.0,92.0,15.0,1.0,936.0,0.0,1668051088.618692
921299585.0,0.0,92.0,15.0,1.0,936.0,0.0,1668051093.618606
926299570.0,0.0,92.0,16.0,1.0,936.0,0.0,1668051098.618591
931299654.0,0.0,92.0,15.0,1.0,936.0,0.0,1668051103.618675
936299700.0,0.0,93.0,15.0,1.0,936.0,0.0,1668051108.618721
941299513.0,0.0,93.0,15.0,1.0,936.0,0.0,1668051113.618534
946299466.0,0.0,93.0,15.0,1.0,936.0,0.0,1668051118.618487
951291340.0,0.0,93.0,15.0,1.0,936.0,0.0,1668051123.610361
956291345.0,0.0,93.0,15.0,1.0,936.0,0.0,1668051128.6103659
961291370.0,0.0,93.0,14.0,1.0,1248.0,0.0,1668051133.610391
971291364.0,0.0,100.0,16.0,1.0,1248.0,0.0,1668051143.610385
976291434.0,0.0,100.0,17.0,1.0,1248.0,0.0,1668051148.610455
981291493.0,0.0,101.0,15.0,1.0,1248.0,0.0,1668051153.610514
986291495.0,0.0,101.0,16.0,1.0,1248.0,0.0,1668051158.610516
991291513.0,0.0,101.0,15.0,1.0,1248.0,0.0,1668051163.610534
996291468.0,0.0,101.0,16.0,1.0,1248.0,0.0,1668051168.610489
1001291578.0,0.0,101.0,15.0,1.0,1248.0,0.0,1668051173.610599
1006291497.0,0.0,101.0,15.0,1.0,1248.0,0.0,1668051178.610518
1011291559.0,0.0,101.0,15.0,1.0,1248.0,0.0,1668051183.61058
1016291443.0,0.0,101.0,16.0,1.0,1248.0,0.0,1668051188.610464
1021291466.0,0.0,101.0,15.0,1.0,1248.0,0.0,1668051193.610487
1026291673.0,0.0,101.0,15.0,1.0,1248.0,0.0,1668051198.610694
1031291708.0,0.0,101.0,14.0,1.0,1248.0,0.0,1668051203.610729
1036291591.0,0.0,101.0,16.0,1.0,1248.0,0.0,1668051208.610612
1041291480.0,0.0,101.0,14.0,1.0,1248.0,0.0,1668051213.610501
1046291718.0,0.0,101.0,14.0,1.0,1248.0,0.0,1668051218.610739
1051291566.0,0.0,101.0,15.0,1.0,1248.0,0.0,1668051223.610587
1056291558.0,0.0,101.0,14.0,1.0,1248.0,0.0,1668051228.610579
1061291418.0,0.0,101.0,15.0,1.0,1248.0,0.0,1668051233.610439
1066291392.0,0.0,101.0,14.0,1.0,1248.0,0.0,1668051238.610413
1071291449.0,0.0,101.0,15.0,1.0,1248.0,0.0,1668051243.61047
1076291533.0,0.0,101.0,15.0,1.0,1248.0,0.0,1668051248.610554
1081291425.0,0.0,101.0,15.0,1.0,1248.0,0.0,1668051253.610446
1086291583.0,0.0,101.0,15.0,1.0,1248.0,0.0,1668051258.610604
1091291494.0,0.0,101.0,16.0,1.0,1248.0,0.0,1668051263.6105149
1096291636.0,0.0,101.0,15.0,1.0,1248.0,0.0,1668051268.610657
1101291505.0,0.0,101.0,15.0,1.0,1248.0,0.0,1668051273.610526
1106291395.0,0.0,101.0,15.0,1.0,1248.0,0.0,1668051278.610416
1111291424.0,0.0,101.0,15.0,1.0,1248.0,0.0,1668051283.610445
1116291569.0,0.0,101.0,15.0,1.0,1248.0,0.0,1668051288.61059
1121291430.0,0.0,101.0,15.0,1.0,1248.0,0.0,1668051293.610451
1126291515.0,0.0,101.0,14.0,1.0,1248.0,0.0,1668051298.610536
1131291390.0,0.0,101.0,15.0,1.0,1248.0,0.0,1668051303.610411
1136291546.0,0.0,101.0,14.0,1.0,1248.0,0.0,1668051308.610567
1141291458.0,0.0,101.0,15.0,1.0,1248.0,0.0,1668051313.6104789
1146291451.0,0.0,101.0,15.0,1.0,1248.0,0.0,1668051318.610472
1151291606.0,0.0,101.0,14.0,1.0,1248.0,0.0,1668051323.610627
1156291492.0,0.0,101.0,14.0,1.0,1248.0,0.0,1668051328.610513
1161291469.0,0.0,101.0,14.0,1.0,1248.0,0.0,1668051333.61049
1166291573.0,0.0,101.0,15.0,1.0,1248.0,0.0,1668051338.610594
1171291598.0,0.0,101.0,13.0,1.0,1248.0,0.0,1668051343.610619
1176286378.0,0.0,101.0,13.0,1.0,1248.0,0.0,1668051348.605399
1181286353.0,0.0,101.0,13.0,1.0,1248.0,0.0,1668051353.605374
1186286247.0,0.0,101.0,14.0,1.0,1248.0,0.0,1668051358.605268
