TimeUS,VibeX,VibeY,VibeZ,Clip0,Clip1,Clip2,timestamp
221061991.0,0.37680190801620483,0.29621657729148865,0.5177186131477356,0.0,0.0,0.0,1668050393.381012
221161578.0,0.45096471905708313,0.23226743936538696,0.46888208389282227,0.0,0.0,0.0,1668050393.480599
221261641.0,0.48400670289993286,0.22161298990249634,0.3433440029621124,0.0,0.0,0.0,1668050393.580662
221361405.0,0.3125757575035095,0.20318204164505005,0.25719648599624634,0.0,0.0,0.0,1668050393.680426
221461398.0,0.2231191098690033,0.20856688916683197,0.21435439586639404,0.0,0.0,0.0,1668050393.7804189
221561459.0,0.14270669221878052,0.1908857375383377,0.14913293719291687,0.0,0.0,0.0,1668050393.88048
221661394.0,0.12884441018104553,0.1347532421350479,0.13844458758831024,0.0,0.0,0.0,1668050393.9804149
221761427.0,0.19302168488502502,0.10899429768323898,0.16150084137916565,0.0,0.0,0.0,1668050394.080448
221861346.0,0.20294199883937836,0.12117093056440353,0.16697271168231964,0.0,0.0,0.0,1668050394.180367
221961745.0,0.19642089307308197,0.177664652466774,0.168043315410614,0.0,0.0,0.0,1668050394.280766
222061466.0,0.1910959631204605,0.17930707335472107,0.15845495462417603,0.0,0.0,0.0,1668050394.380487
222161446.0,0.1418188214302063,0.12756000459194183,0.10821215063333511,0.0,0.0,0.0,1668050394.480467
222261403.0,0.08912672102451324,0.08653045445680618,0.08019041270017624,0.0,0.0,0.0,1668050394.580424
222361577.0,0.09085424989461899,0.08480792492628098,0.08011870086193085,0.0,0.0,0.0,1668050394.680598
222461495.0,0.0937667191028595,0.11791311949491501,0.08666976541280746,0.0,0.0,0.0,1668050394.780516
222561460.0,0.0674225389957428,0.0943179652094841,0.0639011338353157,0.0,0.0,0.0,1668050394.880481
222661573.0,0.044630784541368484,0.07283200323581696,0.0439847968518734,0.0,0.0,0.0,1668050394.980594
222761403.0,0.030709553509950638,0.04977598786354065,0.03846470266580582,0.0,0.0,0.0,1668050395.080424
222861567.0,0.02500711753964424,0.04348571598529816,0.03103507123887539,0.0,0.0,0.0,1668050395.180588
222961527.0,0.023580115288496017,0.03587851673364639,0.02558114565908909,0.0,0.0,0.0,1668050395.280548
223061807.0,0.027126628905534744,0.036849960684776306,0.031101537868380547,0.0,0.0,0.0,1668050395.380828
223161786.0,0.02927691861987114,0.04092450812458992,0.023738959804177284,0.0,0.0,0.0,1668050395.480807
223261594.0,0.029054850339889526,0.04076535627245903,0.02512524649500847,0.0,0.0,0.0,1668050395.580615
223361701.0,0.02695482037961483,0.03754023090004921,0.027204228565096855,0.0,0.0,0.0,1668050395.680722
223461451.0,0.023772846907377243,0.039419714361429214,0.023569881916046143,0.0,0.0,0.0,1668050395.780472
223561446.0,0.024553468450903893,0.043328236788511276,0.023755298927426338,0.0,0.0,0.0,1668050395.880467
223661550.0,0.024793867021799088,0.045602280646562576,0.030354969203472137,0.0,0.0,0.0,1668050395.980571
223761589.0,0.024182790890336037,0.03846049681305885,0.02507341280579567,0.0,0.0,0.0,1668050396.08061
223861454.0,0.02111341431736946,0.027143321931362152,0.02846347913146019,0.0,0.0,0.0,1668050396.180475
223961463.0,0.022017039358615875,0.026604702696204185,0.025596749037504196,0.0,0.0,0.0,1668050396.280484
224061830.0,0.02310292050242424,0.024236446246504784,0.02387160249054432,0.0,0.0,0.0,1668050396.380851
224161425.0,0.02203533798456192,0.024597179144620895,0.026929063722491264,0.0,0.0,0.0,1668050396.480446
224261461.0,0.020444722846150398,0.023471618071198463,0.028392834588885307,0.0,0.0,0.0,1668050396.580482
227273650.0,0.31186357140541077,0.3511626124382019,0.3197076916694641,0.0,0.0,0.0,1668050399.592671
227373463.0,0.20646101236343384,0.2822325527667999,0.2655584216117859,0.0,0.0,0.0,1668050399.692484
227473526.0,0.16144876182079315,0.17733295261859894,0.2968399226665497,0.0,0.0,0.0,1668050399.792547
227573452.0,0.20730821788311005,0.2048812061548233,0.3804827630519867,0.0,0.0,0.0,1668050399.892473
227673400.0,0.25511670112609863,0.16715705394744873,0.4405241906642914,0.0,0.0,0.0,1668050399.992421
227773441.0,0.26897263526916504,0.14173927903175354,0.3259814381599426,0.0,0.0,0.0,1668050400.092462
227873495.0,0.24087217450141907,0.1800471842288971,0.2039107084274292,0.0,0.0,0.0,1668050400.192516
227973371.0,0.2004854828119278,0.2630925178527832,0.20147842168807983,0.0,0.0,0.0,1668050400.292392
228073453.0,0.17274396121501923,0.3065562844276428,0.19728675484657288,0.0,0.0,0.0,1668050400.392474
228173642.0,0.13399116694927216,0.2183322012424469,0.16668973863124847,0.0,0.0,0.0,1668050400.492663
228273343.0,0.09492814540863037,0.13437101244926453,0.11417543143033981,0.0,0.0,0.0,1668050400.592364
228373356.0,0.06639629602432251,0.09584245085716248,0.0792079046368599,0.0,0.0,0.0,1668050400.692377
228473536.0,0.07143200188875198,0.11006588488817215,0.07025645673274994,0.0,0.0,0.0,1668050400.792557
228573539.0,0.10568463057279587,0.12488102167844772,0.1041017398238182,0.0,0.0,0.0,1668050400.89256
228673671.0,0.09573027491569519,0.13363489508628845,0.0942997857928276,0.0,0.0,0.0,1668050400.992692
228773581.0,0.07003293186426163,0.09735453873872757,0.057185228914022446,0.0,0.0,0.0,1668050401.092602
228873449.0,0.050889287143945694,0.07513521611690521,0.045971035957336426,0.0,0.0,0.0,1668050401.19247
228973346.0,0.05338085815310478,0.05245894566178322,0.03776571899652481,0.0,0.0,0.0,1668050401.292367
229073569.0,0.0428544320166111,0.04878320172429085,0.032948944717645645,0.0,0.0,0.0,1668050401.39259
229173345.0,0.043981265276670456,0.051411766558885574,0.0364178866147995,0.0,0.0,0.0,1668050401.492366
229273421.0,0.04969389736652374,0.047568127512931824,0.03343621641397476,0.0,0.0,0.0,1668050401.592442
229373416.0,0.04692508652806282,0.04313628375530243,0.028604380786418915,0.0,0.0,0.0,1668050401.692437
229473492.0,0.0408036932349205,0.043758291751146317,0.025813831016421318,0.0,0.0,0.0,1668050401.792513
229573410.0,0.0333978608250618,0.03069600649178028,0.028089536353945732,0.0,0.0,0.0,1668050401.892431
229673507.0,0.032831668853759766,0.025637835264205933,0.02881650999188423,0.0,0.0,0.0,1668050401.992528
229773437.0,0.026539679616689682,0.023677079007029533,0.02226335182785988,0.0,0.0,0.0,1668050402.092458
229873306.0,0.03058362565934658,0.025962693616747856,0.02410796284675598,0.0,0.0,0.0,1668050402.192327
229973405.0,0.029313381761312485,0.029195008799433708,0.02684617042541504,0.0,0.0,0.0,1668050402.2924259
230073466.0,0.028591319918632507,0.02352036163210869,0.026133600622415543,0.0,0.0,0.0,1668050402.392487
233087130.0,0.4298843443393707,0.31721654534339905,0.3651721477508545,0.0,0.0,0.0,1668050405.406151
233186822.0,0.41635945439338684,0.331620991230011,0.31773483753204346,0.0,0.0,0.0,1668050405.505843
233286774.0,0.37161895632743835,0.3197760283946991,0.23513822257518768,0.0,0.0,0.0,1668050405.605795
233387129.0,0.49198007583618164,0.38967451453208923,0.34840673208236694,0.0,0.0,0.0,1668050405.70615
233486909.0,0.5091552138328552,0.39481303095817566,0.5016884207725525,0.0,0.0,0.0,1668050405.80593
233586928.0,0.3920297622680664,0.35825610160827637,0.2997224032878876,0.0,0.0,0.0,1668050405.9059489
233686832.0,0.35340288281440735,0.3575533628463745,0.2113339602947235,0.0,0.0,0.0,1668050406.005853
233786826.0,0.3203558325767517,0.25659802556037903,0.14245453476905823,0.0,0.0,0.0,1668050406.105847
233886750.0,0.24648898839950562,0.15802815556526184,0.1098746582865715,0.0,0.0,0.0,1668050406.205771
233986762.0,0.16219192743301392,0.12998349964618683,0.08276347815990448,0.0,0.0,0.0,1668050406.305783
234086863.0,0.14186669886112213,0.10776829719543457,0.08678341656923294,0.0,0.0,0.0,1668050406.405884
234186783.0,0.10237633436918259,0.11885599792003632,0.06532008200883865,0.0,0.0,0.0,1668050406.505804
234286782.0,0.09847910702228546,0.13442330062389374,0.0732879489660263,0.0,0.0,0.0,1668050406.605803
234387319.0,0.0623927041888237,0.08581226319074631,0.05037672072649002,0.0,0.0,0.0,1668050406.70634
234486797.0,0.06974447518587112,0.06424032896757126,0.046632640063762665,0.0,0.0,0.0,1668050406.805818
234586905.0,0.08523672819137573,0.06613577157258987,0.07004725933074951,0.0,0.0,0.0,1668050406.905926
234686837.0,0.0796545147895813,0.0686631053686142,0.07238627970218658,0.0,0.0,0.0,1668050407.005858
234786797.0,0.06230134516954422,0.07316137105226517,0.05045110359787941,0.0,0.0,0.0,1668050407.105818
234886842.0,0.05443112552165985,0.061908017843961716,0.036551740020513535,0.0,0.0,0.0,1668050407.205863
234986768.0,0.04500222206115723,0.07704927772283554,0.03651854395866394,0.0,0.0,0.0,1668050407.305789
235086834.0,0.03587958589196205,0.06325621902942657,0.030773736536502838,0.0,0.0,0.0,1668050407.405855
235186874.0,0.042802419513463974,0.05858729034662247,0.02960883267223835,0.0,0.0,0.0,1668050407.505895
235286986.0,0.046276021748781204,0.05126157030463219,0.032292138785123825,0.0,0.0,0.0,1668050407.606007
235387221.0,0.041856810450553894,0.048037946224212646,0.02688634768128395,0.0,0.0,0.0,1668050407.706242
235486915.0,0.041022587567567825,0.046603307127952576,0.02518029697239399,0.0,0.0,0.0,1668050407.805936
235586797.0,0.037954263389110565,0.03993860259652138,0.022582847625017166,0.0,0.0,0.0,1668050407.905818
235686827.0,0.032265182584524155,0.03252149000763893,0.026522014290094376,0.0,0.0,0.0,1668050408.005848
238399122.0,0.17887113988399506,0.36113396286964417,0.16695775091648102,0.0,0.0,0.0,1668050410.718143
238499487.0,0.15856683254241943,0.3635804355144501,0.12840402126312256,0.0,0.0,0.0,1668050410.818508
238598867.0,0.1353992223739624,0.2433900088071823,0.0984835997223854,0.0,0.0,0.0,1668050410.917888
238699058.0,0.18662738800048828,0.16289988160133362,0.1444377303123474,0.0,0.0,0.0,1668050411.018079
238798999.0,0.13072673976421356,0.1817312240600586,0.10836371034383774,0.0,0.0,0.0,1668050411.11802
238899083.0,0.1260591447353363,0.15862087905406952,0.09454124420881271,0.0,0.0,0.0,1668050411.218104
238998996.0,0.09578726440668106,0.12665288150310516,0.09063056111335754,0.0,0.0,0.0,1668050411.318017
239098908.0,0.09593557566404343,0.1004159078001976,0.10417217761278152,0.0,0.0,0.0,1668050411.417929
239198960.0,0.07110611349344254,0.10711591690778732,0.11088422685861588,0.0,0.0,0.0,1668050411.517981
239298952.0,0.08244478702545166,0.10553388297557831,0.12862274050712585,0.0,0.0,0.0,1668050411.617973
239398984.0,0.07792507857084274,0.08986276388168335,0.11605078727006912,0.0,0.0,0.0,1668050411.718005
239499052.0,0.07561948150396347,0.06969267874956131,0.14032642543315887,0.0,0.0,0.0,1668050411.818073
239599026.0,0.0660475641489029,0.07294303923845291,0.10086426883935928,0.0,0.0,0.0,1668050411.918047
239699039.0,0.08015839755535126,0.09226502478122711,0.1300942301750183,0.0,0.0,0.0,1668050412.01806
239798927.0,0.08337965607643127,0.10957057774066925,0.12703104317188263,0.0,0.0,0.0,1668050412.117948
239898882.0,0.06563569605350494,0.1077854186296463,0.10138475894927979,0.0,0.0,0.0,1668050412.217903
239999055.0,0.06675759702920914,0.09465596824884415,0.12590570747852325,0.0,0.0,0.0,1668050412.318076
240098916.0,0.06324311345815659,0.10501608997583389,0.0872834175825119,0.0,0.0,0.0,1668050412.417937
240198896.0,0.04660830646753311,0.0890595093369484,0.09302996098995209,0.0,0.0,0.0,1668050412.517917
240298885.0,0.03568209707736969,0.06834659725427628,0.07900533825159073,0.0,0.0,0.0,1668050412.617906
240399098.0,0.03440048545598984,0.055577877908945084,0.04809783026576042,0.0,0.0,0.0,1668050412.718119
240499085.0,0.04574711620807648,0.04677979275584221,0.05888901650905609,0.0,0.0,0.0,1668050412.818106
240599212.0,0.03573363274335861,0.03782257065176964,0.04811551421880722,0.0,0.0,0.0,1668050412.918233
240699050.0,0.033735647797584534,0.029678191989660263,0.04470016062259674,0.0,0.0,0.0,1668050413.018071
240799148.0,0.033645711839199066,0.027292538434267044,0.053680431097745895,0.0,0.0,0.0,1668050413.118169
240898969.0,0.029618648812174797,0.03364741802215576,0.05054702237248421,0.0,0.0,0.0,1668050413.21799
240999040.0,0.028362970799207687,0.02844264917075634,0.04535000026226044,0.0,0.0,0.0,1668050413.3180609
241099042.0,0.036130357533693314,0.02902291715145111,0.04992787539958954,0.0,0.0,0.0,1668050413.418063
241199016.0,0.035503242164850235,0.031162923201918602,0.04333917796611786,0.0,0.0,0.0,1668050413.518037
241298983.0,0.028129076585173607,0.027495024725794792,0.04006345197558403,0.0,0.0,0.0,1668050413.618004
241399110.0,0.028247876092791557,0.02581641636788845,0.03697755187749863,0.0,0.0,0.0,1668050413.718131
241499356.0,0.026934858411550522,0.024252574890851974,0.035101328045129776,0.0,0.0,0.0,1668050413.818377
241598932.0,0.025102870538830757,0.021206296980381012,0.03301230072975159,0.0,0.0,0.0,1668050413.917953
241698880.0,0.024342592805624008,0.020885523408651352,0.03163748234510422,0.0,0.0,0.0,1668050414.017901
241798895.0,0.028648553416132927,0.02124520018696785,0.03265149146318436,0.0,0.0,0.0,1668050414.1179159
241898882.0,0.024453872814774513,0.021075954660773277,0.03896433115005493,0.0,0.0,0.0,1668050414.217903
241999063.0,0.024911880493164062,0.023338135331869125,0.03369372710585594,0.0,0.0,0.0,1668050414.318084
242099095.0,0.022915421053767204,0.022636810317635536,0.028458816930651665,0.0,0.0,0.0,1668050414.418116
242199064.0,0.021723369136452675,0.019848236814141273,0.03482126444578171,0.0,0.0,0.0,1668050414.518085
242298927.0,0.02213459648191929,0.02215077541768551,0.03141666203737259,0.0,0.0,0.0,1668050414.617948
242399103.0,0.02079799585044384,0.019077613949775696,0.028269272297620773,0.0,0.0,0.0,1668050414.718124
242499237.0,0.021287446841597557,0.01802130974829197,0.03645409643650055,0.0,0.0,0.0,1668050414.818258
242598840.0,0.0225263349711895,0.018543053418397903,0.02933754399418831,0.0,0.0,0.0,1668050414.917861
242699106.0,0.020043738186359406,0.019441530108451843,0.02579907700419426,0.0,0.0,0.0,1668050415.018127
242799110.0,0.021397624164819717,0.01907096616923809,0.03393825888633728,0.0,0.0,0.0,1668050415.118131
242899143.0,0.025224298238754272,0.016421733424067497,0.027622446417808533,0.0,0.0,0.0,1668050415.218164
242999107.0,0.02312268689274788,0.016690202057361603,0.029003698378801346,0.0,0.0,0.0,1668050415.3181279
243099052.0,0.021253587678074837,0.01754310168325901,0.028457477688789368,0.0,0.0,0.0,1668050415.418073
243198910.0,0.02238178253173828,0.016490772366523743,0.02835325337946415,0.0,0.0,0.0,1668050415.517931
243299049.0,0.01865226961672306,0.015611370094120502,0.022189084440469742,0.0,0.0,0.0,1668050415.61807
243398954.0,0.02207082137465477,0.017147338017821312,0.02042529173195362,0.0,0.0,0.0,1668050415.717975
246511149.0,0.19296737015247345,0.2001289576292038,0.13410614430904388,0.0,0.0,0.0,1668050418.83017
246610897.0,0.17301182448863983,0.15750481188297272,0.1310880333185196,0.0,0.0,0.0,1668050418.929918
246711015.0,0.12043969333171844,0.12687334418296814,0.1156606450676918,0.0,0.0,0.0,1668050419.030036
246810791.0,0.09522146731615067,0.09128700941801071,0.1076320931315422,0.0,0.0,0.0,1668050419.129812
246910883.0,0.09061408787965775,0.07632629573345184,0.11695079505443573,0.0,0.0,0.0,1668050419.229904
247010775.0,0.07219084352254868,0.08951303362846375,0.11611301451921463,0.0,0.0,0.0,1668050419.329796
247110830.0,0.059764549136161804,0.07672300934791565,0.09252268821001053,0.0,0.0,0.0,1668050419.429851
247210985.0,0.08010932058095932,0.08329698443412781,0.10022950917482376,0.0,0.0,0.0,1668050419.530006
247310821.0,0.09745543450117111,0.12126512825489044,0.09690786898136139,0.0,0.0,0.0,1668050419.629842
247410711.0,0.08019945025444031,0.09631364792585373,0.07705332338809967,0.0,0.0,0.0,1668050419.729732
247510738.0,0.06926155835390091,0.08412329107522964,0.06486445665359497,0.0,0.0,0.0,1668050419.829759
247610767.0,0.0661960318684578,0.08843616396188736,0.05481206253170967,0.0,0.0,0.0,1668050419.9297879
247710959.0,0.06612971425056458,0.10298363119363785,0.05640334263443947,0.0,0.0,0.0,1668050420.02998
247810793.0,0.055134162306785583,0.0799403190612793,0.04782600700855255,0.0,0.0,0.0,1668050420.129814
247910851.0,0.044470399618148804,0.067083440721035,0.04694563150405884,0.0,0.0,0.0,1668050420.229872
248010739.0,0.04850030690431595,0.04786223545670509,0.04858644679188728,0.0,0.0,0.0,1668050420.32976
248110921.0,0.042474761605262756,0.04314311966300011,0.03907206654548645,0.0,0.0,0.0,1668050420.429942
248211125.0,0.04247187077999115,0.03674833104014397,0.03432745113968849,0.0,0.0,0.0,1668050420.530146
248310753.0,0.049187563359737396,0.029592081904411316,0.030055304989218712,0.0,0.0,0.0,1668050420.629774
248410933.0,0.04809124022722244,0.02443546988070011,0.03299625590443611,0.0,0.0,0.0,1668050420.729954
248510761.0,0.03611639514565468,0.02267121709883213,0.03388882055878639,0.0,0.0,0.0,1668050420.829782
248610797.0,0.0367228128015995,0.026842446997761726,0.025545187294483185,0.0,0.0,0.0,1668050420.929818
248710993.0,0.0348697267472744,0.02564537338912487,0.03025011159479618,0.0,0.0,0.0,1668050421.030014
248810789.0,0.03193368762731552,0.03136983886361122,0.024670379236340523,0.0,0.0,0.0,1668050421.12981
248910764.0,0.03115454688668251,0.03448052331805229,0.02984723262488842,0.0,0.0,0.0,1668050421.229785
249011010.0,0.03322543948888779,0.03338038548827171,0.03501291945576668,0.0,0.0,0.0,1668050421.330031
249110852.0,0.03607084974646568,0.027084292843937874,0.027188710868358612,0.0,0.0,0.0,1668050421.429873
249210827.0,0.03374100103974342,0.02403845638036728,0.036607466638088226,0.0,0.0,0.0,1668050421.529848
249310872.0,0.03203211724758148,0.020411264151334763,0.03324521705508232,0.0,0.0,0.0,1668050421.629893
249410835.0,0.026461690664291382,0.020441612228751183,0.04065796360373497,0.0,0.0,0.0,1668050421.729856
249510743.0,0.029421545565128326,0.022714560851454735,0.03568785637617111,0.0,0.0,0.0,1668050421.829764
249610829.0,0.03056538850069046,0.02362864278256893,0.032689183950424194,0.0,0.0,0.0,1668050421.92985
249710845.0,0.027676595374941826,0.020331891253590584,0.0355079248547554,0.0,0.0,0.0,1668050422.029866
249810906.0,0.031729113310575485,0.018108265474438667,0.031982503831386566,0.0,0.0,0.0,1668050422.129927
252823047.0,0.31505438685417175,0.09172875434160233,0.5035305023193359,0.0,0.0,0.0,1668050425.142068
252922759.0,0.29793691635131836,0.10662858188152313,0.48916712403297424,0.0,0.0,0.0,1668050425.24178
253022755.0,0.3241981863975525,0.09521117806434631,0.39658427238464355,0.0,0.0,0.0,1668050425.341776
253122766.0,0.29982849955558777,0.07995887100696564,0.2501585781574249,0.0,0.0,0.0,1668050425.441787
253222896.0,0.18673808872699738,0.08102018386125565,0.16043588519096375,0.0,0.0,0.0,1668050425.541917
253322765.0,0.14004483819007874,0.07524903118610382,0.14347803592681885,0.0,0.0,0.0,1668050425.641786
253422745.0,0.10382504016160965,0.09999114274978638,0.11720174551010132,0.0,0.0,0.0,1668050425.741766
253522746.0,0.09045077115297318,0.07732924818992615,0.08218415081501007,0.0,0.0,0.0,1668050425.841767
253622754.0,0.1116723120212555,0.054342929273843765,0.07708264887332916,0.0,0.0,0.0,1668050425.941775
253722958.0,0.09603078663349152,0.05049313232302666,0.08191180229187012,0.0,0.0,0.0,1668050426.041979
253822724.0,0.06436973810195923,0.06153162196278572,0.06280362606048584,0.0,0.0,0.0,1668050426.141745
253922768.0,0.05250698700547218,0.06657221913337708,0.04328078776597977,0.0,0.0,0.0,1668050426.241789
254022828.0,0.0507669597864151,0.04702330380678177,0.03414791449904442,0.0,0.0,0.0,1668050426.341849
254122929.0,0.048951808363199234,0.06684792786836624,0.03309530392289162,0.0,0.0,0.0,1668050426.44195
254222666.0,0.0470028854906559,0.08396132290363312,0.03622429445385933,0.0,0.0,0.0,1668050426.541687
254322725.0,0.04784660041332245,0.07117586582899094,0.03222120925784111,0.0,0.0,0.0,1668050426.641746
254422785.0,0.03831745684146881,0.059945233166217804,0.032953906804323196,0.0,0.0,0.0,1668050426.741806
254522721.0,0.03859657049179077,0.040518466383218765,0.026884442195296288,0.0,0.0,0.0,1668050426.841742
254622760.0,0.043726518750190735,0.04304365813732147,0.02341996505856514,0.0,0.0,0.0,1668050426.941781
254722730.0,0.04175982251763344,0.03939375281333923,0.024301759898662567,0.0,0.0,0.0,1668050427.041751
254822668.0,0.03605147823691368,0.029446985572576523,0.024462534114718437,0.0,0.0,0.0,1668050427.141689
254922805.0,0.03707560524344444,0.024464625865221024,0.02604258619248867,0.0,0.0,0.0,1668050427.241826
255022870.0,0.0367049016058445,0.02624559961259365,0.026138104498386383,0.0,0.0,0.0,1668050427.341891
255122762.0,0.035238124430179596,0.02606295235455036,0.028560582548379898,0.0,0.0,0.0,1668050427.441783
255222667.0,0.03390525281429291,0.024044176563620567,0.03113093227148056,0.0,0.0,0.0,1668050427.541688
255322726.0,0.03984800726175308,0.02460465580224991,0.03492453321814537,0.0,0.0,0.0,1668050427.641747
255422762.0,0.032682210206985474,0.02468366175889969,0.03085050731897354,0.0,0.0,0.0,1668050427.741783
255522771.0,0.029695335775613785,0.029616888612508774,0.024084551259875298,0.0,0.0,0.0,1668050427.8417919
258434931.0,0.12365206331014633,0.18547214567661285,0.1066945344209671,0.0,0.0,0.0,1668050430.753952
258534894.0,0.13866083323955536,0.2023974359035492,0.12263837456703186,0.0,0.0,0.0,1668050430.853915
258634864.0,0.17554116249084473,0.22791261970996857,0.16659308969974518,0.0,0.0,0.0,1668050430.953885
258735025.0,0.12983235716819763,0.163783997297287,0.1265592873096466,0.0,0.0,0.0,1668050431.054046
258834837.0,0.14380429685115814,0.13405321538448334,0.13850615918636322,0.0,0.0,0.0,1668050431.153858
258934892.0,0.15549837052822113,0.10619944334030151,0.10248567163944244,0.0,0.0,0.0,1668050431.253913
259034787.0,0.15633726119995117,0.15192830562591553,0.10680115222930908,0.0,0.0,0.0,1668050431.353808
259134792.0,0.13475202023983002,0.13692831993103027,0.10566104203462601,0.0,0.0,0.0,1668050431.453813
259234866.0,0.10073037445545197,0.10027537494897842,0.08045238256454468,0.0,0.0,0.0,1668050431.553887
259334806.0,0.06608939915895462,0.0767195075750351,0.059127215296030045,0.0,0.0,0.0,1668050431.653827
259434900.0,0.0656203106045723,0.09090900421142578,0.05168745294213295,0.0,0.0,0.0,1668050431.753921
259534845.0,0.08507077395915985,0.107302725315094,0.06216318905353546,0.0,0.0,0.0,1668050431.853866
259635026.0,0.06295835226774216,0.10435915738344193,0.049633368849754333,0.0,0.0,0.0,1668050431.954047
259734835.0,0.04850361868739128,0.0814564898610115,0.037243809551000595,0.0,0.0,0.0,1668050432.053856
259834842.0,0.039401907473802567,0.06821595877408981,0.028664076700806618,0.0,0.0,0.0,1668050432.153863
259934799.0,0.04182857275009155,0.06273956596851349,0.03329062461853027,0.0,0.0,0.0,1668050432.25382
260034831.0,0.0450415275990963,0.04804570600390434,0.03884965926408768,0.0,0.0,0.0,1668050432.353852
260134916.0,0.04161146655678749,0.0540122352540493,0.034090910106897354,0.0,0.0,0.0,1668050432.453937
260234795.0,0.034364305436611176,0.04973699524998665,0.02721370942890644,0.0,0.0,0.0,1668050432.553816
260334784.0,0.03192315250635147,0.049981456249952316,0.03046172857284546,0.0,0.0,0.0,1668050432.653805
260434877.0,0.02887328900396824,0.04394485056400299,0.03312556818127632,0.0,0.0,0.0,1668050432.753898
260534958.0,0.02591402269899845,0.038107141852378845,0.02693909965455532,0.0,0.0,0.0,1668050432.8539789
260634803.0,0.02701394446194172,0.04630348086357117,0.021472536027431488,0.0,0.0,0.0,1668050432.953824
260734875.0,0.030260026454925537,0.0388539656996727,0.022377172484993935,0.0,0.0,0.0,1668050433.053896
260834801.0,0.028649626299738884,0.03368990495800972,0.029574749991297722,0.0,0.0,0.0,1668050433.153822
260934788.0,0.026952369138598442,0.029196932911872864,0.027424393221735954,0.0,0.0,0.0,1668050433.253809
261034807.0,0.026017922908067703,0.02664881944656372,0.028417883440852165,0.0,0.0,0.0,1668050433.353828
261134950.0,0.022874800488352776,0.025332750752568245,0.032263267785310745,0.0,0.0,0.0,1668050433.453971
261234782.0,0.020744118839502335,0.027454106137156487,0.026868576183915138,0.0,0.0,0.0,1668050433.553803
261334956.0,0.022125886753201485,0.022800352424383163,0.02560410648584366,0.0,0.0,0.0,1668050433.653977
261434941.0,0.02426689676940441,0.022697968408465385,0.026083577424287796,0.0,0.0,0.0,1668050433.753962
261534980.0,0.019076619297266006,0.021066129207611084,0.021659767255187035,0.0,0.0,0.0,1668050433.854001
261634774.0,0.02293352410197258,0.020589573308825493,0.026598960161209106,0.0,0.0,0.0,1668050433.953795
261734828.0,0.02192540466785431,0.021989276632666588,0.02428731881082058,0.0,0.0,0.0,1668050434.053849
261834906.0,0.02396525628864765,0.019107118248939514,0.024527525529265404,0.0,0.0,0.0,1668050434.153927
261934801.0,0.021720727905631065,0.019037486985325813,0.027207111939787865,0.0,0.0,0.0,1668050434.253822
262034871.0,0.022321274504065514,0.02104421705007553,0.02805125154554844,0.0,0.0,0.0,1668050434.353892
262134826.0,0.021943334490060806,0.02157747559249401,0.025626439601182938,0.0,0.0,0.0,1668050434.453847
262234812.0,0.02071559801697731,0.017686333507299423,0.0241817869246006,0.0,0.0,0.0,1668050434.553833
262334977.0,0.020753616467118263,0.01997821219265461,0.02377043291926384,0.0,0.0,0.0,1668050434.653998
262434820.0,0.02517869509756565,0.017747463658452034,0.02332485280930996,0.0,0.0,0.0,1668050434.753841
262534805.0,0.028450164943933487,0.016945457085967064,0.019676147028803825,0.0,0.0,0.0,1668050434.853826
262634830.0,0.022800903767347336,0.01780596561729908,0.022905491292476654,0.0,0.0,0.0,1668050434.953851
262734839.0,0.023660872131586075,0.01716660149395466,0.02227851189672947,0.0,0.0,0.0,1668050435.05386
262834919.0,0.019022462889552116,0.016762778162956238,0.02021542564034462,0.0,0.0,0.0,1668050435.15394
262934803.0,0.01855657994747162,0.018877413123846054,0.02008458785712719,0.0,0.0,0.0,1668050435.253824
263034862.0,0.019158976152539253,0.01746290549635887,0.019613023847341537,0.0,0.0,0.0,1668050435.353883
263134815.0,0.021269964054226875,0.016369391232728958,0.01885354146361351,0.0,0.0,0.0,1668050435.453836
263234954.0,0.02005293034017086,0.016716068610548973,0.01830560341477394,0.0,0.0,0.0,1668050435.553975
263334838.0,0.02175658568739891,0.01816433109343052,0.017590312287211418,0.0,0.0,0.0,1668050435.653859
263434990.0,0.022268308326601982,0.018412411212921143,0.0180195402354002,0.0,0.0,0.0,1668050435.754011
263534967.0,0.02047446370124817,0.016037315130233765,0.017986666411161423,0.0,0.0,0.0,1668050435.853988
263634903.0,0.022787313908338547,0.015254903584718704,0.016522614285349846,0.0,0.0,0.0,1668050435.953924
263734819.0,0.021611331030726433,0.01729791983962059,0.02035653404891491,0.0,0.0,0.0,1668050436.05384
263834825.0,0.020111002027988434,0.017448004335165024,0.017556915059685707,0.0,0.0,0.0,1668050436.153846
263934825.0,0.018645191565155983,0.01661025732755661,0.01636173576116562,0.0,0.0,0.0,1668050436.253846
264034872.0,0.017108185216784477,0.01459223497658968,0.01632857695221901,0.0,0.0,0.0,1668050436.353893
264134950.0,0.020761489868164062,0.01689274236559868,0.015115354210138321,0.0,0.0,0.0,1668050436.453971
264234759.0,0.020742876455187798,0.016959285363554955,0.019290931522846222,0.0,0.0,0.0,1668050436.55378
264334775.0,0.017305033281445503,0.01768326945602894,0.017777983099222183,0.0,0.0,0.0,1668050436.653796
264434843.0,0.018497038632631302,0.016322119161486626,0.019739395007491112,0.0,0.0,0.0,1668050436.753864
264534856.0,0.019959451630711555,0.016713574528694153,0.01903204433619976,0.0,0.0,0.0,1668050436.853877
264634806.0,0.02065150812268257,0.018192525953054428,0.01789703592658043,0.0,0.0,0.0,1668050436.953827
264734846.0,0.019501585513353348,0.019866736605763435,0.0221051387488842,0.0,0.0,0.0,1668050437.053867
264834773.0,0.019108811393380165,0.02022387646138668,0.01987246610224247,0.0,0.0,0.0,1668050437.153794
264934756.0,0.019044797867536545,0.01859280839562416,0.018446847796440125,0.0,0.0,0.0,1668050437.253777
265034955.0,0.020447148010134697,0.01686566136777401,0.018143465742468834,0.0,0.0,0.0,1668050437.353976
265134825.0,0.021525101736187935,0.015973111614584923,0.020283322781324387,0.0,0.0,0.0,1668050437.453846
265234829.0,0.02235092781484127,0.016217384487390518,0.019315417855978012,0.0,0.0,0.0,1668050437.55385
265334826.0,0.018324559554457664,0.01797384023666382,0.019175559282302856,0.0,0.0,0.0,1668050437.653847
265434773.0,0.01876666396856308,0.01769663393497467,0.018355349078774452,0.0,0.0,0.0,1668050437.753794
265534997.0,0.02208578959107399,0.016251560300588608,0.02366775833070278,0.0,0.0,0.0,1668050437.854018
265634810.0,0.02282560057938099,0.01696440763771534,0.024158097803592682,0.0,0.0,0.0,1668050437.953831
265734993.0,0.02301483042538166,0.01807607337832451,0.022143755108118057,0.0,0.0,0.0,1668050438.054014
265834888.0,0.02102617919445038,0.017284074798226357,0.02023201994597912,0.0,0.0,0.0,1668050438.153909
265934929.0,0.01786811091005802,0.017397312447428703,0.01994236558675766,0.0,0.0,0.0,1668050438.2539499
266034818.0,0.019880592823028564,0.0188138484954834,0.020136220380663872,0.0,0.0,0.0,1668050438.353839
266134863.0,0.024380233138799667,0.01832623779773712,0.019882934167981148,0.0,0.0,0.0,1668050438.453884
266234934.0,0.021950505673885345,0.01634724996984005,0.023199016228318214,0.0,0.0,0.0,1668050438.553955
266334794.0,0.02094745822250843,0.0161120742559433,0.018196552991867065,0.0,0.0,0.0,1668050438.653815
266434816.0,0.018216006457805634,0.017970634624361992,0.01945495791733265,0.0,0.0,0.0,1668050438.7538369
266534818.0,0.01969168148934841,0.01967143453657627,0.015644436702132225,0.0,0.0,0.0,1668050438.853839
266634783.0,0.019714651629328728,0.018460405990481377,0.01700887456536293,0.0,0.0,0.0,1668050438.953804
266734900.0,0.020260538905858994,0.016301723197102547,0.018118103966116905,0.0,0.0,0.0,1668050439.053921
266834995.0,0.019206050783395767,0.0167339239269495,0.018657686188817024,0.0,0.0,0.0,1668050439.154016
266934823.0,0.021611293777823448,0.016700712963938713,0.019505789503455162,0.0,0.0,0.0,1668050439.253844
267034783.0,0.018811466172337532,0.017182888463139534,0.019893180578947067,0.0,0.0,0.0,1668050439.3538039
267134824.0,0.019969239830970764,0.016601979732513428,0.02020692639052868,0.0,0.0,0.0,1668050439.453845
267234888.0,0.02181459777057171,0.018967201933264732,0.0210034791380167,0.0,0.0,0.0,1668050439.553909
267334751.0,0.020120171830058098,0.020588012412190437,0.018358957022428513,0.0,0.0,0.0,1668050439.6537719
267434777.0,0.021703185513615608,0.017740529030561447,0.018579846248030663,0.0,0.0,0.0,1668050439.753798
267534895.0,0.019298745319247246,0.016617337241768837,0.018917735666036606,0.0,0.0,0.0,1668050439.853916
267634947.0,0.02256467193365097,0.01628098264336586,0.021259509027004242,0.0,0.0,0.0,1668050439.953968
267734975.0,0.025665314868092537,0.019253386184573174,0.020667579025030136,0.0,0.0,0.0,1668050440.053996
267834891.0,0.03148360550403595,0.01972479186952114,0.02823491021990776,0.0,0.0,0.0,1668050440.153912
267934846.0,0.028231339529156685,0.017835136502981186,0.038990337401628494,0.0,0.0,0.0,1668050440.253867
268034873.0,0.025488046929240227,0.019217710942029953,0.04064745083451271,0.0,0.0,0.0,1668050440.353894
268134806.0,0.028957873582839966,0.01719730906188488,0.042297862470149994,0.0,0.0,0.0,1668050440.453827
268234846.0,0.03208976611495018,0.019106252118945122,0.028441214933991432,0.0,0.0,0.0,1668050440.553867
268334748.0,0.029501216486096382,0.019305065274238586,0.03493385389447212,0.0,0.0,0.0,1668050440.653769
268434799.0,0.030887076631188393,0.01820480078458786,0.027977298945188522,0.0,0.0,0.0,1668050440.75382
268534948.0,0.03795352205634117,0.01722174882888794,0.019247636198997498,0.0,0.0,0.0,1668050440.853969
268634977.0,0.03172427788376808,0.018077149987220764,0.028273824602365494,0.0,0.0,0.0,1668050440.953998
268734825.0,0.033189382404088974,0.019264252856373787,0.028721723705530167,0.0,0.0,0.0,1668050441.053846
268834878.0,0.04035146161913872,0.02175813727080822,0.035921841859817505,0.0,0.0,0.0,1668050441.153899
268934820.0,0.036925967782735825,0.0186463613063097,0.040524594485759735,0.0,0.0,0.0,1668050441.253841
269034864.0,0.030254406854510307,0.02234872616827488,0.03194483742117882,0.0,0.0,0.0,1668050441.353885
269134895.0,0.03725894168019295,0.018045643344521523,0.027034668251872063,0.0,0.0,0.0,1668050441.453916
269234813.0,0.03736630454659462,0.019297994673252106,0.028259025886654854,0.0,0.0,0.0,1668050441.553834
269334785.0,0.0333920381963253,0.020767532289028168,0.02542961947619915,0.0,0.0,0.0,1668050441.653806
269434828.0,0.028984328731894493,0.01848970726132393,0.024413345381617546,0.0,0.0,0.0,1668050441.753849
269535124.0,0.030184680595993996,0.018282325938344002,0.030463384464383125,0.0,0.0,0.0,1668050441.854145
269634827.0,0.02556915581226349,0.016769733279943466,0.033006273210048676,0.0,0.0,0.0,1668050441.953848
269734888.0,0.021239714697003365,0.017936650663614273,0.042439017444849014,0.0,0.0,0.0,1668050442.053909
269834903.0,0.02266063541173935,0.018919480964541435,0.03449451923370361,0.0,0.0,0.0,1668050442.153924
269934968.0,0.028879428282380104,0.017203310504555702,0.06065365672111511,0.0,0.0,0.0,1668050442.253989
270034849.0,0.02565794251859188,0.019094157963991165,0.04891332983970642,0.0,0.0,0.0,1668050442.35387
270134854.0,0.03124396502971649,0.02146170660853386,0.04348282516002655,0.0,0.0,0.0,1668050442.453875
270234805.0,0.02851124107837677,0.020162325352430344,0.06334567815065384,0.0,0.0,0.0,1668050442.553826
270334786.0,0.0285137128084898,0.025555728003382683,0.047019701451063156,0.0,0.0,0.0,1668050442.653807
270434993.0,0.022129172459244728,0.021429840475320816,0.05297587066888809,0.0,0.0,0.0,1668050442.754014
270534833.0,0.022623838856816292,0.023689622059464455,0.05667826533317566,0.0,0.0,0.0,1668050442.853854
270634810.0,0.02574872225522995,0.025584474205970764,0.05398397147655487,0.0,0.0,0.0,1668050442.953831
270734864.0,0.02595885470509529,0.019992809742689133,0.05540723353624344,0.0,0.0,0.0,1668050443.053885
270834786.0,0.028403157368302345,0.020641546696424484,0.053176186978816986,0.0,0.0,0.0,1668050443.153807
270934771.0,0.026572952046990395,0.02743464522063732,0.06469673663377762,0.0,0.0,0.0,1668050443.253792
271034834.0,0.02413354441523552,0.026032745838165283,0.06803551316261292,0.0,0.0,0.0,1668050443.353855
271134826.0,0.024887938052415848,0.027022739872336388,0.05949145555496216,0.0,0.0,0.0,1668050443.453847
271234774.0,0.02659657597541809,0.023233061656355858,0.05325480177998543,0.0,0.0,0.0,1668050443.553795
271334841.0,0.025305626913905144,0.020614726468920708,0.04752425104379654,0.0,0.0,0.0,1668050443.653862
271434879.0,0.0335443876683712,0.018040580675005913,0.03920836001634598,0.0,0.0,0.0,1668050443.7539
271534962.0,0.036062322556972504,0.01946735568344593,0.03627816587686539,0.0,0.0,0.0,1668050443.853983
271634885.0,0.033577390015125275,0.018372805789113045,0.04352220520377159,0.0,0.0,0.0,1668050443.953906
271734791.0,0.03378999978303909,0.01823287457227707,0.03967379033565521,0.0,0.0,0.0,1668050444.053812
271834945.0,0.03466825559735298,0.018082482740283012,0.034477367997169495,0.0,0.0,0.0,1668050444.153966
271934823.0,0.02833128347992897,0.01858539506793022,0.03189210593700409,0.0,0.0,0.0,1668050444.253844
272034998.0,0.029164547100663185,0.01811537705361843,0.029294820502400398,0.0,0.0,0.0,1668050444.354019
272134891.0,0.03411850705742836,0.017371825873851776,0.023203926160931587,0.0,0.0,0.0,1668050444.453912
272234890.0,0.03340098634362221,0.01888858713209629,0.02872074767947197,0.0,0.0,0.0,1668050444.553911
272334811.0,0.037195391952991486,0.01826939545571804,0.028625842183828354,0.0,0.0,0.0,1668050444.653832
272434770.0,0.03782534599304199,0.01724480278789997,0.025040490552783012,0.0,0.0,0.0,1668050444.753791
272534955.0,0.036657389253377914,0.019155405461788177,0.03265117108821869,0.0,0.0,0.0,1668050444.853976
272634758.0,0.028060907498002052,0.017710348591208458,0.031040245667099953,0.0,0.0,0.0,1668050444.953779
272734828.0,0.028006605803966522,0.018641065806150436,0.028553849086165428,0.0,0.0,0.0,1668050445.053849
272834779.0,0.03413672745227814,0.01918172650039196,0.040043994784355164,0.0,0.0,0.0,1668050445.1538
272934781.0,0.03287719562649727,0.020690906792879105,0.04977176710963249,0.0,0.0,0.0,1668050445.253802
273034904.0,0.027710236608982086,0.02032371237874031,0.0429481640458107,0.0,0.0,0.0,1668050445.353925
273134931.0,0.032678548246622086,0.018304618075489998,0.031224191188812256,0.0,0.0,0.0,1668050445.453952
273234805.0,0.02638849802315235,0.01820872724056244,0.03723714500665665,0.0,0.0,0.0,1668050445.553826
273334776.0,0.027433421462774277,0.01915040612220764,0.03245483338832855,0.0,0.0,0.0,1668050445.653797
274134935.0,0.02506069652736187,0.019171666353940964,0.07494444400072098,0.0,0.0,0.0,1668050446.453956
274234764.0,0.02262217178940773,0.02005680650472641,0.05791490525007248,0.0,0.0,0.0,1668050446.553785
274334785.0,0.022526554763317108,0.02080131135880947,0.07955962419509888,0.0,0.0,0.0,1668050446.653806
274434688.0,0.02932920679450035,0.02151651866734028,0.07897944748401642,0.0,0.0,0.0,1668050446.753709
274534781.0,0.03419570252299309,0.026063190773129463,0.07630852609872818,0.0,0.0,0.0,1668050446.853802
274634735.0,0.024152323603630066,0.022696446627378464,0.07551160454750061,0.0,0.0,0.0,1668050446.953756
274734749.0,0.02316593937575817,0.021591125056147575,0.10562589764595032,0.0,0.0,0.0,1668050447.05377
274834699.0,0.026735462248325348,0.018396660685539246,0.08176011592149734,0.0,0.0,0.0,1668050447.15372
274934896.0,0.021884221583604813,0.018152499571442604,0.08089287579059601,0.0,0.0,0.0,1668050447.253917
275034788.0,0.02487838827073574,0.02311454527080059,0.07468066364526749,0.0,0.0,0.0,1668050447.3538089
275134786.0,0.03116236999630928,0.020953258499503136,0.09445956349372864,0.0,0.0,0.0,1668050447.4538069
275234819.0,0.027364015579223633,0.024256668984889984,0.08063516020774841,0.0,0.0,0.0,1668050447.55384
275334779.0,0.027774767950177193,0.024463869631290436,0.06931953132152557,0.0,0.0,0.0,1668050447.6538
275434740.0,0.026197286322712898,0.02092856727540493,0.10597027838230133,0.0,0.0,0.0,1668050447.753761
275534805.0,0.02764294110238552,0.021068260073661804,0.08546819537878036,0.0,0.0,0.0,1668050447.853826
275634751.0,0.037685249000787735,0.01804495044052601,0.05802866443991661,0.0,0.0,0.0,1668050447.953772
275734775.0,0.04449954628944397,0.01836140640079975,0.10533285140991211,0.0,0.0,0.0,1668050448.053796
275834881.0,0.04179699346423149,0.024784645065665245,0.06902378797531128,0.0,0.0,0.0,1668050448.153902
275934764.0,0.04738128185272217,0.026253340765833855,0.07911159843206406,0.0,0.0,0.0,1668050448.253785
276034868.0,0.04362029954791069,0.02400624006986618,0.08448833972215652,0.0,0.0,0.0,1668050448.353889
276134778.0,0.04191778600215912,0.025588201358914375,0.07197683304548264,0.0,0.0,0.0,1668050448.453799
276234780.0,0.04257090762257576,0.019810037687420845,0.07071420550346375,0.0,0.0,0.0,1668050448.553801
276334832.0,0.05525526776909828,0.021165791898965836,0.04652312770485878,0.0,0.0,0.0,1668050448.653853
276434802.0,0.058923717588186264,0.018929747864603996,0.049143001437187195,0.0,0.0,0.0,1668050448.753823
276534755.0,0.05238707363605499,0.022583037614822388,0.046432264149188995,0.0,0.0,0.0,1668050448.853776
276634784.0,0.056364767253398895,0.02129858359694481,0.03383785858750343,0.0,0.0,0.0,1668050448.953805
276735007.0,0.04996940493583679,0.02353529818356037,0.04995773732662201,0.0,0.0,0.0,1668050449.054028
276834806.0,0.040105387568473816,0.023104965686798096,0.04664482921361923,0.0,0.0,0.0,1668050449.153827
276934806.0,0.04842911660671234,0.03304583579301834,0.04991719499230385,0.0,0.0,0.0,1668050449.253827
277034843.0,0.07439514994621277,0.0542023628950119,0.05152426287531853,0.0,0.0,0.0,1668050449.353864
277134809.0,0.07555936276912689,0.07877844572067261,0.05123916640877724,0.0,0.0,0.0,1668050449.45383
277234787.0,0.08518703281879425,0.060670241713523865,0.04718974977731705,0.0,0.0,0.0,1668050449.553808
277334822.0,0.07973535358905792,0.06495384871959686,0.03798239678144455,0.0,0.0,0.0,1668050449.653843
277434830.0,0.06778828054666519,0.08764683455228806,0.038380805402994156,0.0,0.0,0.0,1668050449.753851
277534784.0,0.0640970766544342,0.06558634340763092,0.03298959136009216,0.0,0.0,0.0,1668050449.853805
277634872.0,0.06552198529243469,0.08103407174348831,0.04114396497607231,0.0,0.0,0.0,1668050449.953893
277734777.0,0.07244528830051422,0.07636371999979019,0.03962680324912071,0.0,0.0,0.0,1668050450.053798
277834761.0,0.07322520762681961,0.05217224732041359,0.05028499662876129,0.0,0.0,0.0,1668050450.153782
277934750.0,0.0716504231095314,0.055307790637016296,0.06026908755302429,0.0,0.0,0.0,1668050450.253771
278034758.0,0.06080815568566322,0.06626011431217194,0.04174235090613365,0.0,0.0,0.0,1668050450.353779
278134880.0,0.06647012382745743,0.04771788790822029,0.0431649275124073,0.0,0.0,0.0,1668050450.453901
278234769.0,0.14896366000175476,0.2918863892555237,0.10608149319887161,0.0,0.0,0.0,1668050450.55379
278334735.0,0.11454625427722931,0.23325449228286743,0.09056920558214188,0.0,0.0,0.0,1668050450.653756
278434809.0,0.08440199494361877,0.1471150815486908,0.06254902482032776,0.0,0.0,0.0,1668050450.75383
278534918.0,0.058604832738637924,0.10576452314853668,0.058006130158901215,0.0,0.0,0.0,1668050450.853939
278634765.0,0.06983683258295059,0.09505283087491989,0.057276591658592224,0.0,0.0,0.0,1668050450.953786
278734819.0,0.08380381762981415,0.120101198554039,0.08598604053258896,0.0,0.0,0.0,1668050451.05384
278834772.0,0.1760367602109909,0.09766093641519547,0.1584203541278839,0.0,0.0,0.0,1668050451.153793
278934766.0,0.20989474654197693,0.28461965918540955,0.20327842235565186,0.0,0.0,0.0,1668050451.253787
279034752.0,0.6143786907196045,0.6491008400917053,0.6521961092948914,0.0,0.0,0.0,1668050451.3537729
279134778.0,0.7091923952102661,1.0329253673553467,0.962287962436676,0.0,0.0,0.0,1668050451.453799
279234811.0,1.2271283864974976,1.4529390335083008,1.5839747190475464,0.0,0.0,0.0,1668050451.553832
279334763.0,1.2736544609069824,1.414292335510254,3.333812713623047,0.0,0.0,0.0,1668050451.653784
279435093.0,1.0871200561523438,1.7218258380889893,3.1123523712158203,0.0,0.0,0.0,1668050451.754114
279534826.0,0.7841174006462097,1.6993612051010132,1.9956837892532349,0.0,0.0,0.0,1668050451.853847
279634863.0,0.9359015226364136,1.460178256034851,3.52520489692688,0.0,0.0,0.0,1668050451.953884
279734757.0,1.4273815155029297,1.5457130670547485,3.8085830211639404,0.0,0.0,0.0,1668050452.053778
279834721.0,1.3626075983047485,1.4714915752410889,2.6338093280792236,0.0,0.0,0.0,1668050452.153742
279934754.0,1.2746386528015137,1.5089898109436035,3.4291622638702393,0.0,0.0,0.0,1668050452.253775
280034814.0,0.9324597716331482,1.6106948852539062,2.3675057888031006,0.0,0.0,0.0,1668050452.3538349
280134817.0,0.7200738787651062,1.7039467096328735,1.9052391052246094,0.0,0.0,0.0,1668050452.4538379
280234836.0,0.7864901423454285,1.4737989902496338,1.4823377132415771,0.0,0.0,0.0,1668050452.553857
280334845.0,0.9218177795410156,1.3492804765701294,1.783109188079834,0.0,0.0,0.0,1668050452.653866
280434731.0,0.7706153988838196,1.1803451776504517,2.0748510360717773,0.0,0.0,0.0,1668050452.753752
280534763.0,0.7167290449142456,1.3028160333633423,1.5186940431594849,0.0,0.0,0.0,1668050452.853784
280634736.0,0.6587111949920654,1.6000133752822876,1.6036556959152222,0.0,0.0,0.0,1668050452.953757
280734794.0,0.4982767105102539,1.7980623245239258,1.4016056060791016,0.0,0.0,0.0,1668050453.053815
280834771.0,0.6526190042495728,2.0500285625457764,1.3373898267745972,0.0,0.0,0.0,1668050453.153792
280934755.0,1.013007640838623,1.7415812015533447,1.4262125492095947,0.0,0.0,0.0,1668050453.253776
281034787.0,1.0808720588684082,1.7006840705871582,2.143711805343628,0.0,0.0,0.0,1668050453.353808
281134843.0,0.961786150932312,1.7070531845092773,2.0089008808135986,0.0,0.0,0.0,1668050453.453864
281234901.0,0.990021288394928,2.0942647457122803,2.28385591506958,0.0,0.0,0.0,1668050453.553922
281334698.0,1.1784197092056274,1.9792972803115845,1.5453330278396606,0.0,0.0,0.0,1668050453.653719
281434732.0,1.0817627906799316,1.9199838638305664,1.2082635164260864,0.0,0.0,0.0,1668050453.753753
281534858.0,0.8942891359329224,1.872436285018921,2.768766403198242,0.0,0.0,0.0,1668050453.853879
281634827.0,0.7045099139213562,1.850216269493103,2.1741249561309814,0.0,0.0,0.0,1668050453.953848
281734782.0,0.5363679528236389,1.696716547012329,1.5893723964691162,0.0,0.0,0.0,1668050454.053803
281834815.0,0.7149891257286072,1.6048907041549683,1.364625334739685,0.0,0.0,0.0,1668050454.153836
281934771.0,1.042298674583435,2.0107719898223877,1.6188238859176636,0.0,0.0,0.0,1668050454.253792
282034823.0,1.011634349822998,2.213346004486084,2.5554912090301514,0.0,0.0,0.0,1668050454.353844
282134894.0,0.9930499196052551,2.497314453125,2.679610252380371,0.0,0.0,0.0,1668050454.4539149
282234758.0,1.0120658874511719,2.2933359146118164,1.6072357892990112,0.0,0.0,0.0,1668050454.553779
282335295.0,0.969443678855896,2.2453081607818604,1.2097721099853516,0.0,0.0,0.0,1668050454.654316
282434767.0,0.7434155941009521,2.060779333114624,1.0908679962158203,0.0,0.0,0.0,1668050454.753788
282534767.0,0.8241413235664368,1.9750744104385376,1.4758387804031372,0.0,0.0,0.0,1668050454.853788
282634821.0,0.6123959422111511,2.1926441192626953,1.4412814378738403,0.0,0.0,0.0,1668050454.953842
282734817.0,0.7755047678947449,2.0590744018554688,1.2993496656417847,0.0,0.0,0.0,1668050455.053838
282834752.0,0.8918465971946716,2.12347412109375,1.2808700799942017,0.0,0.0,0.0,1668050455.153773
282934762.0,1.0839415788650513,2.7637264728546143,1.7418556213378906,0.0,0.0,0.0,1668050455.253783
283034910.0,0.9013619422912598,2.3779871463775635,1.430959939956665,0.0,0.0,0.0,1668050455.353931
283134751.0,0.9706104397773743,2.1343936920166016,1.4146144390106201,0.0,0.0,0.0,1668050455.453772
283234740.0,0.7273197174072266,2.368852138519287,1.711856722831726,0.0,0.0,0.0,1668050455.553761
283334842.0,0.815942645072937,2.445211172103882,1.2652252912521362,0.0,0.0,0.0,1668050455.653863
283434749.0,1.1798197031021118,2.925964832305908,1.7424559593200684,0.0,0.0,0.0,1668050455.7537699
283534808.0,0.847114086151123,3.034092426300049,1.8323140144348145,0.0,0.0,0.0,1668050455.853829
283634851.0,1.0310108661651611,2.6008341312408447,2.2918803691864014,0.0,0.0,0.0,1668050455.953872
283734776.0,0.9042341709136963,2.409566640853882,2.699622392654419,0.0,0.0,0.0,1668050456.053797
283834866.0,0.7311123013496399,1.87504243850708,2.074324131011963,0.0,0.0,0.0,1668050456.153887
283934935.0,0.7671531438827515,1.815682291984558,2.0866012573242188,0.0,0.0,0.0,1668050456.253956
284034844.0,0.8074169754981995,2.2393956184387207,2.267655611038208,0.0,0.0,0.0,1668050456.353865
284134807.0,0.9541696906089783,1.8080878257751465,1.842904806137085,0.0,0.0,0.0,1668050456.453828
284234801.0,0.7902938723564148,1.7656160593032837,2.1373445987701416,0.0,0.0,0.0,1668050456.553822
284335044.0,0.7603064775466919,2.086355686187744,1.7284784317016602,0.0,0.0,0.0,1668050456.654065
284434804.0,0.9290427565574646,1.861717700958252,2.0612823963165283,0.0,0.0,0.0,1668050456.753825
284534807.0,0.7272190451622009,1.873383641242981,1.9461287260055542,0.0,0.0,0.0,1668050456.853828
284634766.0,0.9656170010566711,1.9463999271392822,1.3359811305999756,0.0,0.0,0.0,1668050456.953787
284734778.0,0.8742538690567017,1.6579569578170776,1.0393542051315308,0.0,0.0,0.0,1668050457.053799
284834919.0,0.8170046210289001,1.6174955368041992,1.222670078277588,0.0,0.0,0.0,1668050457.15394
284934754.0,0.8713651299476624,1.9956640005111694,1.7586783170700073,0.0,0.0,0.0,1668050457.253775
285034800.0,0.8357994556427002,2.454970121383667,1.8388752937316895,0.0,0.0,0.0,1668050457.353821
285134732.0,0.8104383945465088,1.9856704473495483,2.7119507789611816,0.0,0.0,0.0,1668050457.453753
285234745.0,0.6769945621490479,1.6789313554763794,1.870469093322754,0.0,0.0,0.0,1668050457.553766
285335300.0,0.983196496963501,1.6322267055511475,1.7789561748504639,0.0,0.0,0.0,1668050457.654321
285434749.0,0.8525781035423279,1.6010054349899292,1.9881668090820312,0.0,0.0,0.0,1668050457.7537699
285534851.0,0.8102944493293762,1.5465835332870483,1.4480562210083008,0.0,0.0,0.0,1668050457.853872
285634726.0,0.7417912483215332,1.1383976936340332,0.973878026008606,0.0,0.0,0.0,1668050457.953747
285735068.0,1.0349189043045044,1.1255706548690796,1.8127962350845337,0.0,0.0,0.0,1668050458.054089
285834773.0,1.0210464000701904,1.2666881084442139,2.0460257530212402,0.0,0.0,0.0,1668050458.153794
285934767.0,0.8982866406440735,1.4292958974838257,1.5991390943527222,0.0,0.0,0.0,1668050458.253788
286034828.0,0.9776558876037598,1.301013469696045,1.973217248916626,0.0,0.0,0.0,1668050458.353849
286134746.0,1.095510482788086,1.2546861171722412,1.9817745685577393,0.0,0.0,0.0,1668050458.453767
286234748.0,1.1547931432724,1.2687230110168457,1.7834609746932983,0.0,0.0,0.0,1668050458.5537689
286334943.0,0.8721514344215393,1.3645893335342407,1.3656229972839355,0.0,0.0,0.0,1668050458.653964
286434787.0,1.0475213527679443,1.1970305442810059,2.0060296058654785,0.0,0.0,0.0,1668050458.753808
286534988.0,0.8857419490814209,1.173926591873169,2.151099681854248,0.0,0.0,0.0,1668050458.854009
286634874.0,0.9393109083175659,1.038826584815979,1.7288718223571777,0.0,0.0,0.0,1668050458.953895
286734790.0,0.7473329305648804,1.0484791994094849,1.3729181289672852,0.0,0.0,0.0,1668050459.053811
286834764.0,0.8763149976730347,1.2390717267990112,1.1904288530349731,0.0,0.0,0.0,1668050459.153785
286934764.0,0.929071307182312,1.2863831520080566,1.2095677852630615,0.0,0.0,0.0,1668050459.253785
287034815.0,0.8412383198738098,0.8704084157943726,1.3483023643493652,0.0,0.0,0.0,1668050459.353836
287134795.0,0.8286433219909668,1.4184997081756592,1.7525888681411743,0.0,0.0,0.0,1668050459.453816
287234729.0,0.8103688359260559,1.2717626094818115,1.4986919164657593,0.0,0.0,0.0,1668050459.55375
287334889.0,0.8894785046577454,2.4439749717712402,2.286611795425415,0.0,0.0,0.0,1668050459.65391
287434707.0,0.7886028289794922,1.6409130096435547,1.952949047088623,0.0,0.0,0.0,1668050459.753728
287534940.0,0.7687445282936096,1.3133494853973389,1.3807302713394165,0.0,0.0,0.0,1668050459.853961
287634715.0,0.8266795873641968,1.091775894165039,0.8897297382354736,0.0,0.0,0.0,1668050459.953736
287734783.0,0.7778925895690918,0.9801674485206604,0.841010332107544,0.0,0.0,0.0,1668050460.053804
287834847.0,0.8032680749893188,0.9795848727226257,1.2870550155639648,0.0,0.0,0.0,1668050460.153868
287934749.0,0.7853739261627197,1.544657588005066,1.3256665468215942,0.0,0.0,0.0,1668050460.2537699
288034775.0,1.0139436721801758,1.6309905052185059,0.9772534966468811,0.0,0.0,0.0,1668050460.353796
288134814.0,1.0551941394805908,1.4502151012420654,1.4871054887771606,0.0,0.0,0.0,1668050460.453835
288234794.0,1.3505481481552124,1.257015585899353,1.8249809741973877,0.0,0.0,0.0,1668050460.553815
288335008.0,1.3854198455810547,1.379724383354187,1.9148825407028198,0.0,0.0,0.0,1668050460.654029
288434917.0,1.1163229942321777,1.263351321220398,1.3820264339447021,0.0,0.0,0.0,1668050460.753938
288534764.0,0.9607250690460205,1.251629114151001,1.2526048421859741,0.0,0.0,0.0,1668050460.853785
288634846.0,0.930059552192688,1.3176356554031372,1.5939913988113403,0.0,0.0,0.0,1668050460.953867
288734878.0,1.0883420705795288,1.237984299659729,1.5477330684661865,0.0,0.0,0.0,1668050461.053899
288834797.0,1.1617861986160278,2.42238450050354,1.1356966495513916,0.0,0.0,0.0,1668050461.153818
288934759.0,0.8253287672996521,2.315558910369873,2.268772840499878,0.0,0.0,0.0,1668050461.25378
289034769.0,0.6536020040512085,1.3963313102722168,1.8771833181381226,0.0,0.0,0.0,1668050461.35379
289134729.0,0.5684412717819214,0.790462851524353,1.4363465309143066,0.0,0.0,0.0,1668050461.45375
289234735.0,0.5811188817024231,0.6575228571891785,0.9633122682571411,0.0,0.0,0.0,1668050461.553756
289334951.0,0.7334818243980408,0.5719093084335327,0.8081325888633728,0.0,0.0,0.0,1668050461.653972
289434756.0,0.6482958197593689,0.5523861646652222,0.69061678647995,0.0,0.0,0.0,1668050461.753777
289534782.0,0.6795236468315125,0.5656474828720093,0.9483301043510437,0.0,0.0,0.0,1668050461.853803
289634779.0,0.7034822106361389,0.5213479995727539,0.9795086979866028,0.0,0.0,0.0,1668050461.9538
289746776.0,0.5648616552352905,0.5117366313934326,0.6916541457176208,0.0,0.0,0.0,1668050462.065797
289846640.0,0.7071145176887512,0.46638059616088867,0.7652418613433838,0.0,0.0,0.0,1668050462.165661
289946662.0,0.5984780192375183,0.3845125138759613,0.677951455116272,0.0,0.0,0.0,1668050462.265683
290046692.0,0.45696207880973816,0.6554654836654663,0.6414031386375427,0.0,0.0,0.0,1668050462.365713
290146756.0,0.3604190945625305,0.5035083293914795,0.40952613949775696,0.0,0.0,0.0,1668050462.465777
290246650.0,0.5098876953125,0.31838130950927734,0.47166797518730164,0.0,0.0,0.0,1668050462.565671
290346641.0,0.3949248790740967,0.2613474726676941,0.30695801973342896,0.0,0.0,0.0,1668050462.665662
290446641.0,0.23895297944545746,0.4809555113315582,0.17880317568778992,0.0,0.0,0.0,1668050462.765662
290546669.0,0.15417946875095367,0.49682918190956116,0.1665252149105072,0.0,0.0,0.0,1668050462.86569
290646624.0,0.18184451758861542,0.36331722140312195,0.22130829095840454,0.0,0.0,0.0,1668050462.965645
290746742.0,0.15215964615345,0.31866031885147095,0.2073185294866562,0.0,0.0,0.0,1668050463.065763
290846717.0,0.26019829511642456,0.24722206592559814,0.22131533920764923,0.0,0.0,0.0,1668050463.1657379
290946721.0,0.1787359118461609,0.2427213191986084,0.16395707428455353,0.0,0.0,0.0,1668050463.265742
291046872.0,0.11126179993152618,0.2572118043899536,0.12779971957206726,0.0,0.0,0.0,1668050463.365893
291146753.0,0.0834159404039383,0.17162388563156128,0.08078113943338394,0.0,0.0,0.0,1668050463.465774
291246710.0,0.06152287498116493,0.11921572685241699,0.056882038712501526,0.0,0.0,0.0,1668050463.565731
291346681.0,0.06692253798246384,0.08800492435693741,0.05053538456559181,0.0,0.0,0.0,1668050463.665702
291446674.0,0.06079134717583656,0.09675635397434235,0.038443293422460556,0.0,0.0,0.0,1668050463.765695
291546692.0,0.061283957213163376,0.0843672975897789,0.0364755243062973,0.0,0.0,0.0,1668050463.865713
291646684.0,0.047154102474451065,0.06911728531122208,0.027704352512955666,0.0,0.0,0.0,1668050463.965705
291746645.0,0.041746895760297775,0.05472524091601372,0.03165625408291817,0.0,0.0,0.0,1668050464.065666
291846677.0,0.04223243519663811,0.04211856797337532,0.04297083243727684,0.0,0.0,0.0,1668050464.165698
291946753.0,0.04612096771597862,0.0481053926050663,0.052952542901039124,0.0,0.0,0.0,1668050464.265774
292046784.0,0.04911774396896362,0.06280895322561264,0.06136097386479378,0.0,0.0,0.0,1668050464.365805
292146721.0,0.0424533486366272,0.04495130851864815,0.04871835932135582,0.0,0.0,0.0,1668050464.4657419
292246629.0,0.0346391499042511,0.040255166590213776,0.06449172645807266,0.0,0.0,0.0,1668050464.56565
292346679.0,0.043044865131378174,0.04804817587137222,0.06097988039255142,0.0,0.0,0.0,1668050464.6657
292446600.0,0.07079281657934189,0.040353789925575256,0.06552939862012863,0.0,0.0,0.0,1668050464.765621
292546671.0,0.05251987650990486,0.05605338141322136,0.05202591046690941,0.0,0.0,0.0,1668050464.865692
292646729.0,0.03981617093086243,0.043102461844682693,0.0382913202047348,0.0,0.0,0.0,1668050464.96575
292746628.0,0.0390881784260273,0.03142542019486427,0.04244355857372284,0.0,0.0,0.0,1668050465.065649
292846745.0,0.03497806563973427,0.025837013497948647,0.05290437489748001,0.0,0.0,0.0,1668050465.165766
292946758.0,0.03403109684586525,0.023818936198949814,0.03903571516275406,0.0,0.0,0.0,1668050465.265779
293046802.0,0.03352026268839836,0.023351620882749557,0.06646540015935898,0.0,0.0,0.0,1668050465.365823
293146792.0,0.03604552894830704,0.022502748295664787,0.05143648386001587,0.0,0.0,0.0,1668050465.465813
293246665.0,0.027513088658452034,0.019350092858076096,0.07055111229419708,0.0,0.0,0.0,1668050465.565686
293346784.0,0.0278615802526474,0.021479589864611626,0.05183221772313118,0.0,0.0,0.0,1668050465.665805
293446670.0,0.033249810338020325,0.019000006839632988,0.03782219812273979,0.0,0.0,0.0,1668050465.765691
293546651.0,0.03176405280828476,0.01746692694723606,0.04762467369437218,0.0,0.0,0.0,1668050465.8656719
293646659.0,0.030797071754932404,0.018058350309729576,0.03116108663380146,0.0,0.0,0.0,1668050465.96568
293746803.0,0.032542016357183456,0.01970420405268669,0.038404978811740875,0.0,0.0,0.0,1668050466.065824
293846684.0,0.03622538223862648,0.01992269791662693,0.03650248050689697,0.0,0.0,0.0,1668050466.165705
293946690.0,0.029568757861852646,0.02249770611524582,0.03483196347951889,0.0,0.0,0.0,1668050466.265711
294046750.0,0.03286424279212952,0.021739598363637924,0.037289153784513474,0.0,0.0,0.0,1668050466.365771
294146764.0,0.03953951969742775,0.018940910696983337,0.027890652418136597,0.0,0.0,0.0,1668050466.465785
294246664.0,0.038149747997522354,0.02005595713853836,0.024131596088409424,0.0,0.0,0.0,1668050466.565685
294346753.0,0.03721499443054199,0.018554003909230232,0.024290593340992928,0.0,0.0,0.0,1668050466.6657739
294446705.0,0.04265258088707924,0.018968332558870316,0.022990452125668526,0.0,0.0,0.0,1668050466.765726
294546687.0,0.04222920536994934,0.018413005396723747,0.024452785030007362,0.0,0.0,0.0,1668050466.8657079
294646763.0,0.03389488905668259,0.018075069412589073,0.02989470213651657,0.0,0.0,0.0,1668050466.965784
294746640.0,0.04087018221616745,0.016516154631972313,0.031916141510009766,0.0,0.0,0.0,1668050467.065661
294846649.0,0.040947411209344864,0.01852325163781643,0.03548044338822365,0.0,0.0,0.0,1668050467.16567
294946618.0,0.03618777170777321,0.01743088662624359,0.027897533029317856,0.0,0.0,0.0,1668050467.265639
295046875.0,0.04040158540010452,0.019491733983159065,0.05888179689645767,0.0,0.0,0.0,1668050467.365896
295146607.0,0.045769102871418,0.018752429634332657,0.04063418135046959,0.0,0.0,0.0,1668050467.465628
295246508.0,0.03433806821703911,0.01956411637365818,0.041921477764844894,0.0,0.0,0.0,1668050467.5655289
295346669.0,0.03853021562099457,0.01905263029038906,0.053382232785224915,0.0,0.0,0.0,1668050467.66569
295446636.0,0.038999833166599274,0.018153397366404533,0.04565376788377762,0.0,0.0,0.0,1668050467.765657
295546742.0,0.04066036641597748,0.020124593749642372,0.0489264577627182,0.0,0.0,0.0,1668050467.865763
295646588.0,0.04244465008378029,0.020059475675225258,0.0807613730430603,0.0,0.0,0.0,1668050467.965609
295746581.0,0.03454095125198364,0.024806302040815353,0.081001877784729,0.0,0.0,0.0,1668050468.065602
295846589.0,0.02729906514286995,0.02169325202703476,0.11625319719314575,0.0,0.0,0.0,1668050468.16561
295946596.0,0.029354555532336235,0.025614067912101746,0.11084078252315521,0.0,0.0,0.0,1668050468.265617
296046583.0,0.037385232746601105,0.024580135941505432,0.07179602980613708,0.0,0.0,0.0,1668050468.365604
296146672.0,0.04065833240747452,0.028888724744319916,0.14907200634479523,0.0,0.0,0.0,1668050468.465693
296246666.0,0.03789797052741051,0.03562923148274422,0.10245660692453384,0.0,0.0,0.0,1668050468.565687
296346691.0,0.036893580108881,0.028833458200097084,0.10469984263181686,0.0,0.0,0.0,1668050468.6657119
296446690.0,0.033496126532554626,0.027542786672711372,0.14579646289348602,0.0,0.0,0.0,1668050468.765711
296546498.0,0.0288729015737772,0.03327200561761856,0.08700618892908096,0.0,0.0,0.0,1668050468.865519
296646565.0,0.02798178791999817,0.025105763226747513,0.0854107216000557,0.0,0.0,0.0,1668050468.965586
296746581.0,0.030620092526078224,0.024612432345747948,0.08593261241912842,0.0,0.0,0.0,1668050469.065602
296846607.0,0.03146996349096298,0.025602560490369797,0.07956914603710175,0.0,0.0,0.0,1668050469.165628
296946456.0,0.03205087408423424,0.020851198583841324,0.08004143834114075,0.0,0.0,0.0,1668050469.265477
297046634.0,0.030433818697929382,0.019025787711143494,0.07893133163452148,0.0,0.0,0.0,1668050469.365655
297146634.0,0.026179905980825424,0.027124464511871338,0.06661242246627808,0.0,0.0,0.0,1668050469.465655
297246591.0,0.025092272087931633,0.023040765896439552,0.08377403765916824,0.0,0.0,0.0,1668050469.565612
297346793.0,0.029863031581044197,0.024928465485572815,0.07198136299848557,0.0,0.0,0.0,1668050469.665814
297446473.0,0.026979872956871986,0.024844057857990265,0.07163938879966736,0.0,0.0,0.0,1668050469.7654939
297546797.0,0.02693764492869377,0.022266775369644165,0.08140242844820023,0.0,0.0,0.0,1668050469.865818
297646622.0,0.03599003702402115,0.028994685038924217,0.0700911208987236,0.0,0.0,0.0,1668050469.965643
